~Version
 VERS              .         3                             : CWLS LOG ASCII STANDARD - VERSION 3.0
 WRAP              .         NO                            : ONE LINE PER DEPTH STEP
 DLM               .         SPACE                         : DELIMITING CHARACTER(SPACE TAB OR COMMA)
~Well Information
#_______________________________________________________________________________
#
#PARAMETER_NAME    .UNIT     VALUE                         : DESCRIPTION
#_______________________________________________________________________________
STRT               .M        1146.048                      : First reference value
STOP               .M        2108.3016                     : Last reference value
STEP               .M        0.1524                        : Step increment
NULL               .         -9999                         : Missing value
WELL               .         02_97-DD-1X                   : Well name
FLD                .         Dong Do                       : 
PDAT               .         Mean Sea Level                : 
WST                .         0                             : 
STATE              .         Offshore Vietnam              : 
ERT                .         32                            : 
RWS                .         0                             : 
COMP               .         Lam Son JOC                   : 
CNTY               .         Adriatic XI                   : 
DRMEA              .         Drill Floor                   : 
UTMZ               .         49                            : 
SRVC               .         SCH                           : 
DATE               .         8/18/2011                     : 
LGMEA              .         Drill Floor                   : 
ORIGINALWELLNAME   .         02_97-DD-1X                   : 
LATI               .         10.11502                      : 
LOC                .         Cuu Long Basin, Offshore Vietn: 
EPDAT              .         0.000000                      : 
APDAT              .         32                            : 
COUNT              .         Vietnam                       : 
LONG               .         108.55532                     : 
GDAT               .                                       : 
PROV               .                                       : 
UWI                .                                       : 
LIC                .                                       : 
STAT               .                                       : 
API                .                                       : 
CTRY               .                                       : 
~Parameter Information Block
#_______________________________________________________________________________
#
#PARAMETER_NAME    .UNIT     VALUE                         : DESCRIPTION
#_______________________________________________________________________________
SET                .         02_97-DD-1X                   : 
TLFamily_DTCO3     .         Compressional Slowness        : 
TLFamily_RT_HRLT   .         Formation Resistivity         : 
TLFamily_ECGR      .         Gamma Ray                     : 
TLFamily_TNPH      .         Neutron Porosity              : 
REAL_CREATION_DATE .         Fri Jun 30 2017-17_18_31      : 
TLFamily_RXOZ      .         Micro Resistivity             : 
TLFamily_HCAL      .         Caliper                       : 
TLFamily_RLA1      .         Shallow Resistivity           : 
TLFamily_RLA2      .         Array Resistivity             : 
TLFamily_DEPTH     .         Measured Depth                : 
TLFamily_DTSH5     .         Shear Slowness                : 
TLFamily_RLA3      .         Medium Resistivity            : 
TLFamily_RLA4      .         Array Resistivity             : 
TLFamily_RLA5      .         Deep Resistivity              : 
TLFamily_RHOZ      .         Bulk Density                  : 
TLFamily_HDEVI     .                                       : 
TLFamily_HAZI      .         Hole Azimuth                  : 
~Curve Information
#_______________________________________________________________________________
#
#LOGNAME           .UNIT     LOG_ID                        : DESCRIPTION
#_______________________________________________________________________________
DEPTH              .M                                      : Depth {F}
DTCO3              .US/F                                   : Sonic      Compressional Slowness from Measurement 3 <_techsia_lb_>F13 {F}
DTSH5              .US/F                                   : ShearSonic Shear Slowness from Measurement 5 <_techsia_lb_>F13 {F}
ECGR               .GAPI                                   : Gamma-Ray <_techsia_lb_>F13 {F}
HAZI               .Deg                                    : Azimuth {F}
HCAL               .IN                                     : Caliper    HRCC Cal. Caliper <_techsia_lb_>F13 {F}
HDEVI              .Deg                                    : Deviation {F}
RHOZ               .G/C3                                   : Density    HRDD Standard Resolution Formation Density <_techsia_lb_>F13 {F}
RLA1               .OHMM                                   : ShalRes    HRLT Borehole Corrected Resistivity 1 <_techsia_lb_>F13 {F}
RLA2               .OHMM                                   : MedRes     HRLT Borehole Corrected Resistivity 2 <_techsia_lb_>F13 {F}
RLA3               .OHMM                                   : DeepRes    HRLT Borehole Corrected Resistivity 3 <_techsia_lb_>F13 {F}
RLA4               .OHMM                                   : XDeepRes   HRLT Borehole Corrected Resistivity 4 <_techsia_lb_>F13 {F}
RLA5               .OHMM                                   : UltraDeepR HRLT Borehole Corrected Resistivity 5 <_techsia_lb_>F13 {F}
RT_HRLT            .OHMM                                   : HRLT Computed True Resistivity <_techsia_lb_>F13 {F}
RXOZ               .OHMM                                   : MicroRes   MCFL Standard Resolution Invaded Zone Resistivity <_techsia_lb_>F13 {F}
TNPH               .V/V                                    : Neutron    Thermal Neutron Porosity <_techsia_lb_>F13 {F}
~Ascii
# ...
1587.7032  93.3967    172.3942   107.8703   316.43     12.4547    0.6        2.2529     1.2181     1.3362     1.4646     1.6208     1.8235     2.2896     0.9674     0.3327    
1587.8556  93.277     172.0186   117.0462   316.43     12.4921    0.6        2.2522     1.21       1.3249     1.4472     1.5893     1.75       2.1779     0.8755     0.3226    
1588.008   93.0807    171.9431   120.5774   316.43     12.5543    0.6        2.2681     1.2077     1.3296     1.4517     1.5925     1.7437     2.1633     0.8065     0.3208    
1588.1604  93.2224    170.2439   122.5533   316.43     12.5997    0.6        2.2843     1.2297     1.3617     1.5011     1.6452     1.8001     2.2425     0.7832     0.3227    
1588.3128  93.8572    170.5433   118.277    316.43     12.675     0.6        2.2932     1.2965     1.4344     1.5698     1.7212     1.8631     2.3049     0.8054     0.3217    
1588.4652  94.1718    170.9586   119.7785   316.43     12.6636    0.6        2.2973     1.3372     1.4517     1.5791     1.7296     1.8603     2.2845     0.8086     0.3183    
1588.6176  94.5147    171.1022   119.4051   316.43     12.6869    0.6        2.3016     1.3674     1.4406     1.5567     1.7006     1.8219     2.2213     0.7841     0.315     
1588.77    94.541     170.7983   119.6329   316.43     12.6366    0.6        2.2995     1.3754     1.4663     1.5952     1.7434     1.8595     2.2822     0.7919     0.3148    
1588.9224  95.1142    170.7983   117.1186   316.43     12.6304    0.6        2.29       1.3696     1.4783     1.6193     1.7688     1.8947     2.3369     0.791      0.3       
1589.0748  95.5711    170.2517   118.1144   316.43     12.5394    0.6        2.2823     1.3074     1.4494     1.5923     1.7323     1.8738     2.3145     0.8672     0.2863    
1589.2272  95.7164    170.4173   115.9234   316.43     12.4921    0.6        2.2805     1.2842     1.4431     1.5816     1.7165     1.843      2.2614     1.0298     0.2886    
1589.3796  95.1661    169.9778   111.7279   316.43     12.4105    0.6        2.2757     1.3581     1.5453     1.6935     1.8372     1.9657     2.4127     1.1801     0.3019    
1589.532   94.7949    170.3784   108.9219   316.43     12.3433    0.6        2.2747     1.4145     1.5767     1.7118     1.8408     2.0001     2.4314     1.2044     0.3114    
1589.6844  94.2899    170.1163   108.5172   316.43     12.2932    0.6        2.2806     1.3799     1.5091     1.6379     1.7615     1.9268     2.3469     1.0292     0.3188    
1589.8368  91.3145    169.3033   108.3801   316.43     12.29      0.6        2.292      1.3782     1.4684     1.5933     1.7223     1.9024     2.3304     0.9713     0.3305    
1589.9892  91.3145    166.0494   107.3018   316.43     12.297     0.6        2.2993     1.4134     1.5043     1.642      1.7875     1.9787     2.4515     0.9735     0.3316    
1590.1416  87.9615    166.0494   105.6492   316.43     12.2636    0.6        2.3075     1.4545     1.54       1.6957     1.8511     2.0621     2.5807     0.9777     0.3169    
1590.294   87.226     164.5221   107.6799   316.43     12.2984    0.6        2.3259     1.5625     1.6489     1.8193     2.0099     2.2401     2.8322     1.036      0.3081    
1590.4464  86.2047    156.9556   105.2216   316.43     12.326     0.6        2.3568     1.68       1.7822     1.9546     2.1646     2.4444     3.0879     1.1055     0.3011    
1590.5988  85.1318    155.7174   102.7457   316.43     12.3193    0.6        2.3765     1.6703     1.7675     1.9147     2.138      2.4324     3.063      1.1334     0.2858    
1590.7512  85.4268    156.9358   101.3676   316.43     12.3489    0.6        2.3773     1.5807     1.6634     1.8007     2.0021     2.2667     2.8434     1.0755     0.2825    
1590.9036  85.8766    168.7888   108.5883   316.43     12.3893    0.6        2.3635     1.4118     1.535      1.653      1.8473     2.0885     2.6151     0.9092     0.2849    
1591.056   88.0982    166.5814   116.6703   316.43     12.4577    0.6        2.3412     1.2012     1.3        1.4053     1.5648     1.7435     2.1759     0.7924     0.3061    
1591.2084  89.222     156.7044   119.8233   316.43     12.5216    0.6        2.3216     1.1506     1.2655     1.3479     1.5132     1.6383     2.0271     0.7199     0.315     
1591.3608  90.2276    162.3099   114.4079   316.43     12.5863    0.6        2.2967     1.169      1.3072     1.4067     1.5774     1.7029     2.1083     0.7325     0.3344    
1591.5132  91.7246    165.8363   112.6557   316.43     12.6148    0.6        2.2802     1.1467     1.3238     1.4279     1.6072     1.6955     2.0989     0.7553     0.3499    
1591.6656  92.3667    168.1317   112.6962   316.43     12.6695    0.6        2.2668     1.1672     1.3271     1.4406     1.6151     1.6499     2.0443     0.7725     0.3561    
1591.818   92.3667    169.4547   114.425    316.43     12.6084    0.6        2.2669     1.1099     1.2782     1.4092     1.5768     1.5946     1.9955     0.7232     0.3466    
1591.9704  93.0946    169.7012   115.9058   316.43     12.779     0.6        2.2882     0.9556     1.0829     1.2033     1.3406     1.3066     1.6316     0.6098     0.3194    
1592.1228  93.1537    169.7012   114.8489   316.43     12.7282    0.6        2.3187     0.925      1.0702     1.2092     1.337      1.3055     1.6405     0.5147     0.3106    
1592.2752  92.6318    171.651    112.5876   316.43     12.5425    0.6        2.3436     1.0052     1.185      1.3572     1.4893     1.4424     1.8193     0.4977     0.3015    
1592.4276  92.6385    172.2085   109.5909   316.43     12.3404    0.6        2.3462     0.9585     1.1255     1.2768     1.3735     1.3266     1.6272     0.461      0.2997    
1592.58    92.5476    171.4081   111.5815   316.43     12.3138    0.6        2.3371     0.8261     0.9868     1.1081     1.1762     1.1293     1.3775     0.4339     0.2961    
1592.7324  91.1583    169.2698   116.3839   316.43     12.3006    0.6        2.3273     0.8152     1.022      1.1326     1.1799     1.1257     1.3712     0.4178     0.2994    
1592.8848  89.079     166.8882   114.7877   316.43     12.2977    0.6        2.3305     0.8752     1.1014     1.2023     1.2445     1.1873     1.3918     0.4515     0.3026    
1593.0372  89.079     153.2147   110.298    316.43     12.2967    0.6        2.339      0.9217     1.1257     1.219      1.246      1.1883     1.3388     0.4786     0.2963    
1593.1896  87.0285    151.8369   107.5254   316.43     12.3052    0.6        2.3546     0.9105     1.0486     1.131      1.1579     1.1127     1.2499     0.4879     0.2902    
1593.342   86.8423    151.6743   109.2968   316.43     12.3061    0.6        2.3836     0.9045     1.0066     1.0735     1.1053     1.0633     1.1857     0.5322     0.2947    
1593.4944  84.2024    148.5406   108.9562   316.43     12.2963    0.6        2.4301     1.0792     1.1972     1.3071     1.3612     1.3203     1.5019     0.7011     0.281     
1593.6468  83.3457    139.6618   105.6345   316.43     12.3128    0.6        2.4941     1.4749     1.59       1.7723     1.8747     1.8423     2.2049     1.164      0.2509    
1593.7992  78.9005    124.751    102.1035   316.43     12.317     0.6        2.5645     2.1711     2.7268     3.1014     3.3846     3.3881     4.2745     2.277      0.2016    
1593.9516  73.1471    124.751    100.3886   316.43     12.3656    0.6        2.6295     2.8307     4.8835     5.4233     6.3046     6.2959     8.0359     5.5826     0.1545    
1594.104   107.4847   138.2661   98.0882    316.43     12.479     0.6        2.6586     3.3724     11.5553    10.979     13.2252    14.0488    18.967     22.3488    0.1213    
1594.2564  103.8019   125.8058   98.719     316.43     12.5449    0.6        2.6367     3.6244     15.4506    14.2053    17.2025    18.7106    25.3655    14.2282    0.1109    
1594.4088  103.8019   144.9969   107.2544   316.43     12.6325    0.6        2.5883     3.2337     13.6807    11.2385    13.2592    14.423     15.463     4.9344     0.1249    
1594.5612  102.0552   144.9969   121.8073   316.43     12.8411    0.6        2.5227     2.5651     5.0922     4.3307     4.4663     4.5349     4.4623     1.5607     0.1586    
