~Version
 VERS              .         3                             : CWLS LOG ASCII STANDARD - VERSION 3.0
 WRAP              .         NO                            : ONE LINE PER DEPTH STEP
 DLM               .         SPACE                         : DELIMITING CHARACTER(SPACE TAB OR COMMA)
~Well Information
#_______________________________________________________________________________
#
#PARAMETER_NAME    .UNIT     VALUE                         : DESCRIPTION
#_______________________________________________________________________________
STRT               .M        1146.048                      : First reference value
STOP               .M        2108.3016                     : Last reference value
STEP               .M        0.1524                        : Step increment
NULL               .         -9999                         : Missing value
WELL               .         02_97-DD-1X                   : Well name
FLD                .         Dong Do                       : 
PDAT               .         Mean Sea Level                : 
WST                .         0                             : 
STATE              .         Offshore Vietnam              : 
ERT                .         32                            : 
RWS                .         0                             : 
COMP               .         Lam Son JOC                   : 
CNTY               .         Adriatic XI                   : 
DRMEA              .         Drill Floor                   : 
UTMZ               .         49                            : 
SRVC               .         SCH                           : 
DATE               .         8/18/2011                     : 
LGMEA              .         Drill Floor                   : 
ORIGINALWELLNAME   .         02_97-DD-1X                   : 
LATI               .         10.11502                      : 
LOC                .         Cuu Long Basin, Offshore Vietn: 
EPDAT              .         0.000000                      : 
APDAT              .         32                            : 
COUNT              .         Vietnam                       : 
LONG               .         108.55532                     : 
GDAT               .                                       : 
PROV               .                                       : 
UWI                .                                       : 
LIC                .                                       : 
STAT               .                                       : 
API                .                                       : 
CTRY               .                                       : 
~Parameter Information Block
#_______________________________________________________________________________
#
#PARAMETER_NAME    .UNIT     VALUE                         : DESCRIPTION
#_______________________________________________________________________________
SET                .         02_97-DD-1X                   : 
TLFamily_DTCO3     .         Compressional Slowness        : 
TLFamily_RT_HRLT   .         Formation Resistivity         : 
TLFamily_ECGR      .         Gamma Ray                     : 
TLFamily_TNPH      .         Neutron Porosity              : 
REAL_CREATION_DATE .         Fri Jun 30 2017-17_18_31      : 
TLFamily_RXOZ      .         Micro Resistivity             : 
TLFamily_HCAL      .         Caliper                       : 
TLFamily_RLA1      .         Shallow Resistivity           : 
TLFamily_RLA2      .         Array Resistivity             : 
TLFamily_DEPTH     .         Measured Depth                : 
TLFamily_DTSH5     .         Shear Slowness                : 
TLFamily_RLA3      .         Medium Resistivity            : 
TLFamily_RLA4      .         Array Resistivity             : 
TLFamily_RLA5      .         Deep Resistivity              : 
TLFamily_RHOZ      .         Bulk Density                  : 
TLFamily_HDEVI     .                                       : 
TLFamily_HAZI      .         Hole Azimuth                  : 
~Curve Information
#_______________________________________________________________________________
#
#LOGNAME           .UNIT     LOG_ID                        : DESCRIPTION
#_______________________________________________________________________________
DEPTH              .M                                      : Depth {F}
DTCO3              .US/F                                   : Sonic      Compressional Slowness from Measurement 3 <_techsia_lb_>F13 {F}
DTSH5              .US/F                                   : ShearSonic Shear Slowness from Measurement 5 <_techsia_lb_>F13 {F}
ECGR               .GAPI                                   : Gamma-Ray <_techsia_lb_>F13 {F}
HAZI               .Deg                                    : Azimuth {F}
HCAL               .IN                                     : Caliper    HRCC Cal. Caliper <_techsia_lb_>F13 {F}
HDEVI              .Deg                                    : Deviation {F}
RHOZ               .G/C3                                   : Density    HRDD Standard Resolution Formation Density <_techsia_lb_>F13 {F}
RLA1               .OHMM                                   : ShalRes    HRLT Borehole Corrected Resistivity 1 <_techsia_lb_>F13 {F}
RLA2               .OHMM                                   : MedRes     HRLT Borehole Corrected Resistivity 2 <_techsia_lb_>F13 {F}
RLA3               .OHMM                                   : DeepRes    HRLT Borehole Corrected Resistivity 3 <_techsia_lb_>F13 {F}
RLA4               .OHMM                                   : XDeepRes   HRLT Borehole Corrected Resistivity 4 <_techsia_lb_>F13 {F}
RLA5               .OHMM                                   : UltraDeepR HRLT Borehole Corrected Resistivity 5 <_techsia_lb_>F13 {F}
RT_HRLT            .OHMM                                   : HRLT Computed True Resistivity <_techsia_lb_>F13 {F}
RXOZ               .OHMM                                   : MicroRes   MCFL Standard Resolution Invaded Zone Resistivity <_techsia_lb_>F13 {F}
TNPH               .V/V                                    : Neutron    Thermal Neutron Porosity <_techsia_lb_>F13 {F}
~Ascii
# ...
1524.6096  111.0277   247.0323   192.5355   288.4659   13.6577    0.4636     2.178      1.3381     1.841      1.6337     1.6418     1.6638     1.6693     0.1726     0.4023    
1524.762   112.6536   252.6092   192.3156   288.9574   13.5078    0.4631     2.2054     1.3742     1.9208     1.7514     1.7581     1.7804     1.7837     0.1883     0.4083    
1524.9144  112.1583   265.4734   186.9022   289.45     13.4999    0.4626     2.2638     1.5198     2.299      2.163      2.1521     2.1855     2.1833     0.2508     0.386     
1525.0668  112.1583   270.6989   183.2668   289.9436   13.2801    0.4622     2.3039     1.6341     2.5314     2.453      2.4673     2.5141     2.4865     0.4393     0.3701    
1525.2192  108.7403   225.664    181.2329   290.4381   13.1673    0.4618     2.3456     1.6851     2.6084     2.5786     2.6131     2.6579     2.6177     0.5861     0.3279    
1525.3716  99.8942    225.664    180.6732   290.9334   13.2223    0.4614     2.3868     1.7        2.6792     2.7099     2.8023     2.8555     2.7776     0.7086     0.3125    
1525.524   99.8942    222.3848   180.226    291.4294   13.2258    0.4611     2.4224     1.7959     3.0987     3.1037     3.2979     3.3442     3.2362     0.8888     0.311     
1525.6764  101.1882   221.3194   176.0738   291.9262   13.0473    0.4608     2.3952     1.855      3.1603     3.1059     3.2618     3.3404     3.235      1.135      0.3204    
1525.8288  100.4977   219.7607   178.7115   292.4236   13.4299    0.4605     2.3243     1.7456     2.6215     2.4828     2.6023     2.661      2.5915     0.4462     0.3249    
1525.9812  99.9014    219.5224   183.4579   292.9214   13.8427    0.4603     2.2882     1.6061     2.1475     2.0277     2.1327     2.1797     2.1205     0.2753     0.3414    
1526.1336  99.9014    213.4997   183.139    293.4196   13.2411    0.4601     2.3056     1.7257     2.5216     2.3312     2.4051     2.4657     2.4169     0.2294     0.3529    
1526.286   99.7259    211.0471   188.2465   293.7235   13.5156    0.46       2.3562     1.8757     3.4111     2.7952     2.8249     2.9026     2.8674     0.3196     0.3442    
1526.4384  99.1462    208.1978   184.8003   293.7981   13.1478    0.4599     2.3892     1.9291     3.219      2.7441     2.7356     2.8549     2.8178     0.4273     0.3353    
1526.5908  100.2239   197.4441   181.9478   293.8722   13.1779    0.4598     2.4313     1.8145     2.716      2.4122     2.435      2.5391     2.4759     0.5755     0.3164    
1526.7432  86.4561    184.3897   172.9542   293.9464   13.094     0.4597     2.4695     2.1487     3.4898     3.1968     3.2666     3.3998     3.3356     0.7312     0.2775    
1526.8956  86.4561    175.9573   156.9222   294.0206   12.5769    0.4597     2.4772     2.1894     3.6505     3.375      3.4753     3.6437     3.6335     1.3877     0.2339    
1527.048   82.5938    167.1512   144.8665   294.0948   12.6121    0.4596     2.4584     2.2181     3.3307     3.1638     3.2668     3.4322     3.5993     1.7606     0.2285    
1527.2004  78.9778    167.1512   134.7261   294.1691   12.3627    0.4595     2.4405     2.091      2.7816     2.9185     3.1466     3.2794     3.835      1.8974     0.2418    
1527.3528  77.0746    161.9546   133.1812   294.2434   12.4716    0.4595     2.4495     2.2182     2.9425     3.0887     3.3448     3.5347     4.17       2.0905     0.2515    
1527.5052  77.0746    159.6351   132.1224   294.3177   12.3402    0.4594     2.4702     2.1861     2.7658     2.8503     3.0722     3.2282     3.7238     2.3403     0.2497    
1527.6576  85.8564    180.9206   129.0293   294.392    12.389     0.4593     2.4994     2.2952     3.204      3.3381     3.6311     3.8534     4.5562     2.6183     0.2398    
1527.81    91.5026    189.752    126.2189   294.4664   12.3637    0.4593     2.4889     2.3479     3.5843     3.7909     4.1826     4.4908     5.3933     2.9912     0.2311    
1527.9624  91.5026    198.4424   132.646    294.5407   12.3628    0.4592     2.4136     2.0983     2.9056     3.028      3.2695     3.4552     4.0148     1.3226     0.2436    
1528.1148  93.533     199.4963   149.8541   294.6151   12.3888    0.4591     2.2963     1.6161     1.8454     1.91       2.0066     2.0978     2.2962     0.3685     0.3033    
1528.2672  95.5361    205.0974   170.0253   294.6895   12.9324    0.4591     2.2045     1.3167     1.4111     1.3857     1.4486     1.4831     1.5162     0.2381     0.3863    
1528.4196  97.292     217.4012   178.7633   294.7639   13.2112    0.459      2.1557     1.4119     1.4722     1.4635     1.5208     1.5338     1.5419     0.1897     0.4607    
1528.572   98.0415    220.8542   176.1416   294.8384   13.2214    0.4589     2.1752     1.5019     1.7092     1.6873     1.7377     1.7428     1.7703     0.2111     0.4354    
1528.7244  99.1663    228.7233   169.904    294.9128   13.106     0.4589     2.2261     1.4569     1.9037     1.8495     1.8966     1.8833     1.8802     0.2522     0.396     
1528.8768  100.4563   228.5049   158.3991   294.9873   13.0326    0.4588     2.285      1.5372     2.3052     2.2814     2.3433     2.3196     2.3154     0.3329     0.357     
1529.0292  99.2973    221.9451   155.5907   295.0619   13.6128    0.4587     2.3167     1.5887     2.367      2.4158     2.4678     2.4314     2.4467     0.3933     0.3212    
1529.1816  99.2973    219.2783   145.4727   295.1364   12.876     0.4587     2.3328     1.5599     2.2371     2.3863     2.4611     2.3993     2.4472     0.3787     0.3013    
1529.334   96.7054    218.0778   149.9033   295.2109   12.7977    0.4586     2.3537     1.5326     2.2471     2.2927     2.4161     2.3482     2.4016     0.3962     0.2854    
1529.4864  95.8401    218.4581   153.2142   295.2855   12.5299    0.4586     2.3437     1.526      2.1274     2.2472     2.4186     2.3464     2.5178     0.4045     0.297     
1529.6388  95.743     216.4932   161.3259   295.3601   12.9378    0.4585     2.2946     1.53       2.0815     2.2329     2.4457     2.3734     2.4859     0.3085     0.297     
1529.7912  95.8894    218.2635   164.469    295.4347   13.0358    0.4584     2.2394     1.4976     2.0019     2.1366     2.334      2.2718     2.269      0.2092     0.3302    
1529.9436  97.1061    218.6812   165.1327   295.5093   13.2234    0.4584     2.267      1.5017     2.1772     2.2405     2.4011     2.3482     2.3186     0.1909     0.3742    
1530.096   97.1061    218.8146   168.6641   295.584    13.7813    0.4583     2.316      1.529      2.3797     2.3928     2.4811     2.4568     2.4423     0.239      0.3693    
1530.2484  97.8478    218.9221   162.5987   295.6586   13.2674    0.4583     2.3795     1.5649     2.5005     2.4028     2.4582     2.4589     2.4395     0.3222     0.3503    
1530.4008  98.2469    217.234    166.097    295.7333   13.6622    0.4582     2.4016     1.5452     2.5103     2.2783     2.2497     2.2192     2.1761     0.3689     0.3329    
1530.5532  98.836     217.9063   162.2779   295.808    13.3982    0.4582     2.4278     1.6758     2.7433     2.4976     2.4567     2.4788     2.4054     0.4171     0.3393    
1530.7056  97.93      218.2972   165.5865   295.8827   13.4947    0.4581     2.4307     1.6197     2.8563     2.5461     2.522      2.5557     2.4415     0.7009     0.3155    
1530.858   97.93      218.4631   165.9038   295.9575   13.7483    0.4581     2.422      1.7271     2.8423     2.454      2.3709     2.3958     2.1352     0.6005     0.2916    
1531.0104  96.873     210.394    163.0415   296.0322   13.5109    0.458      2.4439     1.7102     2.8323     2.4185     2.3573     2.3794     2.103      0.5186     0.293     
1531.1628  96.1189    204.7085   155.6387   296.107    13.187     0.458      2.4828     1.7808     3.1115     2.5254     2.4493     2.4586     2.1824     0.5515     0.2964    
1531.3152  91.1754    197.8701   148.9758   296.1818   13.3457    0.4579     2.535      2.0139     4.1585     3.3021     3.1959     3.1996     3.2296     0.9756     0.2951    
1531.4676  91.1754    186.691    145.9422   296.2566   13.5723    0.4579     2.5658     2.2304     4.8396     3.8275     3.7376     3.7389     3.7972     2.3463     0.2701    
