~Version
 VERS              .         3                             : CWLS LOG ASCII STANDARD - VERSION 3.0
 WRAP              .         NO                            : ONE LINE PER DEPTH STEP
 DLM               .         SPACE                         : DELIMITING CHARACTER(SPACE TAB OR COMMA)
~Well Information
#_______________________________________________________________________________
#
#PARAMETER_NAME    .UNIT     VALUE                         : DESCRIPTION
#_______________________________________________________________________________
STRT               .M        1146.048                      : First reference value
STOP               .M        2108.3016                     : Last reference value
STEP               .M        0.1524                        : Step increment
NULL               .         -9999                         : Missing value
WELL               .         02_97-DD-1X                   : Well name
FLD                .         Dong Do                       : 
PDAT               .         Mean Sea Level                : 
WST                .         0                             : 
STATE              .         Offshore Vietnam              : 
ERT                .         32                            : 
RWS                .         0                             : 
COMP               .         Lam Son JOC                   : 
CNTY               .         Adriatic XI                   : 
DRMEA              .         Drill Floor                   : 
UTMZ               .         49                            : 
SRVC               .         SCH                           : 
DATE               .         8/18/2011                     : 
LGMEA              .         Drill Floor                   : 
ORIGINALWELLNAME   .         02_97-DD-1X                   : 
LATI               .         10.11502                      : 
LOC                .         Cuu Long Basin, Offshore Vietn: 
EPDAT              .         0.000000                      : 
APDAT              .         32                            : 
COUNT              .         Vietnam                       : 
LONG               .         108.55532                     : 
GDAT               .                                       : 
PROV               .                                       : 
UWI                .                                       : 
LIC                .                                       : 
STAT               .                                       : 
API                .                                       : 
CTRY               .                                       : 
~Parameter Information Block
#_______________________________________________________________________________
#
#PARAMETER_NAME    .UNIT     VALUE                         : DESCRIPTION
#_______________________________________________________________________________
SET                .         02_97-DD-1X                   : 
TLFamily_DTCO3     .         Compressional Slowness        : 
TLFamily_RT_HRLT   .         Formation Resistivity         : 
TLFamily_ECGR      .         Gamma Ray                     : 
TLFamily_TNPH      .         Neutron Porosity              : 
REAL_CREATION_DATE .         Fri Jun 30 2017-17_18_31      : 
TLFamily_RXOZ      .         Micro Resistivity             : 
TLFamily_HCAL      .         Caliper                       : 
TLFamily_RLA1      .         Shallow Resistivity           : 
TLFamily_RLA2      .         Array Resistivity             : 
TLFamily_DEPTH     .         Measured Depth                : 
TLFamily_DTSH5     .         Shear Slowness                : 
TLFamily_RLA3      .         Medium Resistivity            : 
TLFamily_RLA4      .         Array Resistivity             : 
TLFamily_RLA5      .         Deep Resistivity              : 
TLFamily_RHOZ      .         Bulk Density                  : 
TLFamily_HDEVI     .                                       : 
TLFamily_HAZI      .         Hole Azimuth                  : 
~Curve Information
#_______________________________________________________________________________
#
#LOGNAME           .UNIT     LOG_ID                        : DESCRIPTION
#_______________________________________________________________________________
DEPTH              .M                                      : Depth {F}
DTCO3              .US/F                                   : Sonic      Compressional Slowness from Measurement 3 <_techsia_lb_>F13 {F}
DTSH5              .US/F                                   : ShearSonic Shear Slowness from Measurement 5 <_techsia_lb_>F13 {F}
ECGR               .GAPI                                   : Gamma-Ray <_techsia_lb_>F13 {F}
HAZI               .Deg                                    : Azimuth {F}
HCAL               .IN                                     : Caliper    HRCC Cal. Caliper <_techsia_lb_>F13 {F}
HDEVI              .Deg                                    : Deviation {F}
RHOZ               .G/C3                                   : Density    HRDD Standard Resolution Formation Density <_techsia_lb_>F13 {F}
RLA1               .OHMM                                   : ShalRes    HRLT Borehole Corrected Resistivity 1 <_techsia_lb_>F13 {F}
RLA2               .OHMM                                   : MedRes     HRLT Borehole Corrected Resistivity 2 <_techsia_lb_>F13 {F}
RLA3               .OHMM                                   : DeepRes    HRLT Borehole Corrected Resistivity 3 <_techsia_lb_>F13 {F}
RLA4               .OHMM                                   : XDeepRes   HRLT Borehole Corrected Resistivity 4 <_techsia_lb_>F13 {F}
RLA5               .OHMM                                   : UltraDeepR HRLT Borehole Corrected Resistivity 5 <_techsia_lb_>F13 {F}
RT_HRLT            .OHMM                                   : HRLT Computed True Resistivity <_techsia_lb_>F13 {F}
RXOZ               .OHMM                                   : MicroRes   MCFL Standard Resolution Invaded Zone Resistivity <_techsia_lb_>F13 {F}
TNPH               .V/V                                    : Neutron    Thermal Neutron Porosity <_techsia_lb_>F13 {F}
~Ascii
1146.0480  56.4887    259.9018   93.1939    226.2892   12.4536    0.7068     1.903      0.0127     0.009      0.0061     0.0026     0.0005     0.0005     0.0323     0.5851    
1146.2004  56.4887    259.9018   90.9625    226.2892   12.4335    0.7068     1.903      0.0127     0.009      0.0061     0.0026     0.0005     0.0005     0.0323     0.5851    
1146.3528  56.4887    259.9018   87.8324    226.256    12.4411    0.7077     1.903      0.0127     0.009      0.0061     0.0026     0.0005     0.0005     0.0323     0.551     
1146.5052  56.4887    259.9018   84.9588    226.2229   12.4486    0.7086     1.903      0.0123     0.0087     0.0059     0.0023     0.0004     0.0003     0.03       0.5288    
1146.6576  56.4887    259.9018   85.4003    226.1898   12.4453    0.7096     1.903      0.0123     0.0086     0.0058     0.0023     0.0003     0.0003     0.0319     0.5834    
1146.81    56.4887    259.9018   87.7393    226.1569   12.4411    0.7105     1.903      0.012      0.0084     0.0057     0.0021     0.0001     0.0001     0.0327     0.6598    
1146.9624  56.4887    259.9018   87.9606    226.1241   12.4411    0.7114     1.903      0.0124     0.0086     0.0058     0.0022     0.0001     0.0001     0.0327     0.6568    
1147.1148  56.4887    259.9018   89.1608    226.0913   12.4447    0.7123     1.903      0.0125     0.0089     0.0061     0.0025     0.0004     0.0004     0.03       0.549     
1147.2672  56.4887    259.9018   91.5762    226.0586   12.4485    0.7132     1.903      0.0119     0.0084     0.0057     0.0022     0.0002     0.0002     0.03       0.5374    
1147.4196  56.4887    259.9018   96.5742    226.026    12.4482    0.7141     1.9235     0.0107     0.0075     0.0048     0.0012     0          0          0.0319     0.5407    
1147.572   56.4887    259.9018   99.086     225.9935   12.4358    0.715      1.9518     0.01       0.0071     0.0045     0.0011     0          0          0.0319     0.5357    
1147.7244  56.4887    259.9018   97.6841    225.9611   12.4424    0.7159     1.9845     0.0122     0.0085     0.0058     0.0022     0.0003     0.0003     0.0331     0.5105    
1147.8768  56.4887    259.9018   95.5057    225.9287   12.4317    0.7169     2.0097     0.0121     0.0085     0.0058     0.0023     0.0004     0.0004     0.0311     0.5105    
1148.0292  56.4887    259.9018   91.0926    225.8965   12.4363    0.7178     1.9973     0.0122     0.0086     0.0059     0.0023     0.0004     0.0004     0.0331     0.5267    
1148.1816  56.4887    259.9018   87.2924    225.8643   12.4428    0.7187     1.9539     0.0123     0.0087     0.0059     0.0023     0.0003     0.0003     0.0328     0.5548    
1148.334   56.4887    259.9018   83.4417    225.8322   12.4411    0.7196     2.5172     0.012      0.0085     0.0057     0.0022     0.0002     0.0002     0.0328     0.5626    
1148.4864  56.4887    259.9018   83.0116    225.8001   12.4337    0.7205     3.4125     0.0123     0.0087     0.0059     0.0024     0.0005     0.0005     0.03       0.5698    
1148.6388  56.4887    259.9018   83.802     225.7682   12.4411    0.7214     4.3214     0.0135     0.0094     0.0064     0.0028     0.0009     0.0008     0.03       0.5848    
1148.7912  56.4887    259.9018   84.2381    225.7363   12.4377    0.7223     4.6288     0.0123     0.0086     0.0059     0.0024     0.0006     0.0005     0.034      0.5655    
1148.9436  56.4887    259.9018   82.4026    225.7045   12.4294    0.7232     4.6288     0.0128     0.0089     0.0061     0.0025     0.0005     0.0005     0.034      0.5639    
1149.096   56.1687    258.9515   79.8052    225.6729   12.4397    0.7242     4.6288     0.0118     0.0083     0.0056     0.0021     0.0002     0.0002     0.034      0.5684    
1149.2484  56.5103    257.7925   79.7066    225.6412   12.4305    0.7251     4.6288     0.013      0.0091     0.0063     0.0027     0.0008     0.0008     0.0301     0.5787    
1149.4008  56.5103    258.1501   80.327     225.6097   12.4335    0.726      4.6288     0.0137     0.0097     0.0068     0.0032     0.0015     0.0014     0.0301     0.5568    
1149.5532  56.4681    257.3871   81.5564    225.5782   12.4486    0.7269     4.6288     0.0139     0.01       0.007      0.0036     0.002      0.0019     0.0302     0.5323    
1149.7056  56.4903    257.0946   81.274     225.5469   12.4515    0.7278     4.6288     0.0137     0.0098     0.0068     0.0034     0.0019     0.0018     0.03       0.5713    
1149.858   56.4883    255.5476   80.6312    225.5155   12.4526    0.7287     4.6288     0.0145     0.0104     0.0073     0.0037     0.002      0.002      0.0335     0.5669    
1150.0104  56.2834    253.3686   81.8794    225.4843   12.4482    0.7297     4.6288     0.0142     0.0103     0.0073     0.0037     0.0021     0.002      0.0335     0.5056    
1150.1628  56.2686    254.631    83.5567    225.4532   12.4498    0.7306     4.6288     0.0147     0.0115     0.0082     0.0044     0.0026     0.0025     0.0417     0.4793    
1150.3152  56.1034    253.9514   84.8446    225.4221   12.4615    0.7315     4.6288     0.0129     0.0103     0.0077     0.0042     0.0024     0.0024     0.0364     0.4891    
1150.4676  56.1034    254.2103   85.0266    225.3911   12.462     0.7324     3.7186     0.0119     0.0095     0.0078     0.0043     0.0026     0.0026     0.0364     0.5174    
1150.62    55.0268    255.5836   83.8364    225.3602   12.4558    0.7333     2.8006     0.0129     0.01       0.0086     0.0051     0.0032     0.0031     0.03       0.5696    
1150.7724  55.0268    253.2721   83.997     225.3294   12.4451    0.7342     1.8801     0.0141     0.0107     0.0091     0.0061     0.004      0.0039     0.0302     0.6336    
1150.9248  55.36      253.004    83.0197    225.2986   12.4556    0.7351     1.8873     0.0123     0.0093     0.0077     0.0056     0.0037     0.0036     0.0317     0.6282    
1151.0772  55.1623    254.9615   80.6049    225.2679   12.4565    0.7361     1.9132     0.0133     0.0099     0.0082     0.0062     0.0042     0.004      0.0317     0.575     
1151.2296  55.1623    252.7233   81.5341    225.2373   12.4637    0.737      1.9342     0.0147     0.0109     0.0091     0.007      0.0049     0.0048     0.0307     0.5296    
1151.382   55.2336    249.0008   81.1136    225.2068   12.4486    0.7379     1.9408     0.0127     0.0095     0.0079     0.006      0.0043     0.0042     0.03       0.5272    
1151.5344  53.9792    249.1141   82.3021    225.1763   12.4499    0.7388     1.95       0.013      0.0097     0.0079     0.0059     0.0045     0.0043     0.0322     0.5201    
1151.6868  55.2668    250.7567   79.491     225.146    12.4486    0.7397     1.9678     0.0126     0.0095     0.0077     0.0056     0.0046     0.0044     0.0322     0.5692    
1151.8392  53.9835    251.9995   79.9116    225.1157   12.4516    0.7407     1.9732     0.0126     0.0093     0.0075     0.0054     0.0048     0.0046     0.0335     0.6649    
1151.9916  54.0899    251.834    84.2709    225.0854   12.4609    0.7416     1.9546     0.0121     0.0089     0.0071     0.005      0.0047     0.0045     0.0313     0.6884    
1152.144   54.0899    253.3055   82.116     225.0553   12.4523    0.7425     1.9349     0.0124     0.0091     0.0072     0.0051     0.0049     0.0047     0.0365     0.7029    
1152.2964  53.8328    254.3135   81.0673    225.0252   12.4562    0.7434     1.9148     0.0129     0.0095     0.0076     0.0055     0.0053     0.0051     0.0348     0.6649    
1152.4488  55.3551    257.1437   77.9524    224.9952   12.4562    0.7443     1.9048     0.0117     0.0087     0.0069     0.0049     0.0047     0.0046     0.0348     0.5801    
1152.6012  55.3551    256.2986   81.9747    224.9653   12.4562    0.7453     1.8923     0.0133     0.0098     0.0079     0.0058     0.0057     0.0055     0.03       0.5136    
1152.7536  55.4464    256.8669   85.4239    224.9354   12.4612    0.7462     1.891      0.0128     0.0094     0.0075     0.0055     0.0055     0.0053     0.03       0.5123    
1152.906   54.1053    257.1984   86.4285    224.9056   12.4548    0.7471     1.8944     0.0157     0.0115     0.0093     0.0071     0.0071     0.0068     0.0348     0.5565    
