~Version
 VERS              .         3                             : CWLS LOG ASCII STANDARD - VERSION 3.0
 WRAP              .         NO                            : ONE LINE PER DEPTH STEP
 DLM               .         SPACE                         : DELIMITING CHARACTER(SPACE TAB OR COMMA)
~Well Information
#_______________________________________________________________________________
#
#PARAMETER_NAME    .UNIT     VALUE                         : DESCRIPTION
#_______________________________________________________________________________
STRT               .M        1146.048                      : First reference value
STOP               .M        2108.3016                     : Last reference value
STEP               .M        0.1524                        : Step increment
NULL               .         -9999                         : Missing value
WELL               .         02_97-DD-1X                   : Well name
FLD                .         Dong Do                       : 
PDAT               .         Mean Sea Level                : 
WST                .         0                             : 
STATE              .         Offshore Vietnam              : 
ERT                .         32                            : 
RWS                .         0                             : 
COMP               .         Lam Son JOC                   : 
CNTY               .         Adriatic XI                   : 
DRMEA              .         Drill Floor                   : 
UTMZ               .         49                            : 
SRVC               .         SCH                           : 
DATE               .         8/18/2011                     : 
LGMEA              .         Drill Floor                   : 
ORIGINALWELLNAME   .         02_97-DD-1X                   : 
LATI               .         10.11502                      : 
LOC                .         Cuu Long Basin, Offshore Vietn: 
EPDAT              .         0.000000                      : 
APDAT              .         32                            : 
COUNT              .         Vietnam                       : 
LONG               .         108.55532                     : 
GDAT               .                                       : 
PROV               .                                       : 
UWI                .                                       : 
LIC                .                                       : 
STAT               .                                       : 
API                .                                       : 
CTRY               .                                       : 
~Parameter Information Block
#_______________________________________________________________________________
#
#PARAMETER_NAME    .UNIT     VALUE                         : DESCRIPTION
#_______________________________________________________________________________
SET                .         02_97-DD-1X                   : 
TLFamily_DTCO3     .         Compressional Slowness        : 
TLFamily_RT_HRLT   .         Formation Resistivity         : 
TLFamily_ECGR      .         Gamma Ray                     : 
TLFamily_TNPH      .         Neutron Porosity              : 
REAL_CREATION_DATE .         Fri Jun 30 2017-17_18_31      : 
TLFamily_RXOZ      .         Micro Resistivity             : 
TLFamily_HCAL      .         Caliper                       : 
TLFamily_RLA1      .         Shallow Resistivity           : 
TLFamily_RLA2      .         Array Resistivity             : 
TLFamily_DEPTH     .         Measured Depth                : 
TLFamily_DTSH5     .         Shear Slowness                : 
TLFamily_RLA3      .         Medium Resistivity            : 
TLFamily_RLA4      .         Array Resistivity             : 
TLFamily_RLA5      .         Deep Resistivity              : 
TLFamily_RHOZ      .         Bulk Density                  : 
TLFamily_HDEVI     .                                       : 
TLFamily_HAZI      .         Hole Azimuth                  : 
~Curve Information
#_______________________________________________________________________________
#
#LOGNAME           .UNIT     LOG_ID                        : DESCRIPTION
#_______________________________________________________________________________
DEPTH              .M                                      : Depth {F}
DTCO3              .US/F                                   : Sonic      Compressional Slowness from Measurement 3 <_techsia_lb_>F13 {F}
DTSH5              .US/F                                   : ShearSonic Shear Slowness from Measurement 5 <_techsia_lb_>F13 {F}
ECGR               .GAPI                                   : Gamma-Ray <_techsia_lb_>F13 {F}
HAZI               .Deg                                    : Azimuth {F}
HCAL               .IN                                     : Caliper    HRCC Cal. Caliper <_techsia_lb_>F13 {F}
HDEVI              .Deg                                    : Deviation {F}
RHOZ               .G/C3                                   : Density    HRDD Standard Resolution Formation Density <_techsia_lb_>F13 {F}
RLA1               .OHMM                                   : ShalRes    HRLT Borehole Corrected Resistivity 1 <_techsia_lb_>F13 {F}
RLA2               .OHMM                                   : MedRes     HRLT Borehole Corrected Resistivity 2 <_techsia_lb_>F13 {F}
RLA3               .OHMM                                   : DeepRes    HRLT Borehole Corrected Resistivity 3 <_techsia_lb_>F13 {F}
RLA4               .OHMM                                   : XDeepRes   HRLT Borehole Corrected Resistivity 4 <_techsia_lb_>F13 {F}
RLA5               .OHMM                                   : UltraDeepR HRLT Borehole Corrected Resistivity 5 <_techsia_lb_>F13 {F}
RT_HRLT            .OHMM                                   : HRLT Computed True Resistivity <_techsia_lb_>F13 {F}
RXOZ               .OHMM                                   : MicroRes   MCFL Standard Resolution Invaded Zone Resistivity <_techsia_lb_>F13 {F}
TNPH               .V/V                                    : Neutron    Thermal Neutron Porosity <_techsia_lb_>F13 {F}
~Ascii
# ...
2099.4624  64.1625    142.4602   152.5244   66.3034    12.9619    33.0436    2.6309     2.2933     14.901     47.6567    102.8106   179.9918   306.2874   33.2061    0.1119    
2099.6148  64.1625    142.4602   152.8916   66.3077    12.9266    33.0519    2.6541     2.2933     14.901     61.5445    110.1661   176.727    288.3145   48.493     0.0999    
2099.7672  64.1625    142.4602   158.7498   66.3119    12.889     33.0602    2.668      2.2933     14.901     50.0482    103.001    177.1107   300.2774   31.6018    0.0922    
2099.9196  64.1625    142.4602   161.8494   66.3162    12.8862    33.0685    2.6756     2.2933     14.901     42.436     99.6256    178.3379   306.9547   26.6745    0.0884    
2100.072   64.1625    142.4602   163.3716   66.3205    12.8638    33.0768    2.6667     2.2933     14.901     41.6672    99.1807    178.2742   307.3786   27.2838    0.0851    
2100.2244  64.1625    142.4602   164.1721   66.3247    12.8033    33.0851    2.6576     2.2933     14.901     41.0826    98.7949    178.1178   307.4683   38.2722    0.0762    
2100.3768  64.1625    142.4602   165.6706   66.329     12.7635    33.0933    2.6624     2.2933     14.901     40.4843    98.3884    177.953    307.5471   41.6353    0.0651    
2100.5292  64.1625    142.4602   168.1416   66.3332    12.6958    33.1016    2.6824     2.2933     14.901     39.8751    98.0486    177.9934   308.0637   48.7058    0.0602    
2100.6816  64.1625    142.4602   170.2211   66.3375    12.7014    33.1099    2.6973     2.2933     14.901     39.6186    97.9742    178.1865   308.6508   72.5813    0.0592    
2100.834   64.1625    142.4602   172.1713   66.3418    12.8076    33.1182    2.7032     2.2933     14.901     39.3704    97.9308    178.4512   309.42     94.2133    0.0599    
2100.9864  64.1625    142.4602   174.7815   66.346     12.8929    33.1265    2.6961     2.2933     14.901     39.3475    97.9594    178.5611   309.6797   89.7716    0.0612    
2101.1388  64.1625    142.4602   175.3998   66.3503    12.8332    33.1348    2.697      2.2933     14.901     39.8132    98.137     178.3117   308.8061   71.1459    0.0626    
2101.2912  64.1625    142.4602   181.2381   66.3545    12.722     33.1431    2.6909     2.2933     14.901     40.1853    98.1759    177.8575   307.5868   59.8623    0.0609    
2101.4436  64.1625    142.4602   185.0432   66.3587    12.6382    33.1514    2.6906     2.2933     14.901     39.6773    97.8054    177.686    307.6274   54.9435    0.0589    
2101.596   64.1625    142.4602   190.9563   66.363     12.6393    33.1597    2.6901     2.2933     14.901     38.7917    97.355     177.8827   308.6833   61.5992    0.0568    
2101.7484  64.1625    142.4602   191.4614   66.3672    12.7186    33.168     2.6857     2.2933     14.901     38.3101    97.2124    178.2442   309.7657   59.6915    0.0585    
2101.9008  64.1625    142.4602   191.8174   66.3715    12.7747    33.1763    2.6837     2.2933     14.901     38.538     97.4692    178.5381   310.1558   31.6234    0.0593    
2102.0532  64.1625    142.4602   192.1894   66.3757    12.8333    33.1846    2.6759     2.2933     14.901     39.4664    98.0682    178.6651   309.688    28.0089    0.0586    
2102.2056  64.1625    142.4602   192.3579   66.3799    12.8599    33.1929    2.6742     2.2933     14.901     40.4461    98.6497    178.7129   309.0939   31.0655    0.0583    
2102.358   64.1625    142.4602   192.7038   66.3842    12.9146    33.2012    2.6641     2.2933     14.901     41.1512    99.0234    178.6464   308.5016   59.4773    0.0581    
2102.5104  64.1625    142.4602   192.7198   66.3884    12.9172    33.2095    2.643      2.2933     14.901     41.1693    98.9492    178.405    308.0279   35.9027    0.0565    
2102.6628  64.1625    142.4602   192.1405   66.3926    12.8256    33.2178    2.6194     2.2933     14.901     40.9797    98.6938    178.0057   307.3517   14.1482    0.0564    
2102.8152  64.1625    142.4602   190.9922   66.3969    12.645     33.226     2.6133     2.2933     14.901     40.4803    98.2549    177.6275   306.9366   9.6598     0.0559    
2102.9676  64.1625    142.4602   190.7816   66.4011    12.612     33.2343    2.6075     2.2933     14.901     39.3888    97.5596    177.5149   307.507    10.6989    0.0565    
2103.12    64.1625    142.4602   191.0022   66.4053    12.6465    33.2426    2.604      2.2933     14.901     38.1124    96.9361    177.8772   309.1817   23.6321    0.0572    
2103.2724  64.1625    142.4602   191.0581   66.4095    12.6553    33.2509    2.5909     2.2933     14.901     38.0355    97.0973    178.3721   310.207    64.5769    0.0579    
2103.4248  64.1625    142.4602   191.8704   66.4137    12.783     33.2592    2.6029     2.2933     14.901     38.9045    97.7695    178.7486   310.312    41.6012    0.0598    
2103.5772  64.1625    142.4602   193.0089   66.418     12.9629    33.2675    2.6105     2.2933     14.901     39.6905    98.3267    179.0189   310.3881   12.3789    0.062     
2103.7296  64.1625    142.4602   193.4707   66.4222    13.0363    33.2758    2.574      2.2933     14.901     40.1668    98.4812    178.6863   309.3389   5.2595     0.0617    
2103.882   64.1625    142.4602   192.5717   66.4264    12.8937    33.2841    2.5303     2.2933     14.901     40.2347    98.1012    177.6043   306.7664   1.8565     0.0623    
2104.0344  64.1625    142.4602   189.4711   66.4306    12.4073    33.2924    2.5092     2.2933     14.901     39.281     96.9017    176.2513   303.692    1.0038     0.0642    
2104.1868  64.1625    142.4602   187.8819   66.4348    12.161     33.3007    2.5377     2.2933     14.901     36.8525    94.8272    175.271    299.9025   0.5733     0.0639    
2104.3392  64.1625    142.4602   187.5925   66.439     12.1164    33.309     2.5751     2.2933     14.901     33.4981    92.6568    175.4857   292.4601   0.5023     0.0635    
2104.4916  64.1625    142.4602   186.8027   66.4432    11.9948    33.3173    2.5845     2.2933     12.7459    31.5126    91.4021    175.7607   285.6307   0.5079     0.0623    
2104.644   64.1625    142.4602   186.6025   66.4474    11.9641    33.3256    2.586      2.2933     11.8054    30.6063    90.5615    175.4163   282.5791   0.5103     0.062     
2104.7964  64.1625    142.4602   184.6012   66.4516    11.6583    33.3339    2.5521     2.2437     10.9693    29.7201    89.6069    174.8344   280.3934   0.3974     0.059     
2104.9488  64.1625    142.4602   183.8418   66.4558    11.543     33.3422    2.4975     2.0586     10.0946    28.6939    88.2061    173.5542   277.4514   0.3294     0.0578    
2105.1012  64.1625    142.4602   181.8862   66.46      11.2478    33.3505    2.4193     1.7963     8.9062     27.4257    86.8484    172.2922   274.1555   0.2722     0.0548    
2105.2536  64.1625    142.4602   177.1142   66.4642    10.5371    33.3588    2.3528     1.6093     8.0857     26.5068    85.8451    170.9515   271.3132   0.2362     0.0476    
2105.406   64.1625    142.4602   174.6093   66.4684    10.1688    33.3671    2.3142     1.457      7.4586     25.7235    85.0052    169.9432   268.9121   0.2039     0.0446    
2105.5584  64.1625    142.4602   173.7637   66.4726    10.0452    33.3754    2.294      1.2988     6.9024     25.2131    85.007     170.6216   268.8957   0.189      0.0447    
2105.7108  64.1625    142.4602   173.334    66.4768    9.9825     33.3837    2.2764     1.215      6.6486     25.0754    85.2852    171.4925   269.7047   0.1776     0.0447    
2105.8632  64.1625    142.4602   172.8156   66.481     9.907      33.392     2.2502     1.1795     6.543      24.992     85.269     171.6178   266.8628   0.1685     0.0448    
2106.0156  64.1625    142.4602   172.0545   66.4852    9.7963     33.4003    2.2159     1.1524     6.4546     24.8535    84.9762    171.1976   261.3696   0.1653     0.0448    
2106.168   64.1625    142.4602   170.9603   66.4894    9.6377     33.4086    2.1847     1.1241     6.3641     24.6932    84.5833    170.6014   256.95     0.1589     0.0449    
2106.3204  64.1625    142.4602   168.6638   66.4936    9.3062     33.4169    2.1618     1.0956     6.2812     24.5556    84.2311    170.0849   253.9942   0.1547     0.0451    
