~Version
 VERS              .         3                             : CWLS LOG ASCII STANDARD - VERSION 3.0
 WRAP              .         NO                            : ONE LINE PER DEPTH STEP
 DLM               .         SPACE                         : DELIMITING CHARACTER(SPACE TAB OR COMMA)
~Well Information
#_______________________________________________________________________________
#
#PARAMETER_NAME    .UNIT     VALUE                         : DESCRIPTION
#_______________________________________________________________________________
STRT               .M        1146.048                      : First reference value
STOP               .M        2108.3016                     : Last reference value
STEP               .M        0.1524                        : Step increment
NULL               .         -9999                         : Missing value
WELL               .         02_97-DD-1X                   : Well name
FLD                .         Dong Do                       : 
PDAT               .         Mean Sea Level                : 
WST                .         0                             : 
STATE              .         Offshore Vietnam              : 
ERT                .         32                            : 
RWS                .         0                             : 
COMP               .         Lam Son JOC                   : 
CNTY               .         Adriatic XI                   : 
DRMEA              .         Drill Floor                   : 
UTMZ               .         49                            : 
SRVC               .         SCH                           : 
DATE               .         8/18/2011                     : 
LGMEA              .         Drill Floor                   : 
ORIGINALWELLNAME   .         02_97-DD-1X                   : 
LATI               .         10.11502                      : 
LOC                .         Cuu Long Basin, Offshore Vietn: 
EPDAT              .         0.000000                      : 
APDAT              .         32                            : 
COUNT              .         Vietnam                       : 
LONG               .         108.55532                     : 
GDAT               .                                       : 
PROV               .                                       : 
UWI                .                                       : 
LIC                .                                       : 
STAT               .                                       : 
API                .                                       : 
CTRY               .                                       : 
~Parameter Information Block
#_______________________________________________________________________________
#
#PARAMETER_NAME    .UNIT     VALUE                         : DESCRIPTION
#_______________________________________________________________________________
SET                .         02_97-DD-1X                   : 
TLFamily_DTCO3     .         Compressional Slowness        : 
TLFamily_RT_HRLT   .         Formation Resistivity         : 
TLFamily_ECGR      .         Gamma Ray                     : 
TLFamily_TNPH      .         Neutron Porosity              : 
REAL_CREATION_DATE .         Fri Jun 30 2017-17_18_31      : 
TLFamily_RXOZ      .         Micro Resistivity             : 
TLFamily_HCAL      .         Caliper                       : 
TLFamily_RLA1      .         Shallow Resistivity           : 
TLFamily_RLA2      .         Array Resistivity             : 
TLFamily_DEPTH     .         Measured Depth                : 
TLFamily_DTSH5     .         Shear Slowness                : 
TLFamily_RLA3      .         Medium Resistivity            : 
TLFamily_RLA4      .         Array Resistivity             : 
TLFamily_RLA5      .         Deep Resistivity              : 
TLFamily_RHOZ      .         Bulk Density                  : 
TLFamily_HDEVI     .                                       : 
TLFamily_HAZI      .         Hole Azimuth                  : 
~Curve Information
#_______________________________________________________________________________
#
#LOGNAME           .UNIT     LOG_ID                        : DESCRIPTION
#_______________________________________________________________________________
DEPTH              .M                                      : Depth {F}
DTCO3              .US/F                                   : Sonic      Compressional Slowness from Measurement 3 <_techsia_lb_>F13 {F}
DTSH5              .US/F                                   : ShearSonic Shear Slowness from Measurement 5 <_techsia_lb_>F13 {F}
ECGR               .GAPI                                   : Gamma-Ray <_techsia_lb_>F13 {F}
HAZI               .Deg                                    : Azimuth {F}
HCAL               .IN                                     : Caliper    HRCC Cal. Caliper <_techsia_lb_>F13 {F}
HDEVI              .Deg                                    : Deviation {F}
RHOZ               .G/C3                                   : Density    HRDD Standard Resolution Formation Density <_techsia_lb_>F13 {F}
RLA1               .OHMM                                   : ShalRes    HRLT Borehole Corrected Resistivity 1 <_techsia_lb_>F13 {F}
RLA2               .OHMM                                   : MedRes     HRLT Borehole Corrected Resistivity 2 <_techsia_lb_>F13 {F}
RLA3               .OHMM                                   : DeepRes    HRLT Borehole Corrected Resistivity 3 <_techsia_lb_>F13 {F}
RLA4               .OHMM                                   : XDeepRes   HRLT Borehole Corrected Resistivity 4 <_techsia_lb_>F13 {F}
RLA5               .OHMM                                   : UltraDeepR HRLT Borehole Corrected Resistivity 5 <_techsia_lb_>F13 {F}
RT_HRLT            .OHMM                                   : HRLT Computed True Resistivity <_techsia_lb_>F13 {F}
RXOZ               .OHMM                                   : MicroRes   MCFL Standard Resolution Invaded Zone Resistivity <_techsia_lb_>F13 {F}
TNPH               .V/V                                    : Neutron    Thermal Neutron Porosity <_techsia_lb_>F13 {F}
~Ascii
# ...
1720.9008  107.058    213.0258   119.0971   307.7111   12.6901    0.9223     2.1771     0.3489     0.4056     0.446      0.4729     0.4756     0.5786     0.2331     0.3361    
1721.0532  107.058    214.2197   123.0068   307.7213   12.7207    0.9229     2.1787     0.3452     0.4019     0.4447     0.4712     0.4694     0.5748     0.2332     0.3372    
1721.2056  105.1208   214.5354   123.2431   307.7314   12.7228    0.9235     2.1729     0.356      0.4164     0.4642     0.4936     0.4922     0.607      0.2311     0.3284    
1721.358   107.7121   215.3477   121.5122   307.7416   12.7452    0.9241     2.1668     0.3754     0.4346     0.4846     0.5169     0.516      0.6342     0.2248     0.3265    
1721.5104  105.563    215.3519   118.1602   307.7518   12.7679    0.9248     2.1661     0.3786     0.4387     0.4882     0.5233     0.5195     0.6398     0.2312     0.3292    
1721.6628  102.8978   215.5773   115.5652   307.762    12.8148    0.9254     2.1694     0.3836     0.4406     0.4877     0.524      0.521      0.6374     0.2306     0.3255    
1721.8152  104.735    215.7591   118.016    307.7721   12.8119    0.926      2.1666     0.3834     0.4405     0.4882     0.5251     0.5211     0.6384     0.2272     0.3234    
1721.9676  108.6215   215.6775   120.5664   307.7822   12.8421    0.9266     2.1609     0.39       0.4478     0.4948     0.534      0.532      0.6508     0.2221     0.3188    
1722.12    105.104    216.0948   120.764    307.7923   12.8352    0.9272     2.1564     0.3916     0.4494     0.4953     0.5352     0.5326     0.6514     0.2218     0.3186    
1722.2724  106.2231   215.7063   121.5677   307.8024   12.8051    0.9278     2.1612     0.3921     0.4523     0.4983     0.5399     0.5459     0.667      0.2212     0.3276    
1722.4248  106.2231   217.0515   118.9591   307.8125   12.7844    0.9285     2.1624     0.389      0.4479     0.4933     0.5329     0.5327     0.651      0.2234     0.3239    
1722.5772  106.7038   212.2154   117.7203   307.8226   12.8298    0.9291     2.1595     0.3821     0.446      0.493      0.5331     0.5342     0.6576     0.2255     0.3285    
1722.7296  104.7279   211.5582   113.805    307.8326   12.8008    0.9297     2.1532     0.3704     0.4386     0.4862     0.5261     0.5262     0.6524     0.2244     0.3347    
1722.882   104.3143   212.1125   109.1699   307.8427   12.7807    0.9303     2.156      0.3634     0.4284     0.4746     0.5128     0.5171     0.6385     0.2257     0.3396    
1723.0344  101.4703   212.1125   104.6214   307.8527   12.7613    0.9309     2.1623     0.3587     0.4222     0.4686     0.5045     0.5083     0.6279     0.2284     0.3231    
1723.1868  101.4703   215.39     105.0701   307.8627   12.6609    0.9316     2.169      0.3656     0.4327     0.4827     0.517      0.5273     0.652      0.2329     0.3046    
1723.3392  101.0654   211.9736   112.7681   307.8727   12.6712    0.9322     2.1743     0.3558     0.4245     0.4758     0.51       0.5325     0.6571     0.237      0.3209    
1723.4916  100.4353   214.2687   120.5562   307.8827   12.6901    0.9328     2.1891     0.3424     0.4082     0.4543     0.4834     0.497      0.6125     0.2436     0.3367    
1723.644   100.7288   214.8958   125.1798   307.8927   12.7209    0.9334     2.2116     0.3497     0.415      0.4597     0.4896     0.5078     0.6215     0.2655     0.3353    
1723.7964  105.1526   214.9038   125.1537   307.9026   12.7266    0.934      2.2328     0.3589     0.4149     0.458      0.4861     0.4965     0.6022     0.28       0.305     
1723.9488  102.1529   214.5687   122.7923   307.9126   12.7711    0.9346     2.2449     0.3478     0.3926     0.4313     0.4583     0.4669     0.5597     0.2898     0.3011    
1724.1012  98.5091    216.5336   122.7415   307.9225   12.7921    0.9353     2.2547     0.3516     0.3925     0.4315     0.4606     0.4672     0.5588     0.3033     0.3088    
1724.2536  99.2708    217.1513   121.9222   307.9324   12.7807    0.9359     2.2539     0.3694     0.407      0.4485     0.4812     0.4887     0.5831     0.3193     0.309     
1724.406   99.8584    217.2484   122.4187   307.9424   12.7602    0.9365     2.2435     0.3995     0.4343     0.48       0.5168     0.5216     0.6222     0.3099     0.3053    
1724.5584  103.6624   217.8627   122.8137   307.9523   12.7454    0.9371     2.2122     0.4613     0.505      0.5596     0.6083     0.6156     0.7406     0.2939     0.3052    
1724.7108  100.6595   218.2403   117.5648   307.9621   12.7626    0.9377     2.1876     0.4847     0.5216     0.5717     0.6228     0.6278     0.7467     0.2815     0.3283    
1724.8632  102.9916   217.3931   111.9088   307.972    12.7891    0.9384     2.1724     0.4881     0.5185     0.5662     0.6181     0.6179     0.7312     0.2768     0.3198    
1725.0156  103.4038   216.475    106.8986   307.9819   12.8158    0.939      2.168      0.4901     0.5228     0.5701     0.6273     0.6304     0.7473     0.2722     0.3313    
1725.168   103.4038   215.7861   108.1768   307.9917   12.826     0.9396     2.1644     0.4689     0.5008     0.5414     0.5972     0.5904     0.699      0.2722     0.3265    
1725.3204  102.8574   215.7372   109.8863   308.0016   12.7653    0.9402     2.1634     0.4543     0.4905     0.5309     0.5882     0.5843     0.6943     0.2678     0.3355    
1725.4728  108.1811   215.0768   112.5885   308.0114   12.7593    0.9408     2.1689     0.4394     0.4729     0.5089     0.5578     0.541      0.6368     0.267      0.3213    
1725.6252  103.7952   214.6497   117.1068   308.0212   12.7376    0.9414     2.169      0.4378     0.4822     0.5229     0.5644     0.5495     0.6516     0.2627     0.3029    
1725.7776  104.2956   215.4099   119.4764   308.031    12.7709    0.9421     2.1654     0.4337     0.4855     0.5312     0.559      0.5362     0.6369     0.266      0.2979    
1725.93    104.6046   214.9649   118.5933   308.0407   12.8083    0.9427     2.1592     0.4559     0.5237     0.5729     0.5945     0.5655     0.6755     0.2707     0.3026    
1726.0824  104.7448   213.5047   112.6456   308.0505   12.9365    0.9433     2.1514     0.469      0.5461     0.5849     0.5999     0.5649     0.6647     0.2776     0.2962    
1726.2348  105.9549   212.4423   109.0991   308.0603   13.1614    0.9439     2.1453     0.4784     0.5454     0.5711     0.5815     0.5467     0.6104     0.2897     0.3111    
1726.3872  102.1574   211.394    109.8626   308.07     13.1987    0.9445     2.1394     0.5211     0.56       0.5816     0.5892     0.5529     0.5756     0.2967     0.3075    
1726.5396  102.0695   205.1695   113.1588   308.0797   13.2207    0.9452     2.1405     0.5396     0.5548     0.575      0.5803     0.5437     0.5618     0.2947     0.3045    
1726.692   101.7029   200.1407   113.1621   308.0894   13.232     0.9458     2.18       0.5183     0.519      0.543      0.5492     0.5244     0.5335     0.2789     0.2967    
1726.8444  100.6801   195.5313   112.0422   308.0992   13.0912    0.9464     2.2755     0.4901     0.485      0.4975     0.5046     0.4801     0.4894     0.3248     0.3031    
1726.9968  99.0781    189.2899   110.4683   308.1089   12.8532    0.947      2.3881     0.7348     0.7202     0.7127     0.7271     0.6835     0.6721     0.5184     0.2776    
1727.1492  84.8892    180.9845   110.4091   308.1185   12.4269    0.9476     2.4522     1.6147     1.6397     1.7191     1.7855     1.6882     1.7225     1.0638     0.2454    
1727.3016  84.2601    173.2719   109.2108   308.1282   12.3872    0.9482     2.4304     1.633      1.5955     1.6373     1.7086     1.6661     1.6612     1.1933     0.2381    
1727.454   83.3219    168.1857   109.7013   308.1378   12.3651    0.9489     2.3877     1.4627     1.4241     1.5366     1.5862     1.5594     1.5985     0.7352     0.2516    
1727.6064  81.8319    154.3547   110.1011   308.1475   12.3958    0.9495     2.3751     1.1108     1.0535     1.1031     1.1368     1.1328     1.1106     0.6647     0.2629    
1727.7588  80.6199    149.9973   109.8562   308.1571   12.4174    0.9501     2.4092     1.2473     1.2063     1.238      1.2807     1.2682     1.249      0.795      0.2614    
