~Version
 VERS              .         3                             : CWLS LOG ASCII STANDARD - VERSION 3.0
 WRAP              .         NO                            : ONE LINE PER DEPTH STEP
 DLM               .         SPACE                         : DELIMITING CHARACTER(SPACE TAB OR COMMA)
~Well Information
#_______________________________________________________________________________
#
#PARAMETER_NAME    .UNIT     VALUE                         : DESCRIPTION
#_______________________________________________________________________________
STRT               .M        1146.048                      : First reference value
STOP               .M        2108.3016                     : Last reference value
STEP               .M        0.1524                        : Step increment
NULL               .         -9999                         : Missing value
WELL               .         02_97-DD-1X                   : Well name
FLD                .         Dong Do                       : 
PDAT               .         Mean Sea Level                : 
WST                .         0                             : 
STATE              .         Offshore Vietnam              : 
ERT                .         32                            : 
RWS                .         0                             : 
COMP               .         Lam Son JOC                   : 
CNTY               .         Adriatic XI                   : 
DRMEA              .         Drill Floor                   : 
UTMZ               .         49                            : 
SRVC               .         SCH                           : 
DATE               .         8/18/2011                     : 
LGMEA              .         Drill Floor                   : 
ORIGINALWELLNAME   .         02_97-DD-1X                   : 
LATI               .         10.11502                      : 
LOC                .         Cuu Long Basin, Offshore Vietn: 
EPDAT              .         0.000000                      : 
APDAT              .         32                            : 
COUNT              .         Vietnam                       : 
LONG               .         108.55532                     : 
GDAT               .                                       : 
PROV               .                                       : 
UWI                .                                       : 
LIC                .                                       : 
STAT               .                                       : 
API                .                                       : 
CTRY               .                                       : 
~Parameter Information Block
#_______________________________________________________________________________
#
#PARAMETER_NAME    .UNIT     VALUE                         : DESCRIPTION
#_______________________________________________________________________________
SET                .         02_97-DD-1X                   : 
TLFamily_DTCO3     .         Compressional Slowness        : 
TLFamily_RT_HRLT   .         Formation Resistivity         : 
TLFamily_ECGR      .         Gamma Ray                     : 
TLFamily_TNPH      .         Neutron Porosity              : 
REAL_CREATION_DATE .         Fri Jun 30 2017-17_18_31      : 
TLFamily_RXOZ      .         Micro Resistivity             : 
TLFamily_HCAL      .         Caliper                       : 
TLFamily_RLA1      .         Shallow Resistivity           : 
TLFamily_RLA2      .         Array Resistivity             : 
TLFamily_DEPTH     .         Measured Depth                : 
TLFamily_DTSH5     .         Shear Slowness                : 
TLFamily_RLA3      .         Medium Resistivity            : 
TLFamily_RLA4      .         Array Resistivity             : 
TLFamily_RLA5      .         Deep Resistivity              : 
TLFamily_RHOZ      .         Bulk Density                  : 
TLFamily_HDEVI     .                                       : 
TLFamily_HAZI      .         Hole Azimuth                  : 
~Curve Information
#_______________________________________________________________________________
#
#LOGNAME           .UNIT     LOG_ID                        : DESCRIPTION
#_______________________________________________________________________________
DEPTH              .M                                      : Depth {F}
DTCO3              .US/F                                   : Sonic      Compressional Slowness from Measurement 3 <_techsia_lb_>F13 {F}
DTSH5              .US/F                                   : ShearSonic Shear Slowness from Measurement 5 <_techsia_lb_>F13 {F}
ECGR               .GAPI                                   : Gamma-Ray <_techsia_lb_>F13 {F}
HAZI               .Deg                                    : Azimuth {F}
HCAL               .IN                                     : Caliper    HRCC Cal. Caliper <_techsia_lb_>F13 {F}
HDEVI              .Deg                                    : Deviation {F}
RHOZ               .G/C3                                   : Density    HRDD Standard Resolution Formation Density <_techsia_lb_>F13 {F}
RLA1               .OHMM                                   : ShalRes    HRLT Borehole Corrected Resistivity 1 <_techsia_lb_>F13 {F}
RLA2               .OHMM                                   : MedRes     HRLT Borehole Corrected Resistivity 2 <_techsia_lb_>F13 {F}
RLA3               .OHMM                                   : DeepRes    HRLT Borehole Corrected Resistivity 3 <_techsia_lb_>F13 {F}
RLA4               .OHMM                                   : XDeepRes   HRLT Borehole Corrected Resistivity 4 <_techsia_lb_>F13 {F}
RLA5               .OHMM                                   : UltraDeepR HRLT Borehole Corrected Resistivity 5 <_techsia_lb_>F13 {F}
RT_HRLT            .OHMM                                   : HRLT Computed True Resistivity <_techsia_lb_>F13 {F}
RXOZ               .OHMM                                   : MicroRes   MCFL Standard Resolution Invaded Zone Resistivity <_techsia_lb_>F13 {F}
TNPH               .V/V                                    : Neutron    Thermal Neutron Porosity <_techsia_lb_>F13 {F}
~Ascii
# ...
2036.3688  95.9426    196.401    189.5604   66.3897    12.738     27.133     2.4422     2.1266     3.118      3.0057     3.0771     2.9926     3.0247     2.9222     0.3869    
2036.5212  97.4013    196.401    192.7621   66.3909    12.8562    27.1557    2.4353     2.0714     2.8899     2.7549     2.7896     2.7019     2.7112     2.7167     0.3822    
2036.6736  97.2885    199.7251   201.8764   66.392     12.9592    27.1785    2.4385     2.0254     2.8333     2.6864     2.725      2.6346     2.6084     2.6112     0.3753    
2036.826   97.9403    200.77     202.7347   66.3932    13.0615    27.2012    2.4459     2.0125     2.8692     2.7074     2.7283     2.6404     2.5669     2.6749     0.3444    
2036.9784  98.4725    202.7274   199.2685   66.3944    13.1177    27.2239    2.4455     2.0018     2.9345     2.7478     2.7578     2.666      2.5561     2.572      0.3445    
2037.1308  98.4212    203.4442   197.1847   66.3956    13.0877    27.2467    2.4468     1.9677     2.8812     2.6789     2.6651     2.5582     2.4067     2.5714     0.3428    
2037.2832  98.4291    203.4821   198.3302   66.3967    13.0685    27.2694    2.4479     1.975      2.9452     2.7434     2.7364     2.6415     2.574      2.6337     0.3596    
2037.4356  97.9253    203.4821   198.2105   66.3979    13.0465    27.2922    2.4452     2.0128     3.1069     2.9026     2.9094     2.8194     2.8194     2.829      0.3516    
2037.588   96.5749    201.8603   195.2706   66.3991    13.0748    27.3149    2.4354     2.0298     3.1893     3.0111     3.0272     2.9356     2.9652     2.7278     0.3448    
2037.7404  99.4789    201.0238   189.2325   66.4002    13.0494    27.3376    2.4243     2.0098     3.1229     2.9804     2.9982     2.9147     2.9373     2.7425     0.3387    
2037.8928  97.8787    199.6987   192.0766   66.4014    13.2036    27.3604    2.4109     2.0148     3.2506     3.0551     3.1019     2.9891     3.0065     2.8353     0.3332    
2038.0452  97.4136    198.9416   198.7621   66.4025    13.3241    27.3831    2.3923     2.0426     3.6194     3.3541     3.438      3.3741     3.373      3.3213     0.3562    
2038.1976  98.3112    198.8018   210.1731   66.4037    13.4492    27.4059    2.3781     1.9926     3.398      3.0824     3.119      3.0438     2.9699     2.9381     0.3701    
2038.35    99.3203    200.1184   214.4073   66.4049    13.4938    27.4286    2.3723     2.002      3.548      3.1479     3.1796     3.1002     3.0032     2.847      0.3746    
2038.5024  99.8124    200.4555   219.2881   66.406     13.4977    27.4513    2.3722     2.0078     3.785      3.3336     3.3709     3.291      3.2181     2.3972     0.3434    
2038.6548  99.7955    201.9901   219.2473   66.4072    13.4924    27.4741    2.3864     1.9446     3.5845     3.153      3.1785     3.1049     3.002      2.4687     0.3484    
2038.8072  100.5977   202.1254   218.1242   66.4083    13.4826    27.4968    2.3996     1.9537     3.5506     3.1042     3.1232     3.0264     2.9038     2.4383     0.344     
2038.9596  100.8314   203.6641   214.4604   66.4095    13.4731    27.5196    2.4065     1.9301     3.4548     3.0561     3.077      3.004      2.9237     2.6734     0.3445    
2039.112   98.9338    203.4778   208.4326   66.4106    13.4722    27.5423    2.3962     1.9217     3.461      3.1047     3.1414     3.0639     2.9774     2.8936     0.3501    
2039.2644  101.1202   202.7168   208.1667   66.4118    13.6023    27.5651    2.3895     1.9004     3.5918     3.2153     3.2379     3.1413     3.0159     3.0479     0.3584    
2039.4168  99.0158    204.8899   205.9945   66.4129    13.7416    27.5878    2.3856     1.9533     3.8414     3.4466     3.4137     3.308      3.1438     3.0233     0.3735    
2039.5692  101.5411   205.3148   208.1241   66.4141    13.9278    27.6105    2.3865     1.8264     3.5594     3.1347     3.1197     3.0002     2.7423     3.0409     0.3859    
2039.7216  101.3998   205.3672   205.5525   66.4152    13.9907    27.6333    2.3954     1.8351     3.7837     3.2523     3.1985     3.0739     2.7226     2.972      0.3808    
2039.874   101.3897   205.3672   203.0701   66.4163    13.9933    27.656     2.4127     1.8069     3.8487     3.1841     3.1156     2.9791     2.5567     2.959      0.3742    
2040.0264  101.3595   205.6247   205.3486   66.4175    14.0033    27.6788    2.428      1.7888     3.8344     3.1334     3.0398     2.9069     2.4457     2.8855     0.3672    
2040.1788  101.6061   206.3506   210.5882   66.4186    14.0143    27.7015    2.4342     1.8049     3.9063     3.1754     3.0727     2.9339     2.4584     2.6709     0.3617    
2040.3312  101.4871   209.1793   216.7911   66.4197    14.0109    27.7242    2.4337     1.8722     3.9404     3.2555     3.1492     3.0162     2.5519     2.6489     0.3539    
2040.4836  100.7421   210.2755   212.7035   66.4209    13.4282    27.747     2.4294     1.8224     3.5029     2.9362     2.8526     2.7388     2.3144     2.6127     0.3511    
2040.636   100.3899   207.0081   216.2077   66.422     13.3317    27.7697    2.4335     1.8455     3.4015     2.9141     2.8477     2.7428     2.4745     2.939      0.3521    
2040.7884  100.3899   212.5237   213.6533   66.4231    13.2257    27.7925    2.4347     1.9204     3.2569     2.9299     2.9128     2.8408     2.8302     2.9732     0.3785    
2040.9408  97.1703    213.5978   212.3378   66.4243    13.2483    27.8152    2.4401     1.9521     3.0358     2.8686     2.8393     2.7711     2.797      2.9031     0.394     
2041.0932  97.7203    202.9935   206.4625   66.4254    13.3611    27.838     2.4404     1.959      3.1051     2.8253     2.8277     2.7606     2.8014     2.6853     0.3851    
2041.2456  96.1783    199.8088   208.563    66.4265    13.4809    27.8607    2.4391     1.9606     3.1826     2.8556     2.8588     2.7924     2.8577     2.7552     0.3633    
2041.398   96.6625    197.8378   207.3275   66.4276    13.5429    27.8834    2.4364     1.9959     3.5647     3.1102     3.1065     3.0231     3.119      3.1584     0.3406    
2041.5504  95.0506    203.9903   204.2834   66.4288    13.55      27.9062    2.4248     2.0748     4.349      3.6893     3.6596     3.564      3.6783     3.5208     0.3199    
2041.7028  95.0506    201.0524   201.0147   66.4299    13.5297    27.9289    2.4217     2.1213     4.7157     3.9642     3.9307     3.8292     3.9453     3.1927     0.3218    
2041.8552  95.645     194.3492   199.8727   66.431     13.3901    27.9517    2.4203     2.005      3.7931     3.2008     3.1632     3.0905     3.1987     2.8528     0.3317    
2042.0076  95.6077    193.4233   202.003    66.4321    13.2412    27.9744    2.4223     1.9949     3.358      2.919      2.9147     2.8451     2.9387     2.5651     0.3493    
2042.16    95.6077    194.3879   203.3606   66.4332    13.1428    27.9972    2.4219     1.982      3.1486     2.7899     2.7999     2.739      2.8197     2.6379     0.3536    
2042.3124  95.7754    195.4603   203.0793   66.4343    13.1124    28.0199    2.4175     1.9713     2.9742     2.7057     2.7166     2.6662     2.7326     2.3072     0.3748    
2042.4648  95.9548    195.5471   203.5465   66.4354    13.1683    28.0426    2.4168     1.9624     2.924      2.6871     2.7013     2.6492     2.7118     2.1922     0.4194    
2042.6172  97.2142    198.2409   204.3451   66.4366    13.2457    28.0654    2.4113     1.9695     3.033      2.7354     2.7483     2.6986     2.7666     2.1773     0.4402    
2042.7696  97.4642    199.8809   211.5877   66.4377    13.302     28.0881    2.4133     1.977      3.2013     2.806      2.7876     2.7114     2.8201     2.1843     0.4404    
2042.922   98.0512    202.2213   212.3304   66.4388    13.3206    28.1109    2.4159     2.0172     3.4001     3.0279     2.989      2.9177     3.0266     2.1726     0.4276    
2043.0744  98.4728    202.3187   212.4268   66.4399    13.3228    28.1336    2.4128     2.0132     3.4014     3.0239     2.9867     2.9181     3.0244     1.8683     0.4176    
2043.2268  98.4602    203.2068   211.4281   66.441     13.152     28.1563    2.4169     1.9384     2.9958     2.7199     2.6915     2.6364     2.723      1.2771     0.4011    
