~Version
 VERS              .         3                             : CWLS LOG ASCII STANDARD - VERSION 3.0
 WRAP              .         NO                            : ONE LINE PER DEPTH STEP
 DLM               .         SPACE                         : DELIMITING CHARACTER(SPACE TAB OR COMMA)
~Well Information
#_______________________________________________________________________________
#
#PARAMETER_NAME    .UNIT     VALUE                         : DESCRIPTION
#_______________________________________________________________________________
STRT               .M        1146.048                      : First reference value
STOP               .M        2108.3016                     : Last reference value
STEP               .M        0.1524                        : Step increment
NULL               .         -9999                         : Missing value
WELL               .         02_97-DD-1X                   : Well name
FLD                .         Dong Do                       : 
PDAT               .         Mean Sea Level                : 
WST                .         0                             : 
STATE              .         Offshore Vietnam              : 
ERT                .         32                            : 
RWS                .         0                             : 
COMP               .         Lam Son JOC                   : 
CNTY               .         Adriatic XI                   : 
DRMEA              .         Drill Floor                   : 
UTMZ               .         49                            : 
SRVC               .         SCH                           : 
DATE               .         8/18/2011                     : 
LGMEA              .         Drill Floor                   : 
ORIGINALWELLNAME   .         02_97-DD-1X                   : 
LATI               .         10.11502                      : 
LOC                .         Cuu Long Basin, Offshore Vietn: 
EPDAT              .         0.000000                      : 
APDAT              .         32                            : 
COUNT              .         Vietnam                       : 
LONG               .         108.55532                     : 
GDAT               .                                       : 
PROV               .                                       : 
UWI                .                                       : 
LIC                .                                       : 
STAT               .                                       : 
API                .                                       : 
CTRY               .                                       : 
~Parameter Information Block
#_______________________________________________________________________________
#
#PARAMETER_NAME    .UNIT     VALUE                         : DESCRIPTION
#_______________________________________________________________________________
SET                .         02_97-DD-1X                   : 
TLFamily_DTCO3     .         Compressional Slowness        : 
TLFamily_RT_HRLT   .         Formation Resistivity         : 
TLFamily_ECGR      .         Gamma Ray                     : 
TLFamily_TNPH      .         Neutron Porosity              : 
REAL_CREATION_DATE .         Fri Jun 30 2017-17_18_31      : 
TLFamily_RXOZ      .         Micro Resistivity             : 
TLFamily_HCAL      .         Caliper                       : 
TLFamily_RLA1      .         Shallow Resistivity           : 
TLFamily_RLA2      .         Array Resistivity             : 
TLFamily_DEPTH     .         Measured Depth                : 
TLFamily_DTSH5     .         Shear Slowness                : 
TLFamily_RLA3      .         Medium Resistivity            : 
TLFamily_RLA4      .         Array Resistivity             : 
TLFamily_RLA5      .         Deep Resistivity              : 
TLFamily_RHOZ      .         Bulk Density                  : 
TLFamily_HDEVI     .                                       : 
TLFamily_HAZI      .         Hole Azimuth                  : 
~Curve Information
#_______________________________________________________________________________
#
#LOGNAME           .UNIT     LOG_ID                        : DESCRIPTION
#_______________________________________________________________________________
DEPTH              .M                                      : Depth {F}
DTCO3              .US/F                                   : Sonic      Compressional Slowness from Measurement 3 <_techsia_lb_>F13 {F}
DTSH5              .US/F                                   : ShearSonic Shear Slowness from Measurement 5 <_techsia_lb_>F13 {F}
ECGR               .GAPI                                   : Gamma-Ray <_techsia_lb_>F13 {F}
HAZI               .Deg                                    : Azimuth {F}
HCAL               .IN                                     : Caliper    HRCC Cal. Caliper <_techsia_lb_>F13 {F}
HDEVI              .Deg                                    : Deviation {F}
RHOZ               .G/C3                                   : Density    HRDD Standard Resolution Formation Density <_techsia_lb_>F13 {F}
RLA1               .OHMM                                   : ShalRes    HRLT Borehole Corrected Resistivity 1 <_techsia_lb_>F13 {F}
RLA2               .OHMM                                   : MedRes     HRLT Borehole Corrected Resistivity 2 <_techsia_lb_>F13 {F}
RLA3               .OHMM                                   : DeepRes    HRLT Borehole Corrected Resistivity 3 <_techsia_lb_>F13 {F}
RLA4               .OHMM                                   : XDeepRes   HRLT Borehole Corrected Resistivity 4 <_techsia_lb_>F13 {F}
RLA5               .OHMM                                   : UltraDeepR HRLT Borehole Corrected Resistivity 5 <_techsia_lb_>F13 {F}
RT_HRLT            .OHMM                                   : HRLT Computed True Resistivity <_techsia_lb_>F13 {F}
RXOZ               .OHMM                                   : MicroRes   MCFL Standard Resolution Invaded Zone Resistivity <_techsia_lb_>F13 {F}
TNPH               .V/V                                    : Neutron    Thermal Neutron Porosity <_techsia_lb_>F13 {F}
~Ascii
# ...
1657.8072  98.8376    204.0746   129.2268   309.5491   12.6977    0.7432     2.2975     0.4934     0.5487     0.6075     0.6564     0.66       0.7986     0.309      0.3057    
1657.9596  97.5602    200.4724   134.8261   309.5551   12.7683    0.7442     2.3921     0.7276     0.8088     0.8811     0.9528     0.9694     1.1678     0.4828     0.3143    
1658.112   97.2086    200.0423   149.6837   309.5612   13.3868    0.7453     2.4785     1.8223     2.1073     2.4205     2.6306     2.7053     3.3834     0.9345     0.3262    
1658.2644  96.7885    199.8322   155.7831   309.5673   12.605     0.7463     2.5128     2.0818     2.6265     2.7956     3.0051     3.0766     3.3167     3.3714     0.3296    
1658.4168  95.5814    198.7584   158.6059   309.5733   12.5993    0.7473     2.4802     1.9473     2.2072     2.3504     2.4603     2.5221     2.5308     1.741      0.3051    
1658.5692  94.3649    195.4422   152.2199   309.5793   12.5074    0.7484     2.4283     1.6045     1.3909     1.4182     1.4841     1.5152     1.5084     1.1023     0.291     
1658.7216  90.2789    189.2465   142.4398   309.5854   12.471     0.7494     2.4057     1.6245     1.3523     1.3701     1.4261     1.4431     1.4739     0.931      0.2828    
1658.874   88.8113    181.1185   139.8356   309.5913   12.5442    0.7504     2.4178     1.9222     1.9051     1.8833     1.9806     2.0217     1.9876     1.1688     0.2754    
1659.0264  87.0579    171.8546   133.6853   309.5973   12.5436    0.7515     2.4403     1.8851     1.8924     1.7848     1.8158     1.8473     1.8326     1.3802     0.2694    
1659.1788  84.56      167.7243   130.037    309.6033   12.5105    0.7525     2.4658     1.7672     1.6447     1.5393     1.5514     1.5682     1.4964     1.3295     0.2615    
1659.3312  81.5311    165.9675   123.7857   309.6092   12.4858    0.7535     2.5106     1.9817     2.1491     2.0177     2.009      2.0045     2.0271     1.4193     0.2448    
1659.4836  79.0514    160.4733   122.7739   309.6151   12.5832    0.7546     2.5506     2.4606     3.3858     3.2083     3.1415     3.1307     3.1939     2.005      0.2258    
1659.636   77.7556    148.9203   121.113    309.621    12.5905    0.7556     2.5706     2.5673     3.765      3.5503     3.5155     3.5296     3.5653     3.2563     0.2028    
1659.7884  75.1715    140.7874   119.1255   309.6269   12.5369    0.7566     2.5798     2.6003     4.5484     4.3282     4.3893     4.3796     4.3862     3.973      0.188     
1659.9408  72.6096    135.618    117.71     309.6328   12.4866    0.7577     2.5935     2.8419     6.0953     5.3539     5.5211     5.5325     5.5068     4.8507     0.1827    
1660.0932  71.8672    132.0594   114.9869   309.6387   12.4545    0.7587     2.6098     3.2105     9.2761     7.4363     7.7802     7.6957     7.6486     5.9727     0.1813    
1660.2456  71.636     121.7749   115.0524   309.6445   12.3871    0.7597     2.6113     3.4546     12.7107    9.3384     10.0627    9.9399     9.8622     7.7483     0.1799    
1660.398   71.694     120.5595   118.1945   309.6503   12.3841    0.7608     2.604      3.319      10.1791    7.5085     7.9562     7.8577     7.8416     8.2401     0.1652    
1660.5504  64.8748    119.3755   123.3056   309.6561   12.3844    0.7618     2.5884     3.356      8.2092     6.5583     6.9012     6.7597     6.7126     6.242      0.1536    
1660.7028  77.5984    116.9077   120.8955   309.6619   12.4184    0.7628     2.5775     3.2134     6.09       5.1035     5.306      5.0962     4.7012     4.4638     0.1559    
1660.8552  77.5984    119.5069   110.06     309.6677   12.3839    0.7639     2.5866     3.1156     5.7863     4.8062     5.0096     4.7422     4.2749     4.1132     0.1545    
1661.0076  70.4938    123.889    106.08     309.6735   12.3379    0.7649     2.6168     3.5977     10.5442    8.0348     8.2032     7.9816     7.9553     5.6019     0.152     
1661.16    75.7957    128.189    110.2395   309.6792   12.2771    0.7659     2.6252     3.5883     14.9961    10.8285    11.4926    10.9953    11.1563    11.5872    0.1516    
1661.3124  77.8583    131.6112   122.3886   309.685    12.3057    0.767      2.565      2.961      6.604      6.2101     6.4908     5.9154     5.805      4.2931     0.1822    
1661.4648  78.3187    140.8119   124.1095   309.6907   12.4031    0.768      2.4642     2.0605     2.2542     2.1134     2.0821     1.8523     1.5594     0.9427     0.2212    
1661.6172  78.2712    142.6685   125.5042   309.6964   12.584     0.769      2.3937     1.4768     1.2583     1.1776     1.1361     0.9886     0.6276     0.5921     0.2467    
1661.7696  75.9045    142.4993   122.3457   309.7021   12.6692    0.7701     2.3729     1.8109     1.8169     1.6809     1.6115     1.3836     0.8067     0.6265     0.2418    
1661.922   78.2761    149.4796   121.1064   309.7077   12.3532    0.7711     2.3867     1.6675     1.6199     1.4966     1.4119     1.2138     0.6684     0.6187     0.2436    
1662.0744  76.6261    150.9923   116.5953   309.7134   12.4576    0.7721     2.3998     1.332      1.2446     1.1144     1.0278     0.8769     0.4023     0.7053     0.2379    
1662.2268  76.6261    149.1919   113.5529   309.719    12.6059    0.7732     2.4209     1.7787     1.9055     1.7748     1.6314     1.3785     0.7467     0.8779     0.2066    
1662.3792  75.4178    149.5433   107.1507   309.7247   12.4637    0.7742     2.4221     1.8488     2.0954     2.0246     1.8332     1.5538     0.823      1.3336     0.1827    
1662.5316  72.2121    147.4633   103.4457   309.7303   12.5637    0.7752     2.4509     1.8496     2.1563     2.349      2.1393     1.7795     1.8294     1.2348     0.1823    
1662.684   69.7701    142.0275   99.2368    309.7359   12.4828    0.7763     2.4833     2.3607     4.1727     4.4472     4.2708     3.5993     2.8969     1.4736     0.1753    
1662.8364  68.0858    131.9865   101.0438   309.7415   12.382     0.7773     2.5246     2.7272     5.2597     5.1067     5.2164     4.5958     4.1717     1.7828     0.1573    
1662.9888  67.3172    128.6326   100.1698   309.747    12.3358    0.7783     2.5154     2.479      3.0896     2.8107     2.8463     2.4934     2.7595     1.3086     0.154     
1663.1412  66.0517    124.535    98.0632    309.7526   12.3846    0.7794     2.524      2.7448     4.0429     3.7814     3.9517     3.4434     3.039      1.2571     0.1562    
1663.2936  65.8098    119.6166   96.3638    309.7581   12.3947    0.7804     2.5388     3.0906     6.182      5.2169     5.5129     5.0683     4.6751     2.2396     0.1593    
1663.446   65.4125    115.8232   97.1411    309.7636   12.4338    0.7814     2.5711     3.1514     7.3089     6.0182     6.4825     6.0254     6.1335     3.9778     0.1468    
1663.5984  64.7853    113.7739   98.1905    309.7691   12.3767    0.7825     2.5796     3.1922     8.6527     6.8036     7.101      6.7382     6.8654     5.2316     0.1342    
1663.7508  64.1724    110.6451   96.2849    309.7746   12.3505    0.7835     2.5879     3.6125     16.5396    13.213     13.7613    13.2445    13.3385    8.6614     0.1196    
1663.9032  63.5942    112.7154   96.9884    309.7801   12.3052    0.7845     2.5903     3.6756     19.2767    19.04      20.0631    20.1023    20.0865    13.8209    0.1056    
1664.0556  63.5942    110.6288   99.2258    309.7856   12.2815    0.7856     2.5886     3.4301     15.5834    13.5428    14.0795    14.4137    14.2916    13.8593    0.1022    
1664.208   63.5334    110.2908   104.0324   309.791    12.2974    0.7866     2.5981     3.5062     15.6919    12.9856    13.919     14.1159    14.1771    11.9636    0.1055    
1664.3604  63.9278    111.8916   105.1989   309.7965   12.3631    0.7876     2.5992     3.1814     10.934     9.6496     10.0322    10.4638    10.3635    11.3312    0.117     
1664.5128  64.7203    113.2517   104.2416   309.8019   12.3644    0.7887     2.6023     2.8824     6.5399     6.334      6.6016     6.6692     6.7422     7.9551     0.1273    
1664.6652  64.8971    115.0169   103.9714   309.8073   12.353     0.7897     2.5746     2.3827     3.1853     2.9094     2.9602     2.9359     2.8235     4.7362     0.1378    
