~Version
 VERS              .         3                             : CWLS LOG ASCII STANDARD - VERSION 3.0
 WRAP              .         NO                            : ONE LINE PER DEPTH STEP
 DLM               .         SPACE                         : DELIMITING CHARACTER(SPACE TAB OR COMMA)
~Well Information
#_______________________________________________________________________________
#
#PARAMETER_NAME    .UNIT     VALUE                         : DESCRIPTION
#_______________________________________________________________________________
STRT               .M        1146.048                      : First reference value
STOP               .M        2108.3016                     : Last reference value
STEP               .M        0.1524                        : Step increment
NULL               .         -9999                         : Missing value
WELL               .         02_97-DD-1X                   : Well name
FLD                .         Dong Do                       : 
PDAT               .         Mean Sea Level                : 
WST                .         0                             : 
STATE              .         Offshore Vietnam              : 
ERT                .         32                            : 
RWS                .         0                             : 
COMP               .         Lam Son JOC                   : 
CNTY               .         Adriatic XI                   : 
DRMEA              .         Drill Floor                   : 
UTMZ               .         49                            : 
SRVC               .         SCH                           : 
DATE               .         8/18/2011                     : 
LGMEA              .         Drill Floor                   : 
ORIGINALWELLNAME   .         02_97-DD-1X                   : 
LATI               .         10.11502                      : 
LOC                .         Cuu Long Basin, Offshore Vietn: 
EPDAT              .         0.000000                      : 
APDAT              .         32                            : 
COUNT              .         Vietnam                       : 
LONG               .         108.55532                     : 
GDAT               .                                       : 
PROV               .                                       : 
UWI                .                                       : 
LIC                .                                       : 
STAT               .                                       : 
API                .                                       : 
CTRY               .                                       : 
~Parameter Information Block
#_______________________________________________________________________________
#
#PARAMETER_NAME    .UNIT     VALUE                         : DESCRIPTION
#_______________________________________________________________________________
SET                .         02_97-DD-1X                   : 
TLFamily_DTCO3     .         Compressional Slowness        : 
TLFamily_RT_HRLT   .         Formation Resistivity         : 
TLFamily_ECGR      .         Gamma Ray                     : 
TLFamily_TNPH      .         Neutron Porosity              : 
REAL_CREATION_DATE .         Fri Jun 30 2017-17_18_31      : 
TLFamily_RXOZ      .         Micro Resistivity             : 
TLFamily_HCAL      .         Caliper                       : 
TLFamily_RLA1      .         Shallow Resistivity           : 
TLFamily_RLA2      .         Array Resistivity             : 
TLFamily_DEPTH     .         Measured Depth                : 
TLFamily_DTSH5     .         Shear Slowness                : 
TLFamily_RLA3      .         Medium Resistivity            : 
TLFamily_RLA4      .         Array Resistivity             : 
TLFamily_RLA5      .         Deep Resistivity              : 
TLFamily_RHOZ      .         Bulk Density                  : 
TLFamily_HDEVI     .                                       : 
TLFamily_HAZI      .         Hole Azimuth                  : 
~Curve Information
#_______________________________________________________________________________
#
#LOGNAME           .UNIT     LOG_ID                        : DESCRIPTION
#_______________________________________________________________________________
DEPTH              .M                                      : Depth {F}
DTCO3              .US/F                                   : Sonic      Compressional Slowness from Measurement 3 <_techsia_lb_>F13 {F}
DTSH5              .US/F                                   : ShearSonic Shear Slowness from Measurement 5 <_techsia_lb_>F13 {F}
ECGR               .GAPI                                   : Gamma-Ray <_techsia_lb_>F13 {F}
HAZI               .Deg                                    : Azimuth {F}
HCAL               .IN                                     : Caliper    HRCC Cal. Caliper <_techsia_lb_>F13 {F}
HDEVI              .Deg                                    : Deviation {F}
RHOZ               .G/C3                                   : Density    HRDD Standard Resolution Formation Density <_techsia_lb_>F13 {F}
RLA1               .OHMM                                   : ShalRes    HRLT Borehole Corrected Resistivity 1 <_techsia_lb_>F13 {F}
RLA2               .OHMM                                   : MedRes     HRLT Borehole Corrected Resistivity 2 <_techsia_lb_>F13 {F}
RLA3               .OHMM                                   : DeepRes    HRLT Borehole Corrected Resistivity 3 <_techsia_lb_>F13 {F}
RLA4               .OHMM                                   : XDeepRes   HRLT Borehole Corrected Resistivity 4 <_techsia_lb_>F13 {F}
RLA5               .OHMM                                   : UltraDeepR HRLT Borehole Corrected Resistivity 5 <_techsia_lb_>F13 {F}
RT_HRLT            .OHMM                                   : HRLT Computed True Resistivity <_techsia_lb_>F13 {F}
RXOZ               .OHMM                                   : MicroRes   MCFL Standard Resolution Invaded Zone Resistivity <_techsia_lb_>F13 {F}
TNPH               .V/V                                    : Neutron    Thermal Neutron Porosity <_techsia_lb_>F13 {F}
~Ascii
# ...
1783.9944  86.345     168.9544   107.6034   42.6983    12.8703    1.8602     2.4272     2.2922     3.6288     3.1991     3.2061     3.1143     2.7726     3.0428     0.1912    
1784.1468  86.0781    169.52     110.4364   42.7755    12.8681    1.8675     2.4417     2.2634     3.5537     3.1472     3.1473     3.0438     2.6922     2.7802     0.2065    
1784.2992  85.9005    171.2183   113.8758   42.852     12.8151    1.8748     2.4629     2.2505     3.8704     3.5029     3.5095     3.3913     3.1424     2.9233     0.2085    
1784.4516  85.9077    171.481    115.3933   42.9279    12.7495    1.8822     2.4684     2.1882     3.6111     3.3214     3.3257     3.2163     3.0644     3.3347     0.2098    
1784.604   85.3069    173.8064   116.1897   43.0032    12.6448    1.8895     2.461      2.1382     3.068      2.8327     2.8279     2.7265     2.5441     2.8891     0.2183    
1784.7564  85.3069    174.556    117.3638   43.0779    12.5995    1.8968     2.454      2.1557     2.9229     2.7089     2.721      2.6212     2.5042     2.7497     0.2361    
1784.9088  85.5159    174.5627   120.5582   43.1521    12.5641    1.9042     2.463      2.1735     3.0637     2.8903     2.8924     2.775      2.7873     3.0431     0.2519    
1785.0612  84.7681    174.7025   123.4691   43.2257    12.5596    1.9115     2.47       2.133      3.1245     3.0454     3.1116     2.9982     3.0077     3.4844     0.2508    
1785.2136  84.6148    174.4781   125.4281   43.2987    12.6632    1.9189     2.4692     2.3135     3.4524     3.235      3.2884     3.2236     3.1398     3.4683     0.2175    
1785.366   84.6382    172.0184   124.3259   43.3712    12.8284    1.9262     2.4635     2.3124     3.3796     3.0759     3.0842     2.9943     2.7425     3.0983     0.1974    
1785.5184  84.4462    171.0669   121.094    43.4432    13.0071    1.9336     2.4555     2.2164     3.5455     3.1801     3.1887     3.0784     2.8063     2.9803     0.1811    
1785.6708  84.3886    170.3936   118.1676   43.5145    13.0749    1.9409     2.4425     2.1009     3.5944     3.2611     3.269      3.1579     2.959      3.0197     0.1797    
1785.8232  84.6468    167.4516   115.1445   43.5854    13.0675    1.9483     2.4271     2.0865     3.6778     3.3031     3.3281     3.2428     2.9929     3.0959     0.1852    
1785.9756  84.9938    167.1295   114.8325   43.6557    13.1703    1.9557     2.4124     2.1074     3.6577     3.2173     3.1698     3.0994     2.7809     3.1961     0.1978    
1786.128   83.0726    166.3013   112.3869   43.7255    13.0846    1.963      2.3885     1.975      3.5515     3.268      3.2998     3.1838     3.0516     2.8175     0.2099    
1786.2804  83.66      166.3741   108.508    43.7948    13.1021    1.9704     2.3809     1.9725     3.3423     3.0099     3.0139     2.8774     2.5996     2.2659     0.2141    
1786.4328  83.6325    165.652    103.7032   43.8635    13.0046    1.9778     2.3852     1.9987     3.3405     2.9792     2.9856     2.8756     2.5879     2.1492     0.2175    
1786.5852  83.4077    165.3665   100.8321   43.9317    12.9971    1.9851     2.4207     2.1589     3.8472     3.317      3.2905     3.1677     2.7076     2.3021     0.2239    
1786.7376  82.0532    164.359    103.0588   43.9994    12.959     1.9925     2.4419     2.2433     3.7346     3.1507     3.1269     3.041      2.5658     2.6337     0.2152    
1786.89    80.9153    163.3267   104.6526   44.0667    12.9408    1.9999     2.4532     2.1654     3.4558     3.0428     3.0084     2.9086     2.5915     2.5966     0.2123    
1787.0424  80.9153    164.4747   108.3918   44.1334    12.8736    2.0073     2.4524     2.1783     3.4939     3.1457     3.1368     3.047      2.8594     2.7332     0.2112    
1787.1948  80.6362    166.3721   110.6144   44.1997    12.857     2.0147     2.4511     2.1765     3.6043     3.2144     3.2618     3.207      3.1482     2.8662     0.2116    
1787.3472  81.9601    167.5681   110.4221   44.2654    12.8712    2.0221     2.4459     2.1933     3.6529     3.3131     3.3603     3.3087     3.2383     2.9418     0.1992    
1787.4996  83.0182    168.3071   102.7522   44.3307    12.8645    2.0294     2.4335     2.1176     3.5908     3.3233     3.3671     3.3307     3.2369     1.7839     0.1882    
1787.652   90.2008    168.3071   95.5495    44.3955    12.8607    2.0368     2.395      2.1543     3.5842     3.2069     3.2282     3.1501     2.8931     1.2895     0.1912    
1787.8044  96.8236    173.6346   95.1442    44.4599    12.8493    2.0442     2.3463     2.14       3.4239     2.9813     3.0057     2.9341     2.5958     0.7335     0.2015    
1787.9568  96.0993    179.238    104.7189   44.5237    13.2817    2.0516     2.3231     2.0224     3.0507     2.6546     2.6359     2.5394     2.1039     0.4706     0.2218    
1788.1092  96.0993    182.519    108.3784   44.5872    13.0786    2.059      2.3421     1.9918     3.0084     2.6342     2.6117     2.5312     2.0884     0.474      0.2465    
1788.2616  94.8849    184.2455   113.6756   44.6501    13.1098    2.0664     2.3802     2.0102     3.0733     2.5935     2.5471     2.4348     1.8182     0.6202     0.2541    
1788.414   94.3927    184.6216   112.4009   44.7126    13.0014    2.0738     2.3942     2.0345     3.0514     2.5771     2.5286     2.4325     1.8035     1.2914     0.2417    
1788.5664  89.6502    187.8007   111.0717   44.7747    12.9345    2.0813     2.4013     2.1519     3.4429     2.8905     2.8436     2.7252     2.0946     1.3045     0.2327    
1788.7188  89.6502    186.9756   104.0355   44.8363    12.9477    2.0887     2.4089     2.2537     3.81       3.27       3.2138     3.0969     2.5097     1.7414     0.219     
1788.8712  89.5479    186.8449   105.9583   44.8975    12.9924    2.0961     2.4192     2.068      2.9106     2.5799     2.5354     2.4205     1.9289     1.4539     0.2126    
1789.0236  88.6227    186.3753   107.461    44.9583    13.0456    2.1035     2.4133     2.0601     2.7753     2.428      2.3837     2.2541     1.9288     1.7704     0.2155    
1789.176   88.0519    183.2526   107.4392   45.0186    12.9149    2.1109     2.4142     2.1        2.9102     2.4952     2.4527     2.3608     1.9223     1.7207     0.221     
1789.3284  87.886     182.2218   102.0218   45.0785    12.9473    2.1183     2.4147     2.2326     3.5022     2.9388     2.9295     2.8236     2.2654     2.1274     0.2051    
1789.4808  89.5095    181.1954   101.2561   45.138     13.1643    2.1258     2.4135     2.1277     3.3974     2.9294     2.9078     2.8162     2.3526     1.9636     0.2034    
1789.6332  89.1835    179.9335   105.6381   45.1971    13.0925    2.1332     2.4112     2.1162     3.1812     2.7457     2.7198     2.6508     2.1801     1.6968     0.2077    
1789.7856  87.8733    186.5201   107.1553   45.2558    13.0788    2.1406     2.4241     2.1431     3.2357     2.6774     2.651      2.5812     2.0144     1.3462     0.2377    
1789.938   87.0769    178.2557   108.0025   45.3141    13.1507    2.148      2.451      2.2235     3.704      3.074      3.0048     2.9391     2.371      1.464      0.2372    
1790.0904  86.0885    178.307    105.9157   45.3719    13.0437    2.1555     2.4648     2.1079     3.6335     3.1562     3.1581     3.0464     2.6468     2.1403     0.2249    
1790.2428  85.8578    173.3556   103.5688   45.4294    12.9337    2.1629     2.47       2.2104     3.8753     3.2464     3.2056     3.1259     2.6132     3.001      0.2016    
1790.3952  84.6145    171.902    103.0597   45.4865    12.8562    2.1703     2.4643     2.3421     3.9492     3.2366     3.1932     3.1152     2.9754     2.9901     0.1905    
1790.5476  83.9556    170.5493   105.9293   45.5431    12.8511    2.1778     2.458      2.3818     3.9022     3.2419     3.2409     3.1896     3.3012     2.9501     0.1983    
1790.7     83.49      164.5761   111.3613   45.5994    12.8599    2.1852     2.4547     2.4413     3.9583     3.2929     3.2524     3.1855     3.3266     3.1394     0.2078    
1790.8524  82.9869    163.181    113.9917   45.6554    12.8593    2.1927     2.4607     2.4393     4.0459     3.4208     3.4368     3.4459     3.4979     3.3553     0.218     
