~Version
 VERS              .         3                             : CWLS LOG ASCII STANDARD - VERSION 3.0
 WRAP              .         NO                            : ONE LINE PER DEPTH STEP
 DLM               .         SPACE                         : DELIMITING CHARACTER(SPACE TAB OR COMMA)
~Well Information
#_______________________________________________________________________________
#
#PARAMETER_NAME    .UNIT     VALUE                         : DESCRIPTION
#_______________________________________________________________________________
STRT               .M        1146.048                      : First reference value
STOP               .M        2108.3016                     : Last reference value
STEP               .M        0.1524                        : Step increment
NULL               .         -9999                         : Missing value
WELL               .         02_97-DD-1X                   : Well name
FLD                .         Dong Do                       : 
PDAT               .         Mean Sea Level                : 
WST                .         0                             : 
STATE              .         Offshore Vietnam              : 
ERT                .         32                            : 
RWS                .         0                             : 
COMP               .         Lam Son JOC                   : 
CNTY               .         Adriatic XI                   : 
DRMEA              .         Drill Floor                   : 
UTMZ               .         49                            : 
SRVC               .         SCH                           : 
DATE               .         8/18/2011                     : 
LGMEA              .         Drill Floor                   : 
ORIGINALWELLNAME   .         02_97-DD-1X                   : 
LATI               .         10.11502                      : 
LOC                .         Cuu Long Basin, Offshore Vietn: 
EPDAT              .         0.000000                      : 
APDAT              .         32                            : 
COUNT              .         Vietnam                       : 
LONG               .         108.55532                     : 
GDAT               .                                       : 
PROV               .                                       : 
UWI                .                                       : 
LIC                .                                       : 
STAT               .                                       : 
API                .                                       : 
CTRY               .                                       : 
~Parameter Information Block
#_______________________________________________________________________________
#
#PARAMETER_NAME    .UNIT     VALUE                         : DESCRIPTION
#_______________________________________________________________________________
SET                .         02_97-DD-1X                   : 
TLFamily_DTCO3     .         Compressional Slowness        : 
TLFamily_RT_HRLT   .         Formation Resistivity         : 
TLFamily_ECGR      .         Gamma Ray                     : 
TLFamily_TNPH      .         Neutron Porosity              : 
REAL_CREATION_DATE .         Fri Jun 30 2017-17_18_31      : 
TLFamily_RXOZ      .         Micro Resistivity             : 
TLFamily_HCAL      .         Caliper                       : 
TLFamily_RLA1      .         Shallow Resistivity           : 
TLFamily_RLA2      .         Array Resistivity             : 
TLFamily_DEPTH     .         Measured Depth                : 
TLFamily_DTSH5     .         Shear Slowness                : 
TLFamily_RLA3      .         Medium Resistivity            : 
TLFamily_RLA4      .         Array Resistivity             : 
TLFamily_RLA5      .         Deep Resistivity              : 
TLFamily_RHOZ      .         Bulk Density                  : 
TLFamily_HDEVI     .                                       : 
TLFamily_HAZI      .         Hole Azimuth                  : 
~Curve Information
#_______________________________________________________________________________
#
#LOGNAME           .UNIT     LOG_ID                        : DESCRIPTION
#_______________________________________________________________________________
DEPTH              .M                                      : Depth {F}
DTCO3              .US/F                                   : Sonic      Compressional Slowness from Measurement 3 <_techsia_lb_>F13 {F}
DTSH5              .US/F                                   : ShearSonic Shear Slowness from Measurement 5 <_techsia_lb_>F13 {F}
ECGR               .GAPI                                   : Gamma-Ray <_techsia_lb_>F13 {F}
HAZI               .Deg                                    : Azimuth {F}
HCAL               .IN                                     : Caliper    HRCC Cal. Caliper <_techsia_lb_>F13 {F}
HDEVI              .Deg                                    : Deviation {F}
RHOZ               .G/C3                                   : Density    HRDD Standard Resolution Formation Density <_techsia_lb_>F13 {F}
RLA1               .OHMM                                   : ShalRes    HRLT Borehole Corrected Resistivity 1 <_techsia_lb_>F13 {F}
RLA2               .OHMM                                   : MedRes     HRLT Borehole Corrected Resistivity 2 <_techsia_lb_>F13 {F}
RLA3               .OHMM                                   : DeepRes    HRLT Borehole Corrected Resistivity 3 <_techsia_lb_>F13 {F}
RLA4               .OHMM                                   : XDeepRes   HRLT Borehole Corrected Resistivity 4 <_techsia_lb_>F13 {F}
RLA5               .OHMM                                   : UltraDeepR HRLT Borehole Corrected Resistivity 5 <_techsia_lb_>F13 {F}
RT_HRLT            .OHMM                                   : HRLT Computed True Resistivity <_techsia_lb_>F13 {F}
RXOZ               .OHMM                                   : MicroRes   MCFL Standard Resolution Invaded Zone Resistivity <_techsia_lb_>F13 {F}
TNPH               .V/V                                    : Neutron    Thermal Neutron Porosity <_techsia_lb_>F13 {F}
~Ascii
# ...
1910.1816  80.5274    153.8624   108.7233   67.7184    14.4069    12.1206    2.4388     1.6961     4.6903     3.8629     3.8748     3.764      3.8319     3.4661     0.1614    
1910.334   80.261     153.8671   113.6007   67.7155    14.3167    12.1327    2.4486     1.7536     4.965      4.2158     4.2978     4.2288     4.2496     3.547      0.1659    
1910.4864  79.6278    153.7343   118.4104   67.7126    13.9235    12.1448    2.4616     1.7174     4.8097     4.1577     4.2955     4.2692     4.2464     3.7866     0.1762    
1910.6388  79.3715    152.5488   124.0213   67.7097    13.8783    12.157     2.4787     1.7444     4.7675     4.1529     4.3211     4.3137     4.2693     3.7651     0.1822    
1910.7912  78.2283    150.8751   125.4366   67.7068    14.0898    12.1691    2.4883     1.7197     4.4093     4.0337     4.2249     4.2491     4.1774     4.1158     0.1789    
1910.9436  78.0494    149.2625   124.1803   67.7039    14.5795    12.1812    2.4896     1.7159     4.5366     4.1463     4.3396     4.3521     4.2877     4.22       0.1763    
1911.096   77.8782    147.212    122.6663   67.7011    14.8088    12.1932    2.4757     1.6863     5.0516     4.3671     4.4756     4.4321     4.4296     4.4316     0.1709    
1911.2484  77.8782    146.8815   123.2508   67.6982    14.7912    12.2054    2.4538     1.6529     5.0602     4.5273     4.5101     4.4763     4.5043     4.2223     0.1634    
1911.4008  78.6552    146.8815   127.2463   67.6954    14.5687    12.2175    2.4259     1.6702     5.0504     4.5638     4.4116     4.3597     4.4357     3.7196     0.1583    
1911.5532  78.6552    148.9425   126.9387   67.6925    14.3102    12.2296    2.4106     1.6713     4.8885     4.2501     4.1071     4.0578     4.1301     2.9848     0.1623    
1911.7056  78.8432    149.8147   126.2615   67.6897    14.2836    12.2417    2.4089     1.638      4.5963     3.7801     3.7044     3.6523     3.7084     2.5851     0.1738    
1911.858   79.033     150.4092   121.0044   67.6868    13.8624    12.2538    2.4081     1.6889     4.2684     3.8695     3.9212     3.9078     3.9036     2.4338     0.1823    
1912.0104  79.7573    151.2296   118.2761   67.684     13.7129    12.2659    2.4134     1.7141     3.8581     3.5187     3.5701     3.5282     3.5459     2.6101     0.1842    
1912.1628  77.557     151.0934   111.4792   67.6812    13.7467    12.278     2.415      1.7399     3.7124     3.6532     3.8179     3.8023     3.7604     2.8603     0.1692    
1912.3152  77.0357    153.2361   105.8298   67.6783    13.7299    12.2901    2.4233     1.7962     3.8987     3.9753     4.223      4.2011     4.1272     3.2501     0.1708    
1912.4676  79.4209    154.1643   105.6664   67.6755    13.5732    12.3022    2.4257     1.811      3.9137     3.9724     4.2004     4.1775     4.1119     3.395      0.1702    
1912.62    79.1331    154.6997   106.8119   67.6727    13.494     12.3143    2.4359     1.7678     3.4296     3.3697     3.5221     3.4859     3.46       2.9615     0.1733    
1912.7724  79.143     154.6997   113.1831   67.6699    13.6339    12.3264    2.4514     1.7728     3.4593     3.448      3.6234     3.5883     3.5498     3.0517     0.1681    
1912.9248  80.0566    155.3462   112.8361   67.6671    13.5858    12.3385    2.4635     1.7905     3.7306     3.7834     4.0162     3.997      3.9233     3.4097     0.1745    
1913.0772  80.0566    155.6637   111.7931   67.6643    13.5818    12.3506    2.4556     1.7903     3.7574     3.6416     3.8486     3.7915     3.7633     3.5463     0.1846    
1913.2296  80.6504    156.8604   106.5577   67.6615    13.9948    12.3627    2.4369     1.7672     3.7541     3.5726     3.7697     3.7133     3.6915     3.0002     0.1866    
1913.382   81.7124    156.8182   106.4179   67.6587    14.1994    12.3748    2.4159     1.7285     3.5514     3.3193     3.4421     3.3788     3.391      2.8256     0.1844    
1913.5344  82.7095    157.756    112.2169   67.656     14.3494    12.3869    2.3988     1.7336     3.8644     3.4321     3.503      3.3989     3.4595     2.6944     0.1906    
1913.6868  82.7095    164.124    119.0256   67.6532    14.1724    12.399     2.3949     1.72       4.12       3.5115     3.5572     3.4345     3.5118     2.8485     0.2026    
1913.8392  83.6628    163.4656   124.5554   67.6504    14.0712    12.4111    2.412      1.6585     3.7141     3.266      3.2847     3.1473     3.2414     2.4075     0.2156    
1913.9916  83.6628    166.1907   130.0285   67.6476    13.855     12.4232    2.4368     1.6624     3.4953     3.1508     3.165      3.0241     3.1238     2.6355     0.2243    
1914.144   85.0236    168.1269   137.6389   67.6449    13.644     12.4353    2.4595     1.6934     3.5555     3.2993     3.3532     3.2995     3.3268     2.7292     0.2285    
1914.2964  85.8162    168.1269   141.0325   67.6421    13.4826    12.4474    2.4586     1.6887     3.4895     3.233      3.3227     3.271      3.2868     3.1988     0.2451    
1914.4488  85.9036    168.328    141.783    67.6394    13.9307    12.4595    2.4542     1.7019     3.3926     3.1694     3.2704     3.1709     3.2144     3.1199     0.273     
1914.6012  86.1267    168.6055   134.7889   67.6366    14.1732    12.4716    2.4331     1.7236     3.5678     3.3841     3.4588     3.3906     3.4206     3.1446     0.2949    
1914.7536  86.4765    167.8027   127.506    67.6339    14.135     12.4837    2.4248     1.7032     3.8756     3.5162     3.5649     3.5244     3.5473     1.7992     0.2928    
1914.906   85.738     166.4987   119.4338   67.6312    14.1082    12.4958    2.4207     1.5883     3.3158     2.8959     2.9071     2.8629     2.905      1.6482     0.2759    
1915.0584  85.738     164.9758   117.2172   67.6284    14.0939    12.5079    2.4413     1.651      3.7322     3.3015     3.3568     3.2668     3.3179     1.6581     0.2703    
1915.2108  85.399     164.6959   117.1074   67.6257    14.1403    12.52      2.4525     1.721      4.2004     3.7164     3.8163     3.7568     3.7679     3.0472     0.2745    
1915.3632  85.9332    164.7458   120.927    67.623     14.0731    12.5321    2.4498     1.6826     3.9852     3.5319     3.6815     3.6697     3.6354     3.2769     0.2705    
1915.5156  84.1022    163.4764   113.8553   67.6203    13.9627    12.5442    2.4355     1.6625     4.1484     3.6258     3.7749     3.8062     3.7437     3.1882     0.2689    
1915.668   84.1022    162.4969   108.7713   67.6176    13.9479    12.5563    2.4276     1.6721     4.2985     3.6876     3.829      3.8618     3.8001     3.322      0.2349    
1915.8204  82.4126    161.8792   106.7633   67.6149    14.5465    12.5684    2.4371     1.6653     4.4215     3.8489     3.9691     3.9465     3.9265     3.3303     0.2001    
1915.9728  82.1798    160.7833   112.3207   67.6122    14.7757    12.5805    2.4382     1.5994     4.3736     3.8373     3.9249     3.8935     3.8889     3.332      0.178     
1916.1252  82.0456    160.6214   113.2976   67.6095    14.8367    12.5926    2.4299     1.5614     4.5377     3.8836     3.9058     3.8855     3.8933     3.2624     0.1766    
1916.2776  81.8508    159.5297   112.2242   67.6068    14.7811    12.6047    2.4157     1.5072     4.229      3.5841     3.5054     3.4909     3.5233     2.9213     0.1803    
1916.43    83.412     159.5109   112.2137   67.6041    14.7407    12.6168    2.4144     1.4911     4.1808     3.4814     3.4147     3.3449     3.4079     2.8401     0.1927    
1916.5824  83.412     160.8984   111.8676   67.6015    14.7795    12.6289    2.4258     1.5141     4.2507     3.5257     3.4569     3.38       3.4475     2.8448     0.2092    
1916.7348  85.7533    167.6339   111.1425   67.5988    14.2176    12.641     2.4269     1.5863     4.5274     3.819      3.7456     3.682      3.7428     3.0988     0.2297    
1916.8872  85.7533    167.6339   109.9714   67.5961    14.3017    12.6531    2.4177     1.6366     4.6388     3.795      3.65       3.5581     3.6564     3.2693     0.2436    
1917.0396  88.8441    170.6253   116.5391   67.5935    14.3573    12.6652    2.4098     1.5558     3.9844     3.3221     3.2755     3.149      3.2382     3.0421     0.2525    
