~Version
 VERS              .         3                             : CWLS LOG ASCII STANDARD - VERSION 3.0
 WRAP              .         NO                            : ONE LINE PER DEPTH STEP
 DLM               .         SPACE                         : DELIMITING CHARACTER(SPACE TAB OR COMMA)
~Well Information
#_______________________________________________________________________________
#
#PARAMETER_NAME    .UNIT     VALUE                         : DESCRIPTION
#_______________________________________________________________________________
STRT               .M        1146.048                      : First reference value
STOP               .M        2108.3016                     : Last reference value
STEP               .M        0.1524                        : Step increment
NULL               .         -9999                         : Missing value
WELL               .         02_97-DD-1X                   : Well name
FLD                .         Dong Do                       : 
PDAT               .         Mean Sea Level                : 
WST                .         0                             : 
STATE              .         Offshore Vietnam              : 
ERT                .         32                            : 
RWS                .         0                             : 
COMP               .         Lam Son JOC                   : 
CNTY               .         Adriatic XI                   : 
DRMEA              .         Drill Floor                   : 
UTMZ               .         49                            : 
SRVC               .         SCH                           : 
DATE               .         8/18/2011                     : 
LGMEA              .         Drill Floor                   : 
ORIGINALWELLNAME   .         02_97-DD-1X                   : 
LATI               .         10.11502                      : 
LOC                .         Cuu Long Basin, Offshore Vietn: 
EPDAT              .         0.000000                      : 
APDAT              .         32                            : 
COUNT              .         Vietnam                       : 
LONG               .         108.55532                     : 
GDAT               .                                       : 
PROV               .                                       : 
UWI                .                                       : 
LIC                .                                       : 
STAT               .                                       : 
API                .                                       : 
CTRY               .                                       : 
~Parameter Information Block
#_______________________________________________________________________________
#
#PARAMETER_NAME    .UNIT     VALUE                         : DESCRIPTION
#_______________________________________________________________________________
SET                .         02_97-DD-1X                   : 
TLFamily_DTCO3     .         Compressional Slowness        : 
TLFamily_RT_HRLT   .         Formation Resistivity         : 
TLFamily_ECGR      .         Gamma Ray                     : 
TLFamily_TNPH      .         Neutron Porosity              : 
REAL_CREATION_DATE .         Fri Jun 30 2017-17_18_31      : 
TLFamily_RXOZ      .         Micro Resistivity             : 
TLFamily_HCAL      .         Caliper                       : 
TLFamily_RLA1      .         Shallow Resistivity           : 
TLFamily_RLA2      .         Array Resistivity             : 
TLFamily_DEPTH     .         Measured Depth                : 
TLFamily_DTSH5     .         Shear Slowness                : 
TLFamily_RLA3      .         Medium Resistivity            : 
TLFamily_RLA4      .         Array Resistivity             : 
TLFamily_RLA5      .         Deep Resistivity              : 
TLFamily_RHOZ      .         Bulk Density                  : 
TLFamily_HDEVI     .                                       : 
TLFamily_HAZI      .         Hole Azimuth                  : 
~Curve Information
#_______________________________________________________________________________
#
#LOGNAME           .UNIT     LOG_ID                        : DESCRIPTION
#_______________________________________________________________________________
DEPTH              .M                                      : Depth {F}
DTCO3              .US/F                                   : Sonic      Compressional Slowness from Measurement 3 <_techsia_lb_>F13 {F}
DTSH5              .US/F                                   : ShearSonic Shear Slowness from Measurement 5 <_techsia_lb_>F13 {F}
ECGR               .GAPI                                   : Gamma-Ray <_techsia_lb_>F13 {F}
HAZI               .Deg                                    : Azimuth {F}
HCAL               .IN                                     : Caliper    HRCC Cal. Caliper <_techsia_lb_>F13 {F}
HDEVI              .Deg                                    : Deviation {F}
RHOZ               .G/C3                                   : Density    HRDD Standard Resolution Formation Density <_techsia_lb_>F13 {F}
RLA1               .OHMM                                   : ShalRes    HRLT Borehole Corrected Resistivity 1 <_techsia_lb_>F13 {F}
RLA2               .OHMM                                   : MedRes     HRLT Borehole Corrected Resistivity 2 <_techsia_lb_>F13 {F}
RLA3               .OHMM                                   : DeepRes    HRLT Borehole Corrected Resistivity 3 <_techsia_lb_>F13 {F}
RLA4               .OHMM                                   : XDeepRes   HRLT Borehole Corrected Resistivity 4 <_techsia_lb_>F13 {F}
RLA5               .OHMM                                   : UltraDeepR HRLT Borehole Corrected Resistivity 5 <_techsia_lb_>F13 {F}
RT_HRLT            .OHMM                                   : HRLT Computed True Resistivity <_techsia_lb_>F13 {F}
RXOZ               .OHMM                                   : MicroRes   MCFL Standard Resolution Invaded Zone Resistivity <_techsia_lb_>F13 {F}
TNPH               .V/V                                    : Neutron    Thermal Neutron Porosity <_techsia_lb_>F13 {F}
~Ascii
# ...
1847.088   85.5725    171.5287   98.1144    57.1354    12.5812    6.0979     2.3901     2.3848     4.039      3.6413     3.6855     3.7357     3.7323     2.2471     0.2205    
1847.2404  85.7031    171.5484   96.644     57.1543    12.5618    6.11       2.4144     2.2798     3.8747     3.674      3.7676     3.7925     3.7646     2.3685     0.2122    
1847.3928  85.3258    171.4337   98.1571    57.1732    12.5226    6.1222     2.4281     2.1946     3.8721     3.8373     3.9754     3.9734     3.9232     2.3474     0.2009    
1847.5452  86.0298    173.254    99.807     57.192     12.5117    6.1343     2.4435     2.3022     3.8364     3.7023     3.8038     3.8117     3.7849     2.3244     0.1884    
1847.6976  85.9656    173.5697   106.3655   57.2107    12.5623    6.1464     2.4554     2.3483     3.6675     3.5145     3.6191     3.6126     3.5972     2.8266     0.1872    
1847.85    86.2649    173.5697   110.6159   57.2294    12.5543    6.1586     2.4559     2.3174     3.413      3.2584     3.3432     3.3118     3.3171     2.9791     0.1974    
1848.0024  86.3003    177.6423   115.4015   57.248     12.5288    6.1707     2.448      2.3064     3.1842     2.9944     3.049      3.0458     3.0076     2.9212     0.2255    
1848.1548  86.3003    178.5087   118.1965   57.2665    12.5097    6.1828     2.4498     2.4568     3.3381     3.0314     3.036      2.9939     2.8815     2.8485     0.2653    
1848.3072  86.8917    179.2504   122.1034   57.2849    12.4177    6.195      2.4641     2.4517     3.3744     3.0872     3.0564     3.0212     3.0365     2.8297     0.2861    
1848.4596  86.2037    178.9501   121.9026   57.3033    12.5283    6.2071     2.4801     2.3919     3.3457     3.0853     3.0748     3.0398     3.0929     2.9896     0.2871    
1848.612   85.5207    179.0444   122.7578   57.3216    12.4818    6.2192     2.4658     2.2672     3.1407     3.0175     3.0389     3.0134     3.028      2.9152     0.2817    
1848.7644  87.8847    176.7335   118.1075   57.3398    12.3505    6.2314     2.4351     2.227      3.0375     2.9278     2.9587     2.918      2.914      2.8219     0.2792    
1848.9168  87.5129    175.2737   109.7415   57.358     12.3095    6.2435     2.3894     2.1936     2.9227     2.8487     2.9023     2.8806     2.8956     2.2459     0.2591    
1849.0692  85.3632    173.8844   100.4756   57.3761    12.3493    6.2557     2.3632     2.0732     2.4909     2.4651     2.5094     2.4999     2.524      2.0032     0.2289    
1849.2216  82.528     170.9142   93.4182    57.3941    12.3742    6.2678     2.3638     2.1277     2.571      2.5209     2.6148     2.5784     2.5696     2.0203     0.2159    
1849.374   81.847     166.4097   93.294     57.412     12.5021    6.2799     2.373      2.3631     3.2608     3.1148     3.2456     3.2345     3.2093     2.4636     0.2216    
1849.5264  81.847     162.4202   91.414     57.4299    12.6377    6.2921     2.3918     2.3957     3.5175     3.2581     3.4005     3.4063     3.3768     2.7388     0.2152    
1849.6788  81.5288    162.0773   91.3001    57.4477    12.8572    6.3042     2.394      2.4073     3.8086     3.3906     3.5186     3.5092     3.4664     2.6043     0.2059    
1849.8312  81.6647    162.0692   92.7246    57.4655    13.0813    6.3164     2.4023     2.3979     4.1716     3.5903     3.7025     3.6746     3.5912     2.4309     0.1933    
1849.9836  84.6713    162.9614   94.6629    57.4831    13.006     6.3285     2.4079     2.3595     4.4626     3.7066     3.786      3.7612     3.6021     2.1093     0.1922    
1850.136   87.1939    166.5702   92.9642    57.5007    12.9755    6.3406     2.403      2.3023     4.6808     3.7741     3.8187     3.76       3.4163     1.9414     0.1913    
1850.2884  87.9381    168.3285   93.4651    57.5183    12.9813    6.3528     2.3758     2.131      4.261      3.6072     3.6007     3.516      3.1943     1.5671     0.1962    
1850.4408  90.0621    170.5693   95.1187    57.5358    13.2591    6.3649     2.3545     2.1057     3.7811     3.2729     3.296      3.198      2.8861     1.0705     0.2079    
1850.5932  90.4192    170.0984   99.2417    57.5532    13.3703    6.3771     2.3639     2.0933     3.4556     2.9656     2.9822     2.8824     2.5107     0.9907     0.2354    
1850.7456  90.4192    176.1032   104.7655   57.5705    13.2144    6.3892     2.38       2.1195     3.5364     2.9809     2.9896     2.9098     2.4789     1.2509     0.2573    
1850.898   89.2581    177.8088   111.5146   57.5878    12.5646    6.4014     2.3741     2.127      3.3444     2.7093     2.6946     2.6268     2.0645     2.0989     0.2709    
1851.0504  88.5614    178.969    114.8137   57.6191    12.8207    6.4145     2.3743     2.2545     3.6367     3.0025     2.9733     2.9095     2.6418     1.8325     0.2586    
1851.2028  88.5961    178.4732   114.4292   57.6806    12.8578    6.4297     2.3715     2.2055     3.287      2.9332     2.9263     2.8585     2.9546     1.7252     0.2416    
1851.3552  88.4922    176.8541   110.5238   57.7427    12.7732    6.445      2.3847     2.17       3.2341     2.9351     2.9314     2.868      2.9566     1.6699     0.2152    
1851.5076  88.434     173.2141   113.5753   57.8046    12.5971    6.4603     2.3798     2.1853     3.3643     3.0731     3.068      2.9747     3.0843     2.5014     0.2027    
1851.66    88.0715    171.4384   113.6375   57.8661    12.4712    6.4756     2.387      2.2473     3.617      3.3798     3.415      3.3188     3.4068     2.7176     0.1971    
1851.8124  85.758     171.4384   111.1223   57.9274    12.4646    6.4909     2.3878     2.3062     3.8002     3.687      3.7415     3.6609     3.7128     2.7162     0.1946    
1851.9648  85.758     170.3712   109.6241   57.9884    12.4411    6.5062     2.3946     2.2575     3.5916     3.5512     3.6628     3.5908     3.6005     2.7141     0.2118    
1852.1172  85.1926    165.4881   106.838    58.0491    12.374     6.5215     2.4087     2.2312     3.4241     3.3599     3.4891     3.4408     3.43       2.4892     0.2326    
1852.2696  84.0595    164.2833   106.2513   58.1095    12.748     6.5369     2.4276     2.2768     3.5015     3.342      3.4778     3.456      3.4382     2.3505     0.2432    
1852.422   84.0009    160.7319   98.3974    58.1696    12.909     6.5522     2.4263     2.4        3.9459     3.7512     3.8993     3.8833     3.8611     2.2128     0.2368    
1852.5744  83.5821    159.3      92.1222    58.2294    12.7766    6.5676     2.414      2.2638     4.0117     3.8213     3.9635     3.9669     3.9318     2.4351     0.2263    
1852.7268  82.3704    158.4558   85.5997    58.289     12.4907    6.5829     2.4016     2.2117     4.2455     4.046      4.2384     4.258      4.1903     2.9124     0.211     
1852.8792  81.8848    156.1839   85.2915    58.3483    12.4062    6.5983     2.4077     2.291      4.6733     4.5497     4.7715     4.797      4.7091     3.6437     0.1839    
1853.0316  80.3139    154.0287   84.2301    58.4073    12.4662    6.6136     2.4207     2.3582     4.7361     4.8543     5.157      5.1816     5.0377     4.1208     0.1667    
1853.184   80.3139    152.9776   82.9631    58.4661    12.5326    6.629      2.4216     2.4071     4.9063     5.1489     5.4322     5.5123     5.3242     3.9902     0.1511    
1853.3364  79.8155    152.849    79.8911    58.5246    12.5483    6.6444     2.4256     2.406      4.9943     5.0491     5.3436     5.3805     5.2359     3.4377     0.1492    
1853.4888  80.1215    153.0317   81.2102    58.5828    12.4208    6.6598     2.4223     2.494      5.1245     4.9412     5.2014     5.2506     5.1367     2.9979     0.1493    
1853.6412  80.0206    152.6142   84.673     58.6407    12.6525    6.6752     2.4277     2.4627     4.7484     4.4701     4.6341     4.7665     4.6417     3.0573     0.155     
1853.7936  80.1471    153.3602   88.3864    58.6984    12.8214    6.6906     2.4238     2.4516     4.4333     4.1399     4.2582     4.3287     4.2688     3.4288     0.1574    
1853.946   81.2111    153.7999   87.9777    58.7558    12.7225    6.706      2.4195     2.4177     4.3019     3.8496     3.8909     3.9247     3.9395     3.5908     0.1583    
