~Version
 VERS              .         3                             : CWLS LOG ASCII STANDARD - VERSION 3.0
 WRAP              .         NO                            : ONE LINE PER DEPTH STEP
 DLM               .         SPACE                         : DELIMITING CHARACTER(SPACE TAB OR COMMA)
~Well Information
#_______________________________________________________________________________
#
#PARAMETER_NAME    .UNIT     VALUE                         : DESCRIPTION
#_______________________________________________________________________________
STRT               .M        1146.048                      : First reference value
STOP               .M        2108.3016                     : Last reference value
STEP               .M        0.1524                        : Step increment
NULL               .         -9999                         : Missing value
WELL               .         02_97-DD-1X                   : Well name
FLD                .         Dong Do                       : 
PDAT               .         Mean Sea Level                : 
WST                .         0                             : 
STATE              .         Offshore Vietnam              : 
ERT                .         32                            : 
RWS                .         0                             : 
COMP               .         Lam Son JOC                   : 
CNTY               .         Adriatic XI                   : 
DRMEA              .         Drill Floor                   : 
UTMZ               .         49                            : 
SRVC               .         SCH                           : 
DATE               .         8/18/2011                     : 
LGMEA              .         Drill Floor                   : 
ORIGINALWELLNAME   .         02_97-DD-1X                   : 
LATI               .         10.11502                      : 
LOC                .         Cuu Long Basin, Offshore Vietn: 
EPDAT              .         0.000000                      : 
APDAT              .         32                            : 
COUNT              .         Vietnam                       : 
LONG               .         108.55532                     : 
GDAT               .                                       : 
PROV               .                                       : 
UWI                .                                       : 
LIC                .                                       : 
STAT               .                                       : 
API                .                                       : 
CTRY               .                                       : 
~Parameter Information Block
#_______________________________________________________________________________
#
#PARAMETER_NAME    .UNIT     VALUE                         : DESCRIPTION
#_______________________________________________________________________________
SET                .         02_97-DD-1X                   : 
TLFamily_DTCO3     .         Compressional Slowness        : 
TLFamily_RT_HRLT   .         Formation Resistivity         : 
TLFamily_ECGR      .         Gamma Ray                     : 
TLFamily_TNPH      .         Neutron Porosity              : 
REAL_CREATION_DATE .         Fri Jun 30 2017-17_18_31      : 
TLFamily_RXOZ      .         Micro Resistivity             : 
TLFamily_HCAL      .         Caliper                       : 
TLFamily_RLA1      .         Shallow Resistivity           : 
TLFamily_RLA2      .         Array Resistivity             : 
TLFamily_DEPTH     .         Measured Depth                : 
TLFamily_DTSH5     .         Shear Slowness                : 
TLFamily_RLA3      .         Medium Resistivity            : 
TLFamily_RLA4      .         Array Resistivity             : 
TLFamily_RLA5      .         Deep Resistivity              : 
TLFamily_RHOZ      .         Bulk Density                  : 
TLFamily_HDEVI     .                                       : 
TLFamily_HAZI      .         Hole Azimuth                  : 
~Curve Information
#_______________________________________________________________________________
#
#LOGNAME           .UNIT     LOG_ID                        : DESCRIPTION
#_______________________________________________________________________________
DEPTH              .M                                      : Depth {F}
DTCO3              .US/F                                   : Sonic      Compressional Slowness from Measurement 3 <_techsia_lb_>F13 {F}
DTSH5              .US/F                                   : ShearSonic Shear Slowness from Measurement 5 <_techsia_lb_>F13 {F}
ECGR               .GAPI                                   : Gamma-Ray <_techsia_lb_>F13 {F}
HAZI               .Deg                                    : Azimuth {F}
HCAL               .IN                                     : Caliper    HRCC Cal. Caliper <_techsia_lb_>F13 {F}
HDEVI              .Deg                                    : Deviation {F}
RHOZ               .G/C3                                   : Density    HRDD Standard Resolution Formation Density <_techsia_lb_>F13 {F}
RLA1               .OHMM                                   : ShalRes    HRLT Borehole Corrected Resistivity 1 <_techsia_lb_>F13 {F}
RLA2               .OHMM                                   : MedRes     HRLT Borehole Corrected Resistivity 2 <_techsia_lb_>F13 {F}
RLA3               .OHMM                                   : DeepRes    HRLT Borehole Corrected Resistivity 3 <_techsia_lb_>F13 {F}
RLA4               .OHMM                                   : XDeepRes   HRLT Borehole Corrected Resistivity 4 <_techsia_lb_>F13 {F}
RLA5               .OHMM                                   : UltraDeepR HRLT Borehole Corrected Resistivity 5 <_techsia_lb_>F13 {F}
RT_HRLT            .OHMM                                   : HRLT Computed True Resistivity <_techsia_lb_>F13 {F}
RXOZ               .OHMM                                   : MicroRes   MCFL Standard Resolution Invaded Zone Resistivity <_techsia_lb_>F13 {F}
TNPH               .V/V                                    : Neutron    Thermal Neutron Porosity <_techsia_lb_>F13 {F}
~Ascii
# ...
1398.4224  113.8593   272.6064   201.2147   209.75     14.6871    1.0433     2.2949     1.53       2.3883     1.8264     1.7494     1.7211     1.4437     0.4606     0.3976    
1398.5748  112.4369   274.6898   201.8811   209.7281   14.5641    1.0387     2.2774     1.5263     2.2937     1.7677     1.712      1.6809     1.4798     0.4316     0.4123    
1398.7272  112.4369   277.0209   199.5862   209.7059   14.3961    1.0341     2.2567     1.5167     2.1958     1.7173     1.6794     1.6489     1.4964     0.4018     0.4469    
1398.8796  112.4976   282.5608   193.2825   209.6835   14.275     1.0295     2.2695     1.5069     2.13       1.6993     1.6789     1.6501     1.4957     0.3781     0.4493    
1399.032   112.5952   283.4983   186.9859   209.6609   14.3622    1.0249     2.2813     1.488      2.0609     1.6781     1.6725     1.6479     1.4874     0.4327     0.4268    
1399.1844  113.1859   284.7758   185.0448   209.6382   14.4164    1.0203     2.2915     1.4806     2.066      1.691      1.6998     1.679      1.494      0.4371     0.4156    
1399.3368  113.4532   293.6471   196.1106   209.6152   14.6547    1.0157     2.253      1.4727     2.116      1.7142     1.7265     1.713      1.5051     0.404      0.4154    
1399.4892  114.2606   285.6318   200.1892   209.592    14.7311    1.011      2.2262     1.445      2.0692     1.6804     1.6887     1.683      1.5152     0.2396     0.4329    
1399.6416  114.5479   293.2326   205.04     209.5686   14.7278    1.0064     2.2328     1.3987     1.9839     1.6035     1.5954     1.5924     1.4168     0.2057     0.4422    
1399.794   114.9207   292.8451   201.51     209.545    14.7969    1.0018     2.2762     1.3925     2.0272     1.6093     1.5923     1.5905     1.4034     0.224      0.4382    
1399.9464  114.88     -9999      200.0133   209.5212   14.9341    0.9972     2.3087     1.4157     2.1686     1.6829     1.6579     1.6617     1.4342     0.3772     0.4285    
1400.0988  115.1649   -9999      191.3671   209.4971   14.9316    0.9926     2.3141     1.472      2.426      1.8113     1.7697     1.7719     1.6501     0.5003     0.4167    
1400.2512  115.2307   -9999      187.7159   209.4728   14.9219    0.988      2.3086     1.5049     2.6773     1.9206     1.8612     1.8613     1.7337     0.5092     0.3829    
1400.4036  115.0774   -9999      188.2434   209.4483   14.9241    0.9834     2.3011     1.4988     2.6356     1.881      1.8198     1.8212     1.6429     0.4394     0.374     
1400.556   114.9047   -9999      195.6958   209.4236   14.889     0.9788     2.2908     1.4965     2.5336     1.8469     1.78       1.7811     1.522      0.3956     0.3792    
1400.7084  114.0802   290.5201   197.1815   209.3986   14.8412    0.9742     2.2938     1.4862     2.4931     1.819      1.7587     1.7553     1.506      0.3609     0.4135    
1400.8608  113.8253   298.5813   197.6978   209.3734   14.9969    0.9696     2.3026     1.4939     2.5186     1.8246     1.768      1.7584     1.5142     0.3798     0.4126    
1401.0132  114.3847   299.0393   196.8114   209.3479   15.0452    0.965      2.3078     1.5176     2.6949     1.9078     1.8455     1.8288     1.7592     0.3953     0.4394    
1401.1656  114.3847   303.8195   201.3712   209.3223   15.1953    0.9604     2.2982     1.5666     3.0766     2.0469     1.9513     1.9251     1.8771     0.4216     0.438     
1401.318   116.6295   301.2447   201.5233   209.2963   15.247     0.9558     2.2962     1.5881     3.1763     2.1176     1.9989     1.9685     1.908      0.4381     0.4467    
1401.4704  117.1103   296.2046   193.3024   209.2701   15.2857    0.9512     2.2904     1.6158     3.2553     2.1809     2.033      1.9931     1.8801     0.4014     0.412     
1401.6228  117.0397   289.079    186.0749   209.2437   15.2982    0.9466     2.2718     1.6347     3.3062     2.192      2.0396     1.991      1.8098     0.3404     0.4074    
1401.7752  116.8753   285.768    187.0287   209.217    15.1771    0.942      2.2527     1.6522     3.3135     2.1825     2.0187     1.9706     1.6921     0.267      0.4019    
1401.9276  116.6812   275.7375   191.5005   209.19     14.7044    0.9374     2.2403     1.6219     3.2148     2.0769     1.9208     1.8832     1.6491     0.264      0.3928    
1402.08    116.6812   264.8111   197.4554   209.1628   14.3771    0.9328     2.255      1.5813     2.9442     1.8969     1.753      1.7267     1.6001     0.2802     0.3856    
1402.2324  115.1387   275.1511   195.2748   209.1353   14.6878    0.9281     2.2816     1.574      2.6624     1.8106     1.6925     1.6664     1.5723     0.3486     0.3697    
1402.3848  114.3528   262.4795   194.7672   209.1075   14.8507    0.9235     2.3195     1.6745     3.0201     2.0471     1.9112     1.8895     1.5572     0.4347     0.3609    
1402.5372  111.7858   255.0341   186.3193   209.0794   14.7663    0.9189     2.3469     1.704      3.3749     2.1542     1.9973     1.9803     1.6019     0.6267     0.3576    
1402.6896  106.059    255.0341   180.1454   209.0511   14.7267    0.9143     2.348      1.6301     3.0823     1.9744     1.8242     1.7969     1.5787     0.8194     0.3467    
1402.842   106.059    248.4327   175.6586   209.0224   14.6409    0.9097     2.32       1.6081     2.8295     1.9968     1.8569     1.8438     1.5039     0.8892     0.3518    
1402.9944  103.0389   246.533    173.3767   208.9935   14.6146    0.9051     2.3046     1.5442     2.5416     1.8451     1.7237     1.7072     1.4798     0.5113     0.3937    
1403.1468  101.3424   228.4737   179.0386   208.9643   14.8106    0.9005     2.3363     1.7253     3.4302     2.2954     2.2024     2.0917     1.9784     0.4423     0.4304    
1403.2992  98.0908    222.122    175.2996   208.9348   14.7196    0.8959     2.3839     2.0263     4.7821     3.4791     3.1912     3.0873     2.9512     0.5393     0.4232    
1403.4516  98.0908    214.8002   170.8202   208.905    14.6791    0.8913     2.426      2.0289     5.2806     4.1426     3.7367     3.6549     3.635      0.9333     0.3829    
1403.604   92.9181    211.5922   161.3922   208.8748   14.5503    0.8867     2.4152     1.9894     4.8575     3.6182     3.3626     3.327      3.3363     0.6424     0.3736    
1403.7564  92.0274    210.7492   162.257    208.8444   14.7033    0.8821     2.4318     1.8913     4.2908     3.07       2.8421     2.8076     2.7368     0.4666     0.3817    
1403.9088  93.742     207.8426   163.9555   208.8137   15.0921    0.8775     2.4302     1.9153     4.4975     3.2505     3.0212     2.9632     2.8394     0.5492     0.4014    
1404.0612  96.4261    207.3696   170.4849   208.7826   15.1998    0.8729     2.4123     1.9086     4.5625     3.1583     2.9227     2.8562     2.7097     0.7694     0.423     
1404.2136  116.2904   206.283    174.7208   208.7512   15.1584    0.8683     2.3552     1.6374     3.4572     2.2241     2.0575     1.9997     1.8144     0.8675     0.4115    
1404.366   115.222    211.0296   183.9574   208.7194   15.1623    0.8637     2.2933     1.5944     3.241      2.0446     1.9018     1.8397     1.6249     0.5051     0.4235    
1404.5184  118.7145   221.1399   190.3046   208.6873   15.1615    0.8591     2.2486     1.5366     2.9856     1.8627     1.7279     1.6627     1.5695     0.3127     0.3904    
1404.6708  118.7145   232.3327   196.7993   208.6549   15.2416    0.8545     2.2334     1.532      3.0058     1.8915     1.734      1.6579     1.5291     0.2708     0.4163    
1404.8232  118.2247   232.3694   199.2891   208.6221   15.1626    0.8499     2.2493     1.5589     3.1305     1.9934     1.8009     1.7063     1.5185     0.274      0.4408    
1404.9756  117.9985   251.7494   197.5717   208.5889   15.1059    0.8453     2.2765     1.55       3.0348     1.9312     1.7166     1.6157     1.6569     0.3339     0.4959    
1405.128   118.5945   262.4514   195.903    208.5554   14.9271    0.8407     2.2724     1.461      2.8177     1.8572     1.664      1.5554     1.3977     0.3472     0.5445    
1405.2804  118.5945   284.1405   195.664    208.5216   14.984     0.8361     2.2568     1.4012     2.5676     1.7866     1.6357     1.5309     1.2407     0.3432     0.4979    
