~Version
 VERS              .         3                             : CWLS LOG ASCII STANDARD - VERSION 3.0
 WRAP              .         NO                            : ONE LINE PER DEPTH STEP
 DLM               .         SPACE                         : DELIMITING CHARACTER(SPACE TAB OR COMMA)
~Well Information
#_______________________________________________________________________________
#
#PARAMETER_NAME    .UNIT     VALUE                         : DESCRIPTION
#_______________________________________________________________________________
STRT               .M        1146.048                      : First reference value
STOP               .M        2108.3016                     : Last reference value
STEP               .M        0.1524                        : Step increment
NULL               .         -9999                         : Missing value
WELL               .         02_97-DD-1X                   : Well name
FLD                .         Dong Do                       : 
PDAT               .         Mean Sea Level                : 
WST                .         0                             : 
STATE              .         Offshore Vietnam              : 
ERT                .         32                            : 
RWS                .         0                             : 
COMP               .         Lam Son JOC                   : 
CNTY               .         Adriatic XI                   : 
DRMEA              .         Drill Floor                   : 
UTMZ               .         49                            : 
SRVC               .         SCH                           : 
DATE               .         8/18/2011                     : 
LGMEA              .         Drill Floor                   : 
ORIGINALWELLNAME   .         02_97-DD-1X                   : 
LATI               .         10.11502                      : 
LOC                .         Cuu Long Basin, Offshore Vietn: 
EPDAT              .         0.000000                      : 
APDAT              .         32                            : 
COUNT              .         Vietnam                       : 
LONG               .         108.55532                     : 
GDAT               .                                       : 
PROV               .                                       : 
UWI                .                                       : 
LIC                .                                       : 
STAT               .                                       : 
API                .                                       : 
CTRY               .                                       : 
~Parameter Information Block
#_______________________________________________________________________________
#
#PARAMETER_NAME    .UNIT     VALUE                         : DESCRIPTION
#_______________________________________________________________________________
SET                .         02_97-DD-1X                   : 
TLFamily_DTCO3     .         Compressional Slowness        : 
TLFamily_RT_HRLT   .         Formation Resistivity         : 
TLFamily_ECGR      .         Gamma Ray                     : 
TLFamily_TNPH      .         Neutron Porosity              : 
REAL_CREATION_DATE .         Fri Jun 30 2017-17_18_31      : 
TLFamily_RXOZ      .         Micro Resistivity             : 
TLFamily_HCAL      .         Caliper                       : 
TLFamily_RLA1      .         Shallow Resistivity           : 
TLFamily_RLA2      .         Array Resistivity             : 
TLFamily_DEPTH     .         Measured Depth                : 
TLFamily_DTSH5     .         Shear Slowness                : 
TLFamily_RLA3      .         Medium Resistivity            : 
TLFamily_RLA4      .         Array Resistivity             : 
TLFamily_RLA5      .         Deep Resistivity              : 
TLFamily_RHOZ      .         Bulk Density                  : 
TLFamily_HDEVI     .                                       : 
TLFamily_HAZI      .         Hole Azimuth                  : 
~Curve Information
#_______________________________________________________________________________
#
#LOGNAME           .UNIT     LOG_ID                        : DESCRIPTION
#_______________________________________________________________________________
DEPTH              .M                                      : Depth {F}
DTCO3              .US/F                                   : Sonic      Compressional Slowness from Measurement 3 <_techsia_lb_>F13 {F}
DTSH5              .US/F                                   : ShearSonic Shear Slowness from Measurement 5 <_techsia_lb_>F13 {F}
ECGR               .GAPI                                   : Gamma-Ray <_techsia_lb_>F13 {F}
HAZI               .Deg                                    : Azimuth {F}
HCAL               .IN                                     : Caliper    HRCC Cal. Caliper <_techsia_lb_>F13 {F}
HDEVI              .Deg                                    : Deviation {F}
RHOZ               .G/C3                                   : Density    HRDD Standard Resolution Formation Density <_techsia_lb_>F13 {F}
RLA1               .OHMM                                   : ShalRes    HRLT Borehole Corrected Resistivity 1 <_techsia_lb_>F13 {F}
RLA2               .OHMM                                   : MedRes     HRLT Borehole Corrected Resistivity 2 <_techsia_lb_>F13 {F}
RLA3               .OHMM                                   : DeepRes    HRLT Borehole Corrected Resistivity 3 <_techsia_lb_>F13 {F}
RLA4               .OHMM                                   : XDeepRes   HRLT Borehole Corrected Resistivity 4 <_techsia_lb_>F13 {F}
RLA5               .OHMM                                   : UltraDeepR HRLT Borehole Corrected Resistivity 5 <_techsia_lb_>F13 {F}
RT_HRLT            .OHMM                                   : HRLT Computed True Resistivity <_techsia_lb_>F13 {F}
RXOZ               .OHMM                                   : MicroRes   MCFL Standard Resolution Invaded Zone Resistivity <_techsia_lb_>F13 {F}
TNPH               .V/V                                    : Neutron    Thermal Neutron Porosity <_techsia_lb_>F13 {F}
~Ascii
# ...
1272.2352  104.5229   213.1493   135.0776   222.2813   12.2       1.3956     2.1815     0.4815     0.5767     0.6478     0.7122     0.7647     0.9498     0.2551     0.3479    
1272.3876  106.0037   217.2905   138.0433   222.2875   12.2817    1.3963     2.1831     0.4775     0.5893     0.6599     0.7198     0.7675     0.9573     0.2479     0.3675    
1272.54    106.9088   223.4584   139.5869   222.2936   12.2642    1.3969     2.1826     0.4712     0.5963     0.67       0.7264     0.7657     0.9645     0.2489     0.3695    
1272.6924  106.9088   223.4584   143.3758   222.2997   12.279     1.3975     2.1807     0.4678     0.5875     0.6593     0.7137     0.7491     0.9419     0.2579     0.3364    
1272.8448  107.5555   226.432    142.856    222.3058   12.3541    1.3981     2.1849     0.4704     0.5837     0.6644     0.7158     0.7445     0.9403     0.2633     0.3315    
1272.9972  107.5446   230.7256   143.9818   222.3119   12.5253    1.3988     2.1966     0.4682     0.5762     0.6591     0.7118     0.7361     0.9312     0.2626     0.3213    
1273.1496  107.5446   229.9823   143.6664   222.318    12.6994    1.3994     2.2053     0.4812     0.5802     0.6637     0.7181     0.7396     0.9316     0.2637     0.3341    
1273.302   107.4896   228.5799   144.246    222.3241   12.7255    1.4        2.2041     0.4907     0.5876     0.671      0.7294     0.7446     0.9386     0.2677     0.3227    
1273.4544  107.4103   228.4895   144.8233   222.3302   12.5662    1.4007     2.2041     0.5084     0.6061     0.6903     0.7486     0.7625     0.9592     0.2856     0.3139    
1273.6068  106.779    227.6841   142.0424   222.3363   12.5179    1.4013     2.1957     0.515      0.6181     0.7039     0.7614     0.7739     0.9753     0.2978     0.3001    
1273.7592  106.3957   227.1183   144.4205   222.3423   12.4614    1.4019     2.1893     0.5252     0.6448     0.7346     0.7924     0.8056     1.0224     0.3116     0.3074    
1273.9116  106.1344   226.4325   148.1204   222.3484   12.3601    1.4025     2.1797     0.5327     0.6629     0.7546     0.8142     0.83       1.0559     0.3005     0.326     
1274.064   106.0845   226.1924   150.6664   222.3545   12.3232    1.4032     2.1801     0.526      0.6478     0.7303     0.7829     0.8014     1.01       0.2879     0.3499    
1274.2164  104.8759   226.8832   148.1334   222.3605   12.3092    1.4038     2.2049     0.5243     0.6284     0.7037     0.7515     0.773      0.961      0.2865     0.3743    
1274.3688  104.2017   225.6929   145.6242   222.3666   12.2554    1.4044     2.2344     0.5464     0.6363     0.7122     0.7578     0.783      0.9621     0.3415     0.3634    
1274.5212  103.9652   224.0157   146.3522   222.3726   12.2528    1.405      2.2605     0.5704     0.6705     0.7483     0.7974     0.8315     1.0226     0.3935     0.3485    
1274.6736  103.5551   224.0157   145.081    222.3787   12.1933    1.4057     2.2659     0.5961     0.7112     0.7965     0.8516     0.8936     1.1071     0.4344     0.3355    
1274.826   103.6399   223.7145   143.6727   222.3847   12.2053    1.4063     2.2787     0.7348     0.886      1.0057     1.089      1.1471     1.4464     0.4637     0.3236    
1274.9784  103.7931   224.1042   143.6347   222.3907   12.2316    1.4069     2.278      0.9028     1.0894     1.2459     1.3531     1.4368     1.8161     0.4505     0.3323    
1275.1308  104.3473   226.0088   145.6313   222.3968   12.214     1.4076     2.2651     0.6985     0.7752     0.8534     0.9199     0.9834     1.1791     0.3682     0.357     
1275.2832  104.3473   226.528    146.2147   222.4028   12.2546    1.4082     2.2389     0.6162     0.6654     0.7199     0.7715     0.8217     0.9606     0.3048     0.3863    
1275.4356  105.7542   227.1067   143.653    222.4088   12.2137    1.4088     2.2423     0.7354     0.809      0.8926     0.9674     1.0295     1.236      0.3414     0.3724    
1275.588   107.0327   228.034    146.4623   222.4148   12.232     1.4094     2.2537     0.7367     0.8045     0.8832     0.9566     1.0187     1.2145     0.3632     0.3439    
1275.7404  107.8758   231.0719   143.8442   222.4208   12.2807    1.4101     2.2548     0.5884     0.647      0.6894     0.7368     0.7774     0.9052     0.3872     0.339     
1275.8928  108.5906   231.9303   138.7166   222.4268   12.3605    1.4107     2.2273     0.6636     0.7662     0.8153     0.8722     0.9141     1.087      0.3687     0.3538    
1276.0452  109.1728   234.6507   132.5584   222.4328   12.4478    1.4113     2.1876     0.6802     0.7713     0.8271     0.883      0.924      1.0953     0.3779     0.3554    
1276.1976  109.7795   235.7393   134.1752   222.4388   12.5965    1.412      2.1643     0.617      0.6856     0.7389     0.7856     0.8187     0.9649     0.3039     0.3434    
1276.35    110.0907   236.6889   137.5143   222.4448   12.709     1.4126     2.1694     0.5159     0.5782     0.6234     0.6634     0.6884     0.8134     0.27       0.3227    
1276.5024  110.1911   237.069    134.9808   222.4508   12.7414    1.4132     2.1867     0.4813     0.5401     0.5832     0.6226     0.6404     0.7597     0.2452     0.3512    
1276.6548  110.3355   237.3461   131.094    222.4567   12.8426    1.4138     2.1879     0.4673     0.5329     0.5804     0.623      0.6374     0.7667     0.2363     0.3887    
1276.8072  110.5788   238.4889   129.0157   222.4627   12.8788    1.4145     2.1718     0.4655     0.546      0.5995     0.644      0.6538     0.8        0.2269     0.4193    
1276.9596  110.5727   238.4889   128.3618   222.4687   12.9291    1.4151     2.1545     0.4739     0.5688     0.6241     0.673      0.6812     0.8409     0.2194     0.3734    
1277.112   110.5526   239.547    129.5384   222.4746   12.9456    1.4157     2.1538     0.4537     0.5443     0.5989     0.6464     0.6546     0.8091     0.2121     0.3655    
1277.2644  110.7094   239.4401   129.8464   222.4806   12.9234    1.4163     2.1536     0.4228     0.4974     0.5499     0.5914     0.5979     0.7357     0.2122     0.3567    
1277.4168  110.7091   239.4401   130.3009   222.4865   12.8774    1.417      2.1605     0.4112     0.4803     0.5356     0.5768     0.5839     0.7205     0.2176     0.3588    
1277.5692  110.4962   238.663    130.0656   222.4925   12.8239    1.4176     2.1625     0.4006     0.4694     0.5288     0.5716     0.5809     0.7215     0.2253     0.3468    
1277.7216  110.2538   238.4599   131.1075   222.4984   12.8052    1.4182     2.161      0.3974     0.4808     0.5482     0.5951     0.608      0.7665     0.2239     0.3264    
1277.874   109.755    238.6083   131.5686   222.5043   12.7432    1.4189     2.1497     0.3957     0.4968     0.5722     0.6221     0.6403     0.817      0.2139     0.3036    
1278.0264  109.5958   238.5806   130.3039   222.5103   12.5643    1.4195     2.1368     0.407      0.515      0.5953     0.6484     0.6705     0.8574     0.2197     0.3254    
1278.1788  109.3563   238.3879   128.8153   222.5162   12.4702    1.4201     2.1456     0.4251     0.5422     0.6258     0.6815     0.7053     0.9034     0.2359     0.3752    
1278.3312  109.3692   238.0702   130.3591   222.5221   12.5226    1.4207     2.1607     0.3924     0.4838     0.55       0.5968     0.6204     0.7815     0.2507     0.4308    
1278.4836  109.4384   236.9365   133.8154   222.528    12.5995    1.4214     2.1799     0.3865     0.4654     0.5282     0.5741     0.5986     0.7477     0.2427     0.4133    
1278.636   109.4774   235.3805   138.8233   222.5339   12.5838    1.422      2.1823     0.3806     0.4541     0.5127     0.5584     0.5829     0.7253     0.2382     0.3873    
1278.7884  109.5818   235.5212   139.0233   222.5398   12.5571    1.4226     2.1782     0.3848     0.4529     0.5127     0.5586     0.5847     0.7257     0.2475     0.3675    
1278.9408  109.6236   235.6662   135.9698   222.5457   12.4578    1.4233     2.1631     0.4121     0.4895     0.557      0.6063     0.6377     0.7968     0.2659     0.3602    
1279.0932  109.7614   235.581    129.7788   222.5516   12.2738    1.4239     2.1454     0.4752     0.5686     0.6533     0.7113     0.7487     0.9446     0.2821     0.3691    
