~Version
 VERS              .         3                             : CWLS LOG ASCII STANDARD - VERSION 3.0
 WRAP              .         NO                            : ONE LINE PER DEPTH STEP
 DLM               .         SPACE                         : DELIMITING CHARACTER(SPACE TAB OR COMMA)
~Well Information
#_______________________________________________________________________________
#
#PARAMETER_NAME    .UNIT     VALUE                         : DESCRIPTION
#_______________________________________________________________________________
STRT               .M        1146.048                      : First reference value
STOP               .M        2108.3016                     : Last reference value
STEP               .M        0.1524                        : Step increment
NULL               .         -9999                         : Missing value
WELL               .         02_97-DD-1X                   : Well name
FLD                .         Dong Do                       : 
PDAT               .         Mean Sea Level                : 
WST                .         0                             : 
STATE              .         Offshore Vietnam              : 
ERT                .         32                            : 
RWS                .         0                             : 
COMP               .         Lam Son JOC                   : 
CNTY               .         Adriatic XI                   : 
DRMEA              .         Drill Floor                   : 
UTMZ               .         49                            : 
SRVC               .         SCH                           : 
DATE               .         8/18/2011                     : 
LGMEA              .         Drill Floor                   : 
ORIGINALWELLNAME   .         02_97-DD-1X                   : 
LATI               .         10.11502                      : 
LOC                .         Cuu Long Basin, Offshore Vietn: 
EPDAT              .         0.000000                      : 
APDAT              .         32                            : 
COUNT              .         Vietnam                       : 
LONG               .         108.55532                     : 
GDAT               .                                       : 
PROV               .                                       : 
UWI                .                                       : 
LIC                .                                       : 
STAT               .                                       : 
API                .                                       : 
CTRY               .                                       : 
~Parameter Information Block
#_______________________________________________________________________________
#
#PARAMETER_NAME    .UNIT     VALUE                         : DESCRIPTION
#_______________________________________________________________________________
SET                .         02_97-DD-1X                   : 
TLFamily_DTCO3     .         Compressional Slowness        : 
TLFamily_RT_HRLT   .         Formation Resistivity         : 
TLFamily_ECGR      .         Gamma Ray                     : 
TLFamily_TNPH      .         Neutron Porosity              : 
REAL_CREATION_DATE .         Fri Jun 30 2017-17_18_31      : 
TLFamily_RXOZ      .         Micro Resistivity             : 
TLFamily_HCAL      .         Caliper                       : 
TLFamily_RLA1      .         Shallow Resistivity           : 
TLFamily_RLA2      .         Array Resistivity             : 
TLFamily_DEPTH     .         Measured Depth                : 
TLFamily_DTSH5     .         Shear Slowness                : 
TLFamily_RLA3      .         Medium Resistivity            : 
TLFamily_RLA4      .         Array Resistivity             : 
TLFamily_RLA5      .         Deep Resistivity              : 
TLFamily_RHOZ      .         Bulk Density                  : 
TLFamily_HDEVI     .                                       : 
TLFamily_HAZI      .         Hole Azimuth                  : 
~Curve Information
#_______________________________________________________________________________
#
#LOGNAME           .UNIT     LOG_ID                        : DESCRIPTION
#_______________________________________________________________________________
DEPTH              .M                                      : Depth {F}
DTCO3              .US/F                                   : Sonic      Compressional Slowness from Measurement 3 <_techsia_lb_>F13 {F}
DTSH5              .US/F                                   : ShearSonic Shear Slowness from Measurement 5 <_techsia_lb_>F13 {F}
ECGR               .GAPI                                   : Gamma-Ray <_techsia_lb_>F13 {F}
HAZI               .Deg                                    : Azimuth {F}
HCAL               .IN                                     : Caliper    HRCC Cal. Caliper <_techsia_lb_>F13 {F}
HDEVI              .Deg                                    : Deviation {F}
RHOZ               .G/C3                                   : Density    HRDD Standard Resolution Formation Density <_techsia_lb_>F13 {F}
RLA1               .OHMM                                   : ShalRes    HRLT Borehole Corrected Resistivity 1 <_techsia_lb_>F13 {F}
RLA2               .OHMM                                   : MedRes     HRLT Borehole Corrected Resistivity 2 <_techsia_lb_>F13 {F}
RLA3               .OHMM                                   : DeepRes    HRLT Borehole Corrected Resistivity 3 <_techsia_lb_>F13 {F}
RLA4               .OHMM                                   : XDeepRes   HRLT Borehole Corrected Resistivity 4 <_techsia_lb_>F13 {F}
RLA5               .OHMM                                   : UltraDeepR HRLT Borehole Corrected Resistivity 5 <_techsia_lb_>F13 {F}
RT_HRLT            .OHMM                                   : HRLT Computed True Resistivity <_techsia_lb_>F13 {F}
RXOZ               .OHMM                                   : MicroRes   MCFL Standard Resolution Invaded Zone Resistivity <_techsia_lb_>F13 {F}
TNPH               .V/V                                    : Neutron    Thermal Neutron Porosity <_techsia_lb_>F13 {F}
~Ascii
# ...
1461.516   106.2577   224.2134   115.3954   230.2017   12.4605    0.7416     2.1875     0.4641     0.5228     0.5753     0.6276     0.7003     0.8498     0.2621     0.3379    
1461.6684  106.284    223.9399   111.3734   230.2612   12.4061    0.7426     2.1894     0.4463     0.5065     0.5606     0.6117     0.6785     0.8281     0.2593     0.3253    
1461.8208  105.923    223.2986   107.7004   230.3205   12.3227    0.7437     2.1841     0.4466     0.5089     0.566      0.6192     0.6878     0.8432     0.2552     0.3332    
1461.9732  104.8703   223.13     107.5402   230.3796   12.3203    0.7447     2.1765     0.4414     0.5025     0.5584     0.6105     0.6745     0.8255     0.2548     0.3392    
1462.1256  104.8703   223.2973   108.7677   230.4386   12.3629    0.7458     2.1729     0.4329     0.4924     0.5483     0.6002     0.6609     0.8098     0.2538     0.3348    
1462.278   104.1143   222.904    110.3376   230.4974   12.3784    0.7468     2.1745     0.4356     0.4982     0.5576     0.6108     0.6718     0.8269     0.248      0.3236    
1462.4304  102.8239   222.1866   112.6281   230.5561   12.4335    0.7479     2.1796     0.4343     0.4931     0.5497     0.6009     0.6586     0.8055     0.2537     0.3054    
1462.5828  102.1435   219.1109   113.4107   230.6146   12.458     0.7489     2.1921     0.436      0.4973     0.5542     0.6069     0.6645     0.8136     0.262      0.296     
1462.7352  102.0865   216.8782   113.7063   230.6729   12.666     0.75       2.2115     0.4257     0.4866     0.5397     0.591      0.6471     0.7887     0.2669     0.2938    
1462.8876  101.672    215.3174   109.4545   230.7311   12.8106    0.751      2.24       0.4192     0.4759     0.5229     0.5716     0.6244     0.7543     0.2751     0.2942    
1463.04    101.9701   215.0969   107.5147   230.7891   12.8237    0.7521     2.261      0.438      0.4915     0.5401     0.5906     0.6442     0.7743     0.274      0.3008    
1463.1924  102.0723   215.0969   109.3935   230.8469   12.826     0.7532     2.2583     0.4377     0.4817     0.5259     0.5741     0.6259     0.7436     0.2636     0.3044    
1463.3448  102.1847   216.8273   111.6862   230.9046   12.9363    0.7542     2.2319     0.4046     0.4423     0.4826     0.5256     0.572      0.6749     0.2544     0.329     
1463.4972  103.4872   217.632    111.4413   230.9621   13.1545    0.7553     2.1949     0.4011     0.4382     0.4773     0.5186     0.5632     0.6624     0.2818     0.3385    
1463.6496  105.2105   219.7727   109.0459   231.0195   13.1267    0.7563     2.1633     0.4583     0.4975     0.5408     0.5863     0.6351     0.7471     0.3455     0.3666    
1463.802   106.0205   223.161    108.0626   231.0767   13.1203    0.7574     2.1435     0.4982     0.5354     0.5807     0.628      0.6794     0.7983     0.4159     0.3511    
1463.9544  110.4468   223.161    110.6373   231.1337   13.1126    0.7585     2.1338     0.4767     0.5114     0.5541     0.598      0.6457     0.7566     0.4154     0.3396    
1464.1068  113.9284   233.1681   111.5414   231.1906   13.0784    0.7595     2.1448     0.4643     0.5015     0.5443     0.5867     0.6336     0.7435     0.3786     0.326     
1464.2592  118.9013   228.1748   113.4537   231.2473   12.9391    0.7606     2.1555     0.4642     0.5015     0.5475     0.5917     0.6388     0.7529     0.3184     0.3177    
1464.4116  118.9013   234.4245   111.651    231.3038   12.9507    0.7616     2.1678     0.4503     0.4821     0.5282     0.5717     0.6166     0.7263     0.285      0.3218    
1464.564   106.8205   234.3982   109.6441   231.3602   12.9714    0.7627     2.1647     0.4487     0.4864     0.5312     0.5779     0.6232     0.7356     0.2558     0.3044    
1464.7164  106.5962   237.9396   106.7679   231.4165   12.9694    0.7638     2.1682     0.4522     0.4874     0.5258     0.5722     0.6155     0.721      0.2507     0.3279    
1464.8688  105.9914   234.2717   105.8018   231.4726   12.9694    0.7648     2.1782     0.472      0.5093     0.5499     0.5993     0.6432     0.7557     0.2429     0.3546    
1465.0212  104.8644   232.0786   105.5314   231.5285   12.9854    0.7659     2.1934     0.4685     0.5056     0.5456     0.5919     0.6346     0.7442     0.2428     0.3964    
1465.1736  104.4001   226.7683   106.3832   231.5843   13.0222    0.767      2.2063     0.4717     0.5111     0.5528     0.5987     0.6374     0.7503     0.2448     0.3725    
1465.326   103.9875   223.6328   110.6346   231.6399   13.0136    0.768      2.2144     0.4836     0.5272     0.5707     0.6202     0.657      0.7771     0.2613     0.3552    
1465.4784  110.2141   223.4905   114.2381   231.6954   13.0532    0.7691     2.2176     0.49       0.5317     0.5768     0.6266     0.6601     0.7817     0.2693     0.3478    
1465.6308  102.7613   221.3397   116.1537   231.7507   13.0929    0.7702     2.2179     0.486      0.5315     0.5791     0.631      0.6606     0.7875     0.2851     0.3249    
1465.7832  102.7929   220.6568   115.3362   231.8058   13.0926    0.7712     2.218      0.486      0.537      0.5873     0.6406     0.6689     0.8021     0.284      0.3135    
1465.9356  102.3232   220.0916   112.5409   231.8608   12.9689    0.7723     2.2203     0.4637     0.5154     0.566      0.6174     0.6433     0.7738     0.2782     0.3099    
1466.088   101.894    218.2475   111.2788   231.9157   12.9078    0.7734     2.2157     0.456      0.5064     0.5562     0.5991     0.6236     0.7457     0.2716     0.3328    
1466.2404  101.5198   218.5349   108.2664   231.9704   12.6865    0.7745     2.2028     0.4646     0.5173     0.5694     0.6037     0.6293     0.7498     0.2861     0.3426    
1466.3928  99.8197    217.4578   108.5078   232.0249   12.675     0.7755     2.1891     0.4616     0.5163     0.568      0.5958     0.6228     0.7395     0.3174     0.321     
1466.5452  99.1285    213.3591   109.4335   232.0793   12.6071    0.7766     2.1873     0.4493     0.5101     0.5551     0.5799     0.6055     0.7169     0.3211     0.3105    
1466.6976  99.1285    207.7862   113.5418   232.1336   12.5999    0.7777     2.1949     0.4486     0.5161     0.5511     0.5751     0.5984     0.704      0.3135     0.2979    
1466.85    97.5902    203.6622   115.7532   232.1877   12.5995    0.7788     2.205      0.4683     0.5244     0.5571     0.5832     0.6062     0.7027     0.294      0.2828    
1467.0024  97.7794    196.962    110.8884   232.2397   12.5536    0.7798     2.2111     0.4947     0.5307     0.566      0.5935     0.6153     0.702      0.2845     0.2711    
1467.1548  95.8664    187.4328   106.2261   232.269    12.4939    0.7806     2.2344     0.482      0.5005     0.5376     0.5673     0.5875     0.6663     0.2839     0.2576    
1467.3072  80.693     177.2973   101.3627   232.2914   12.5937    0.7813     2.2904     0.4606     0.4753     0.5143     0.5456     0.5637     0.6411     0.3142     0.247     
1467.4596  82.3393    168.6376   103.0549   232.3137   12.5178    0.782      2.3837     0.5787     0.5995     0.6464     0.6922     0.7128     0.8171     0.4782     0.2293    
1467.612   98.4473    164.5759   99.8863    232.3361   12.286     0.7827     2.4696     1.0491     1.05       1.1538     1.2539     1.2955     1.5638     0.9251     0.2033    
1467.7644  87.0174    162.1657   99.5103    232.3584   12.2715    0.7834     2.5039     1.3075     1.2282     1.3295     1.4521     1.513      1.6936     1.9535     0.1883    
1467.9168  90.341     161.7478   96.9139    232.3806   12.2777    0.7842     2.4741     1.0915     1.0433     1.1272     1.2334     1.2919     1.5073     1.4858     0.1965    
1468.0692  102.5758   152.2695   98.0047    232.4028   12.3105    0.7849     2.4059     0.8881     0.8675     0.9334     1.021      1.072      1.2499     1.0606     0.2183    
1468.2216  101.001    154.2265   100.203    232.425    12.4637    0.7856     2.3273     0.781      0.7647     0.819      0.8935     0.9396     1.0706     0.7455     0.2432    
1468.374   85.3215    158.0211   104.3542   232.4471   12.5898    0.7863     2.2568     0.7173     0.7053     0.7485     0.8095     0.8464     0.9327     0.5832     0.2679    
