~Version
 VERS              .         3                             : CWLS LOG ASCII STANDARD - VERSION 3.0
 WRAP              .         NO                            : ONE LINE PER DEPTH STEP
 DLM               .         SPACE                         : DELIMITING CHARACTER(SPACE TAB OR COMMA)
~Well Information
#_______________________________________________________________________________
#
#PARAMETER_NAME    .UNIT     VALUE                         : DESCRIPTION
#_______________________________________________________________________________
STRT               .M        1146.048                      : First reference value
STOP               .M        2108.3016                     : Last reference value
STEP               .M        0.1524                        : Step increment
NULL               .         -9999                         : Missing value
WELL               .         02_97-DD-1X                   : Well name
FLD                .         Dong Do                       : 
PDAT               .         Mean Sea Level                : 
WST                .         0                             : 
STATE              .         Offshore Vietnam              : 
ERT                .         32                            : 
RWS                .         0                             : 
COMP               .         Lam Son JOC                   : 
CNTY               .         Adriatic XI                   : 
DRMEA              .         Drill Floor                   : 
UTMZ               .         49                            : 
SRVC               .         SCH                           : 
DATE               .         8/18/2011                     : 
LGMEA              .         Drill Floor                   : 
ORIGINALWELLNAME   .         02_97-DD-1X                   : 
LATI               .         10.11502                      : 
LOC                .         Cuu Long Basin, Offshore Vietn: 
EPDAT              .         0.000000                      : 
APDAT              .         32                            : 
COUNT              .         Vietnam                       : 
LONG               .         108.55532                     : 
GDAT               .                                       : 
PROV               .                                       : 
UWI                .                                       : 
LIC                .                                       : 
STAT               .                                       : 
API                .                                       : 
CTRY               .                                       : 
~Parameter Information Block
#_______________________________________________________________________________
#
#PARAMETER_NAME    .UNIT     VALUE                         : DESCRIPTION
#_______________________________________________________________________________
SET                .         02_97-DD-1X                   : 
TLFamily_DTCO3     .         Compressional Slowness        : 
TLFamily_RT_HRLT   .         Formation Resistivity         : 
TLFamily_ECGR      .         Gamma Ray                     : 
TLFamily_TNPH      .         Neutron Porosity              : 
REAL_CREATION_DATE .         Fri Jun 30 2017-17_18_31      : 
TLFamily_RXOZ      .         Micro Resistivity             : 
TLFamily_HCAL      .         Caliper                       : 
TLFamily_RLA1      .         Shallow Resistivity           : 
TLFamily_RLA2      .         Array Resistivity             : 
TLFamily_DEPTH     .         Measured Depth                : 
TLFamily_DTSH5     .         Shear Slowness                : 
TLFamily_RLA3      .         Medium Resistivity            : 
TLFamily_RLA4      .         Array Resistivity             : 
TLFamily_RLA5      .         Deep Resistivity              : 
TLFamily_RHOZ      .         Bulk Density                  : 
TLFamily_HDEVI     .                                       : 
TLFamily_HAZI      .         Hole Azimuth                  : 
~Curve Information
#_______________________________________________________________________________
#
#LOGNAME           .UNIT     LOG_ID                        : DESCRIPTION
#_______________________________________________________________________________
DEPTH              .M                                      : Depth {F}
DTCO3              .US/F                                   : Sonic      Compressional Slowness from Measurement 3 <_techsia_lb_>F13 {F}
DTSH5              .US/F                                   : ShearSonic Shear Slowness from Measurement 5 <_techsia_lb_>F13 {F}
ECGR               .GAPI                                   : Gamma-Ray <_techsia_lb_>F13 {F}
HAZI               .Deg                                    : Azimuth {F}
HCAL               .IN                                     : Caliper    HRCC Cal. Caliper <_techsia_lb_>F13 {F}
HDEVI              .Deg                                    : Deviation {F}
RHOZ               .G/C3                                   : Density    HRDD Standard Resolution Formation Density <_techsia_lb_>F13 {F}
RLA1               .OHMM                                   : ShalRes    HRLT Borehole Corrected Resistivity 1 <_techsia_lb_>F13 {F}
RLA2               .OHMM                                   : MedRes     HRLT Borehole Corrected Resistivity 2 <_techsia_lb_>F13 {F}
RLA3               .OHMM                                   : DeepRes    HRLT Borehole Corrected Resistivity 3 <_techsia_lb_>F13 {F}
RLA4               .OHMM                                   : XDeepRes   HRLT Borehole Corrected Resistivity 4 <_techsia_lb_>F13 {F}
RLA5               .OHMM                                   : UltraDeepR HRLT Borehole Corrected Resistivity 5 <_techsia_lb_>F13 {F}
RT_HRLT            .OHMM                                   : HRLT Computed True Resistivity <_techsia_lb_>F13 {F}
RXOZ               .OHMM                                   : MicroRes   MCFL Standard Resolution Invaded Zone Resistivity <_techsia_lb_>F13 {F}
TNPH               .V/V                                    : Neutron    Thermal Neutron Porosity <_techsia_lb_>F13 {F}
~Ascii
# ...
1973.2752  96.2144    186.5159   105.6059   68.1817    12.3477    18.5176    2.2047     1.1058     1.2235     1.2481     1.2798     1.2562     1.2986     0.4256     0.269     
1973.4276  93.1956    186.2692   99.2305    68.1744    12.3731    18.5393    2.1931     1.0369     1.2296     1.2558     1.2821     1.255      1.2865     0.3713     0.2896    
1973.58    94.3951    186.5587   95.4684    68.1671    12.3927    18.5609    2.1903     1.0237     1.2318     1.2536     1.2675     1.2444     1.2811     0.3432     0.3192    
1973.7324  93.6459    187.1464   98.7564    68.1599    12.4117    18.5826    2.204      0.9971     1.1964     1.2326     1.2354     1.1933     1.2469     0.3231     0.3049    
1973.8848  93.922     187.5125   108.9089   68.1526    12.5459    18.6042    2.2234     0.855      0.9938     1.0345     1.0373     1.0019     1.0894     0.3287     0.3137    
1974.0372  94.585     188.5704   120.0133   68.1454    12.5227    18.6259    2.2731     0.7783     0.9018     0.9655     0.9831     0.9491     1.0637     0.3945     0.3287    
1974.1896  95.9599    193.1041   128.7304   68.1382    12.5891    18.6475    2.3281     0.974      1.1298     1.2195     1.2684     1.2248     1.3588     0.6631     0.346     
1974.342   96.6192    192.2722   130.9304   68.131     12.6297    18.6692    2.3558     1.5451     1.7254     1.8957     2.008      1.9636     2.2705     1.5372     0.3385    
1974.4944  97.1395    190.2647   129.1053   68.1239    12.5226    18.6908    2.3455     1.7687     1.9494     2.0832     2.254      2.2199     2.4949     1.1918     0.3186    
1974.6468  94.3354    190.8714   121.1062   68.1167    12.4267    18.7125    2.3232     1.5796     1.5288     1.645      1.7365     1.7297     1.7979     1.0683     0.32      
1974.7992  96.6174    191.3185   116.5667   68.1096    12.3821    18.7341    2.3284     1.5158     1.5043     1.5949     1.7068     1.7178     1.8318     0.9043     0.332     
1974.9516  95.4881    188.9906   114.9687   68.1025    12.4151    18.7558    2.3418     1.6584     1.5994     1.6631     1.7685     1.7933     1.8184     1.5155     0.3208    
1975.104   94.4573    187.4545   117.9557   68.0954    12.4325    18.7774    2.3484     1.8696     2.0627     2.1301     2.2479     2.3203     2.501      1.2192     0.2871    
1975.2564  94.6377    187.2841   117.229    68.0883    12.4637    18.7991    2.3374     1.7401     1.8617     1.8339     1.9217     1.9675     2.029      1.3009     0.2583    
1975.4088  93.3593    187.2841   116.8749   68.0812    12.4746    18.8207    2.313      1.4987     1.6454     1.6327     1.6903     1.787      1.9032     0.818      0.2433    
1975.5612  93.3593    185.9451   113.5445   68.0742    12.6009    18.8424    2.2832     1.3145     1.4144     1.4123     1.4616     1.5331     1.6239     0.6651     0.2491    
1975.7136  92.7041    186.0832   114.194    68.0671    12.6071    18.864     2.2651     1.2318     1.2709     1.2752     1.306      1.3653     1.3886     0.5027     0.2719    
1975.866   92.383     185.5303   115.0171   68.0601    12.6121    18.8857    2.2715     1.2016     1.2374     1.2548     1.2769     1.3422     1.3744     0.5179     0.2944    
1976.0184  93.9119    185.5303   118.5275   68.0531    12.5618    18.9074    2.305      1.1817     1.3605     1.4199     1.4588     1.5314     1.7063     0.6139     0.2943    
1976.1708  91.5017    181.8163   117.6881   68.0461    12.5316    18.929     2.3465     1.3941     1.9119     2.1606     2.3054     2.4519     3.0432     0.902      0.288     
1976.3232  91.6035    179.6041   113.8624   68.0391    12.5409    18.9507    2.3434     1.362      1.7155     1.8985     1.97       2.1028     2.5121     1.0885     0.2696    
1976.4756  93.2578    177.4174   108.8889   68.0321    12.5794    18.9723    2.3093     1.274      1.5076     1.6083     1.678      1.7493     1.9898     0.9999     0.2469    
1976.628   93.2578    180.7665   103.9975   68.0252    12.7049    18.994     2.2687     1.3164     1.53       1.6178     1.6956     1.7556     1.9561     0.7101     0.2314    
1976.7804  92.0586    175.3883   109.2112   68.0183    12.8237    19.0156    2.2761     1.3021     1.4391     1.4963     1.569      1.6103     1.7668     0.6434     0.2228    
1976.9328  88.5941    174.84     114.1803   68.0114    12.8352    19.0373    2.3017     1.3394     1.4061     1.4271     1.5009     1.5398     1.6268     0.6912     0.2264    
1977.0852  88.2741    170.6539   120.109    68.0044    12.8428    19.0589    2.3238     1.4521     1.4963     1.5015     1.5797     1.597      1.634      0.8325     0.2276    
1977.2376  86.6383    169.6936   114.0233   67.9976    12.7959    19.0806    2.3444     1.5057     1.6738     1.7024     1.8075     1.8438     2.0273     0.8795     0.223     
1977.39    86.3785    170.0166   105.7274   67.9907    12.7128    19.1023    2.3725     1.3833     1.648      1.7577     1.8849     1.9266     2.2641     1.0053     0.1883    
1977.5424  85.6068    170.6979   100.2631   67.9838    12.3289    19.1239    2.389      1.4964     1.9916     2.3366     2.5532     2.6154     3.3897     1.462      0.1636    
1977.6948  86.0979    178.0719   100.7624   67.977     12.3165    19.1456    2.3487     1.2861     1.5281     1.7603     1.8847     1.9839     2.4962     1.3172     0.1614    
1977.8472  87.1928    172.4757   103.1376   67.9702    12.3884    19.1672    2.2984     1.0273     1.2159     1.3342     1.4379     1.4645     1.7788     0.8077     0.1918    
1977.9996  88.4297    172.3588   107.283    67.9633    12.6466    19.1889    2.2633     0.9906     1.1722     1.2659     1.3568     1.3733     1.627      0.6008     0.2221    
1978.152   89.0577    172.7503   107.1573   67.9566    12.9962    19.2105    2.2587     1.0244     1.1871     1.2574     1.3419     1.3506     1.5003     0.6337     0.247     
1978.3044  91.0556    174.133    109.2213   67.9498    13.2279    19.2322    2.2584     1.114      1.2742     1.3048     1.3789     1.3757     1.4636     0.6993     0.2379    
1978.4568  92.9088    174.0002   107.6424   67.943     13.3203    19.2539    2.2686     1.2354     1.3979     1.3829     1.4448     1.4437     1.4915     0.7347     0.2306    
1978.6092  92.6768    175.6284   111.458    67.9362    13.3507    19.2755    2.2915     1.297      1.4811     1.4433     1.4812     1.4652     1.4635     0.7499     0.2348    
1978.7616  93.9319    180.4043   112.8788   67.9295    13.3616    19.2972    2.3019     1.2936     1.4467     1.4429     1.4441     1.4129     1.4086     0.7593     0.2582    
1978.914   94.4239    183.0787   108.2195   67.9228    13.1823    19.3188    2.2895     1.4769     1.6609     1.7012     1.7068     1.6881     1.7224     0.7621     0.2974    
1979.0664  93.94      183.3878   108.235    67.9161    12.4541    19.3405    2.2773     1.4713     1.5897     1.6211     1.6623     1.6325     1.6669     0.7137     0.3341    
1979.2188  93.6366    183.5156   109.6296   67.9094    12.4637    19.3621    2.2779     1.5158     1.5507     1.578      1.6128     1.5835     1.5936     0.7808     0.3353    
1979.3712  93.9747    183.5156   116.2936   67.9027    12.5173    19.3838    2.2722     1.5789     1.5514     1.5834     1.6443     1.6102     1.6047     0.8437     0.323     
1979.5236  94.3263    184.5895   113.6704   67.896     12.5187    19.4055    2.2614     1.6283     1.5625     1.5863     1.6525     1.619      1.608      0.8852     0.3107    
1979.676   94.3263    184.9496   110.3461   67.8894    12.333     19.4271    2.2619     1.703      1.6164     1.6264     1.6752     1.6499     1.6526     0.7825     0.3014    
1979.8284  94.51      187.4261   113.398    67.8827    12.3455    19.4488    2.2825     1.6583     1.497      1.4868     1.5174     1.5345     1.5408     0.8163     0.3075    
1979.9808  94.6495    191.7904   120.3476   67.8761    12.2388    19.4704    2.3218     1.6096     1.4897     1.4987     1.5288     1.5454     1.5305     0.9647     0.3451    
1980.1332  95.2391    194.1351   138.101    67.8695    12.0587    19.4921    2.3514     1.8223     1.752      1.7542     1.7841     1.8063     1.7772     1.4416     0.3895    
