~Version
 VERS              .         3                             : CWLS LOG ASCII STANDARD - VERSION 3.0
 WRAP              .         NO                            : ONE LINE PER DEPTH STEP
 DLM               .         SPACE                         : DELIMITING CHARACTER(SPACE TAB OR COMMA)
~Well Information
#_______________________________________________________________________________
#
#PARAMETER_NAME    .UNIT     VALUE                         : DESCRIPTION
#_______________________________________________________________________________
STRT               .M        1146.048                      : First reference value
STOP               .M        2108.3016                     : Last reference value
STEP               .M        0.1524                        : Step increment
NULL               .         -9999                         : Missing value
WELL               .         02_97-DD-1X                   : Well name
FLD                .         Dong Do                       : 
PDAT               .         Mean Sea Level                : 
WST                .         0                             : 
STATE              .         Offshore Vietnam              : 
ERT                .         32                            : 
RWS                .         0                             : 
COMP               .         Lam Son JOC                   : 
CNTY               .         Adriatic XI                   : 
DRMEA              .         Drill Floor                   : 
UTMZ               .         49                            : 
SRVC               .         SCH                           : 
DATE               .         8/18/2011                     : 
LGMEA              .         Drill Floor                   : 
ORIGINALWELLNAME   .         02_97-DD-1X                   : 
LATI               .         10.11502                      : 
LOC                .         Cuu Long Basin, Offshore Vietn: 
EPDAT              .         0.000000                      : 
APDAT              .         32                            : 
COUNT              .         Vietnam                       : 
LONG               .         108.55532                     : 
GDAT               .                                       : 
PROV               .                                       : 
UWI                .                                       : 
LIC                .                                       : 
STAT               .                                       : 
API                .                                       : 
CTRY               .                                       : 
~Parameter Information Block
#_______________________________________________________________________________
#
#PARAMETER_NAME    .UNIT     VALUE                         : DESCRIPTION
#_______________________________________________________________________________
SET                .         02_97-DD-1X                   : 
TLFamily_DTCO3     .         Compressional Slowness        : 
TLFamily_RT_HRLT   .         Formation Resistivity         : 
TLFamily_ECGR      .         Gamma Ray                     : 
TLFamily_TNPH      .         Neutron Porosity              : 
REAL_CREATION_DATE .         Fri Jun 30 2017-17_18_31      : 
TLFamily_RXOZ      .         Micro Resistivity             : 
TLFamily_HCAL      .         Caliper                       : 
TLFamily_RLA1      .         Shallow Resistivity           : 
TLFamily_RLA2      .         Array Resistivity             : 
TLFamily_DEPTH     .         Measured Depth                : 
TLFamily_DTSH5     .         Shear Slowness                : 
TLFamily_RLA3      .         Medium Resistivity            : 
TLFamily_RLA4      .         Array Resistivity             : 
TLFamily_RLA5      .         Deep Resistivity              : 
TLFamily_RHOZ      .         Bulk Density                  : 
TLFamily_HDEVI     .                                       : 
TLFamily_HAZI      .         Hole Azimuth                  : 
~Curve Information
#_______________________________________________________________________________
#
#LOGNAME           .UNIT     LOG_ID                        : DESCRIPTION
#_______________________________________________________________________________
DEPTH              .M                                      : Depth {F}
DTCO3              .US/F                                   : Sonic      Compressional Slowness from Measurement 3 <_techsia_lb_>F13 {F}
DTSH5              .US/F                                   : ShearSonic Shear Slowness from Measurement 5 <_techsia_lb_>F13 {F}
ECGR               .GAPI                                   : Gamma-Ray <_techsia_lb_>F13 {F}
HAZI               .Deg                                    : Azimuth {F}
HCAL               .IN                                     : Caliper    HRCC Cal. Caliper <_techsia_lb_>F13 {F}
HDEVI              .Deg                                    : Deviation {F}
RHOZ               .G/C3                                   : Density    HRDD Standard Resolution Formation Density <_techsia_lb_>F13 {F}
RLA1               .OHMM                                   : ShalRes    HRLT Borehole Corrected Resistivity 1 <_techsia_lb_>F13 {F}
RLA2               .OHMM                                   : MedRes     HRLT Borehole Corrected Resistivity 2 <_techsia_lb_>F13 {F}
RLA3               .OHMM                                   : DeepRes    HRLT Borehole Corrected Resistivity 3 <_techsia_lb_>F13 {F}
RLA4               .OHMM                                   : XDeepRes   HRLT Borehole Corrected Resistivity 4 <_techsia_lb_>F13 {F}
RLA5               .OHMM                                   : UltraDeepR HRLT Borehole Corrected Resistivity 5 <_techsia_lb_>F13 {F}
RT_HRLT            .OHMM                                   : HRLT Computed True Resistivity <_techsia_lb_>F13 {F}
RXOZ               .OHMM                                   : MicroRes   MCFL Standard Resolution Invaded Zone Resistivity <_techsia_lb_>F13 {F}
TNPH               .V/V                                    : Neutron    Thermal Neutron Porosity <_techsia_lb_>F13 {F}
~Ascii
# ...
1335.3288  114.0098   -9999      184.5226   218.3385   14.4519    1.6171     2.2606     0.9248     1.9866     1.9458     2.0215     1.9781     2.0239     0.4013     0.4336    
1335.4812  114.0098   -9999      178.7449   218.3383   13.8802    1.6176     2.2417     1.0456     1.8128     1.8085     1.9166     1.942      2.1204     0.3954     0.3979    
1335.6336  116.0579   -9999      177.8158   218.3381   12.9248    1.6181     2.205      1.063      1.4123     1.553      1.6943     1.7614     2.1475     0.3013     0.3905    
1335.786   115.505    -9999      189.5131   218.3379   14.1671    1.6186     2.1892     1.0717     1.2182     1.3295     1.4472     1.4983     1.8188     0.2489     0.4177    
1335.9384  117.7512   -9999      183.7483   218.3377   13.2409    1.619      2.1973     1.0484     1.1682     1.2742     1.3876     1.4385     1.7488     0.2658     0.437     
1336.0908  119.1177   -9999      183.2999   218.3375   13.2151    1.6195     2.2206     1.0642     1.1848     1.2321     1.3206     1.3753     1.5588     0.2972     0.4503    
1336.2432  120.1665   -9999      181.3112   218.3372   13.4981    1.62       2.2179     1.0202     1.1811     1.2366     1.3261     1.3881     1.6151     0.3472     0.4699    
1336.3956  121.0455   -9999      185.4203   218.337    13.7903    1.6204     2.2137     1.003      1.2148     1.303      1.3845     1.4505     1.6998     0.2954     0.4753    
1336.548   122.4084   -9999      182.9727   218.3368   13.5307    1.6209     2.2129     1.0435     1.2371     1.3266     1.3844     1.4503     1.6625     0.3097     0.4678    
1336.7004  122.1955   -9999      183.0667   218.3366   13.4146    1.6214     2.2111     1.1113     1.2352     1.3195     1.3683     1.4249     1.6089     0.293      0.4327    
1336.8528  121.7145   -9999      178.2075   218.3364   12.6652    1.6218     2.2157     1.1301     1.245      1.3436     1.3993     1.4567     1.6867     0.3325     0.4347    
1337.0052  121.1646   -9999      184.602    218.3362   13.8344    1.6223     2.2195     1.0933     1.2354     1.3544     1.424      1.481      1.7563     0.4048     0.3879    
1337.1576  121.1646   -9999      179.814    218.336    12.8367    1.6228     2.2497     1.0286     1.2683     1.4222     1.5088     1.5489     1.8918     0.4367     0.3921    
1337.31    120.0545   302.6253   179.64     218.3358   12.4595    1.6232     2.2777     1.0983     1.2877     1.3829     1.4683     1.4961     1.7267     0.4218     0.4072    
1337.4624  119.66     292.5172   190.6247   218.3356   13.3776    1.6237     2.2934     1.0811     1.3081     1.4281     1.5312     1.5565     1.8704     0.4143     0.4246    
1337.6148  118.0983   293.9187   186.5491   218.3354   13.3222    1.6242     2.2922     1.0417     1.3186     1.4757     1.6003     1.6322     2.0335     0.4453     0.4187    
1337.7672  116.5892   286.8435   189.6918   218.3352   13.8705    1.6247     2.2841     1.0884     1.3158     1.4787     1.6117     1.6405     2.0371     0.4376     0.408     
1337.9196  113.9269   284.5144   187.7228   218.335    14.1962    1.6251     2.2848     1.1009     1.351      1.5347     1.6837     1.7241     2.1674     0.4215     0.366     
1338.072   112.9838   284.5037   187.1504   218.3348   13.3337    1.6256     2.2959     1.2111     1.4346     1.5914     1.7237     1.7667     2.1555     0.4164     0.3273    
1338.2244  112.3298   277.2067   183.3903   218.3346   12.8795    1.6261     2.3074     1.2803     1.4924     1.6357     1.7796     1.832      2.2391     0.4536     0.2966    
1338.3768  113.0803   282.2851   180.7962   218.3344   13.301     1.6265     2.3147     1.1493     1.4966     1.7113     1.9079     1.9761     2.5532     0.5052     0.3096    
1338.5292  113.5378   282.2698   183.6177   218.3342   14.1372    1.627      2.3088     1.0322     1.4358     1.6709     1.894      1.9848     2.588      0.5341     0.355     
1338.6816  113.7734   286.6482   184.4261   218.334    13.9538    1.6275     2.272      1.1434     1.5165     1.6945     1.8704     1.9386     2.3052     0.513      0.3873    
1338.834   115.401    291.7436   186.9719   218.3337   14.0177    1.6279     2.1878     1.2815     1.6499     1.7348     1.8392     1.8783     1.801      0.3924     0.3963    
1338.9864  115.401    288.3677   187.9518   218.3335   14.0365    1.6284     2.077      1.0932     1.321      1.3307     1.3846     1.4032     1.3661     0.1708     0.4069    
1339.1388  117.0333   285.8228   189.8506   218.3333   14.837     1.6289     2.0577     1.0616     1.3099     1.32       1.3702     1.3699     1.3469     0.1296     0.4271    
1339.2912  119.5761   294.0064   188.1493   218.3331   13.8741    1.6293     2.0972     1.1006     1.456      1.4722     1.5257     1.5322     1.5046     0.1411     0.4569    
1339.4436  120.1572   297.2711   191.3144   218.3329   13.5552    1.6298     2.1527     1.1695     1.6135     1.5759     1.6014     1.6173     1.6045     0.238      0.4739    
1339.596   121.0874   304.7066   198.6135   218.3327   13.1217    1.6303     2.1586     1.1684     1.5023     1.5105     1.5378     1.5334     1.5411     0.2905     0.4656    
1339.7484  121.3413   295.6238   212.3546   218.3325   13.6962    1.6308     2.1591     1.1705     1.4294     1.453      1.4806     1.4561     1.4817     0.2736     0.4937    
1339.9008  121.3413   295.9045   216.6763   218.3323   13.0638    1.6312     2.177      1.2058     1.4092     1.4794     1.5137     1.4966     1.5779     0.274      0.4992    
1340.0532  119.9967   295.5975   221.7674   218.3321   13.4973    1.6317     2.1615     1.253      1.4151     1.4462     1.4796     1.4635     1.5207     0.3351     0.4991    
1340.2056  119.9385   305.2249   216.0731   218.3319   13.2425    1.6322     2.1211     1.2746     1.3555     1.4104     1.4516     1.4413     1.5224     0.333      0.4969    
1340.358   117.136    302.7441   208.6122   218.3317   13.2376    1.6326     2.0977     1.1502     1.1401     1.1939     1.2496     1.2584     1.2982     0.2253     0.4832    
1340.5104  117.136    303.2301   204.5106   218.3315   13.3762    1.6331     2.1128     0.9397     1.0381     1.0451     1.1364     1.1534     1.2749     0.1986     0.4789    
1340.6628  116.0088   303.3393   204.7518   218.3313   13.8414    1.6336     2.1207     1.0323     1.1856     1.2546     1.3774     1.3981     1.5856     0.1673     0.4812    
1340.8152  114.0918   304.6687   198.5496   218.3311   14.0849    1.634      2.1221     0.9686     1.344      1.3745     1.4997     1.5458     1.5155     0.1801     0.4792    
1340.9676  111.3461   290.4839   199.6331   218.3309   15.825     1.6345     2.0483     0.9271     1.5217     1.4065     1.486      1.4997     1.4755     0.161      0.4553    
1341.12    111.2634   289.3813   202.4749   218.3307   17.692     1.635      1.9563     0.8334     1.6746     1.5822     1.6325     1.5677     1.5627     0.1094     0.4231    
1341.2724  111.2634   290.708    196.7851   218.3305   17.8778    1.6354     1.8996     0.806      2.067      1.7397     1.6983     1.606      1.4814     0.0856     0.4729    
1341.4248  110.9775   291.5416   177.1294   218.3303   14.5491    1.6359     1.9427     0.8116     2.1841     2.2329     1.8677     1.6886     1.6186     0.091      0.5202    
1341.5772  111.3712   286.9665   176.0675   218.3301   15.4778    1.6364     1.9955     0.8133     2.1775     2.5219     2.0257     1.82       2.0145     0.1118     0.505     
1341.7296  115.2457   286.2152   175.3117   218.3299   15.2339    1.6369     2.0137     0.8519     1.9643     1.992      1.9772     1.8666     1.9397     0.1192     0.5022    
1341.882   115.2457   284.4122   178.0589   218.3297   15.8469    1.6373     2.0001     0.8646     1.7456     1.8604     1.9245     1.8435     1.8716     0.1081     0.5098    
1342.0344  117.6293   293.576    171.0405   218.3295   14.1349    1.6378     2.0136     0.8816     1.84       1.7944     1.8286     1.7711     1.7966     0.1283     0.5339    
1342.1868  118.4617   285.8126   173.7874   218.3293   14.15      1.6383     1.9322     0.9025     2.0077     1.7384     1.7162     1.6618     1.6877     0.1238     0.5429    
