~Version
 VERS              .         3                             : CWLS LOG ASCII STANDARD - VERSION 3.0
 WRAP              .         NO                            : ONE LINE PER DEPTH STEP
 DLM               .         SPACE                         : DELIMITING CHARACTER(SPACE TAB OR COMMA)
~Well Information
#_______________________________________________________________________________
#
#PARAMETER_NAME    .UNIT     VALUE                         : DESCRIPTION
#_______________________________________________________________________________
STRT               .M        1146.048                      : First reference value
STOP               .M        2108.3016                     : Last reference value
STEP               .M        0.1524                        : Step increment
NULL               .         -9999                         : Missing value
WELL               .         02_97-DD-1X                   : Well name
FLD                .         Dong Do                       : 
PDAT               .         Mean Sea Level                : 
WST                .         0                             : 
STATE              .         Offshore Vietnam              : 
ERT                .         32                            : 
RWS                .         0                             : 
COMP               .         Lam Son JOC                   : 
CNTY               .         Adriatic XI                   : 
DRMEA              .         Drill Floor                   : 
UTMZ               .         49                            : 
SRVC               .         SCH                           : 
DATE               .         8/18/2011                     : 
LGMEA              .         Drill Floor                   : 
ORIGINALWELLNAME   .         02_97-DD-1X                   : 
LATI               .         10.11502                      : 
LOC                .         Cuu Long Basin, Offshore Vietn: 
EPDAT              .         0.000000                      : 
APDAT              .         32                            : 
COUNT              .         Vietnam                       : 
LONG               .         108.55532                     : 
GDAT               .                                       : 
PROV               .                                       : 
UWI                .                                       : 
LIC                .                                       : 
STAT               .                                       : 
API                .                                       : 
CTRY               .                                       : 
~Parameter Information Block
#_______________________________________________________________________________
#
#PARAMETER_NAME    .UNIT     VALUE                         : DESCRIPTION
#_______________________________________________________________________________
SET                .         02_97-DD-1X                   : 
TLFamily_DTCO3     .         Compressional Slowness        : 
TLFamily_RT_HRLT   .         Formation Resistivity         : 
TLFamily_ECGR      .         Gamma Ray                     : 
TLFamily_TNPH      .         Neutron Porosity              : 
REAL_CREATION_DATE .         Fri Jun 30 2017-17_18_31      : 
TLFamily_RXOZ      .         Micro Resistivity             : 
TLFamily_HCAL      .         Caliper                       : 
TLFamily_RLA1      .         Shallow Resistivity           : 
TLFamily_RLA2      .         Array Resistivity             : 
TLFamily_DEPTH     .         Measured Depth                : 
TLFamily_DTSH5     .         Shear Slowness                : 
TLFamily_RLA3      .         Medium Resistivity            : 
TLFamily_RLA4      .         Array Resistivity             : 
TLFamily_RLA5      .         Deep Resistivity              : 
TLFamily_RHOZ      .         Bulk Density                  : 
TLFamily_HDEVI     .                                       : 
TLFamily_HAZI      .         Hole Azimuth                  : 
~Curve Information
#_______________________________________________________________________________
#
#LOGNAME           .UNIT     LOG_ID                        : DESCRIPTION
#_______________________________________________________________________________
DEPTH              .M                                      : Depth {F}
DTCO3              .US/F                                   : Sonic      Compressional Slowness from Measurement 3 <_techsia_lb_>F13 {F}
DTSH5              .US/F                                   : ShearSonic Shear Slowness from Measurement 5 <_techsia_lb_>F13 {F}
ECGR               .GAPI                                   : Gamma-Ray <_techsia_lb_>F13 {F}
HAZI               .Deg                                    : Azimuth {F}
HCAL               .IN                                     : Caliper    HRCC Cal. Caliper <_techsia_lb_>F13 {F}
HDEVI              .Deg                                    : Deviation {F}
RHOZ               .G/C3                                   : Density    HRDD Standard Resolution Formation Density <_techsia_lb_>F13 {F}
RLA1               .OHMM                                   : ShalRes    HRLT Borehole Corrected Resistivity 1 <_techsia_lb_>F13 {F}
RLA2               .OHMM                                   : MedRes     HRLT Borehole Corrected Resistivity 2 <_techsia_lb_>F13 {F}
RLA3               .OHMM                                   : DeepRes    HRLT Borehole Corrected Resistivity 3 <_techsia_lb_>F13 {F}
RLA4               .OHMM                                   : XDeepRes   HRLT Borehole Corrected Resistivity 4 <_techsia_lb_>F13 {F}
RLA5               .OHMM                                   : UltraDeepR HRLT Borehole Corrected Resistivity 5 <_techsia_lb_>F13 {F}
RT_HRLT            .OHMM                                   : HRLT Computed True Resistivity <_techsia_lb_>F13 {F}
RXOZ               .OHMM                                   : MicroRes   MCFL Standard Resolution Invaded Zone Resistivity <_techsia_lb_>F13 {F}
TNPH               .V/V                                    : Neutron    Thermal Neutron Porosity <_techsia_lb_>F13 {F}
~Ascii
# ...
1209.1416  115.2832   241.4231   128.7547   216.6541   13.075     1.0613     2.1208     0.3645     0.4442     0.5197     0.5923     0.6266     0.8184     0.2316     0.3506    
1209.294   113.5979   241.1679   125.2113   216.6244   13.0891    1.0615     2.1214     0.3808     0.4583     0.5347     0.6096     0.6447     0.8397     0.2245     0.3404    
1209.4464  110.6816   240.7021   126.914    216.5947   13.1932    1.0618     2.1103     0.3736     0.4437     0.5156     0.5878     0.62       0.8042     0.2234     0.3438    
1209.5988  113.2785   239.7565   128.7183   216.5649   13.3139    1.062      2.0954     0.3713     0.4422     0.5134     0.5861     0.6172     0.8006     0.2039     0.3654    
1209.7512  110.4401   238.519    129.4062   216.5352   13.0842    1.0622     2.085      0.3788     0.4504     0.5181     0.5899     0.6201     0.8001     0.2225     0.3857    
1209.9036  110.3764   237.3479   127.2817   216.5055   13.0757    1.0625     2.0849     0.3822     0.4544     0.5247     0.5951     0.6265     0.8071     0.2187     0.3946    
1210.056   110.4117   236.6481   125.7808   216.4759   13.1515    1.0627     2.0994     0.3686     0.4453     0.5184     0.5804     0.6117     0.7859     0.2301     0.3731    
1210.2084  110.3608   235.8898   121.9381   216.4462   13.1882    1.063      2.1166     0.3692     0.4521     0.5275     0.5836     0.6164     0.7881     0.2175     0.368     
1210.3608  110.1393   235.8011   122.0289   216.4165   13.0307    1.0632     2.1347     0.3825     0.4708     0.5498     0.5982     0.6328     0.802      0.2242     0.3499    
1210.5132  109.7341   235.9472   118.4763   216.3869   12.7889    1.0635     2.144      0.384      0.4716     0.5409     0.5783     0.6111     0.7646     0.2243     0.3471    
1210.6656  109.2937   231.4491   120.4312   216.3573   12.6722    1.0637     2.1502     0.3808     0.4741     0.5284     0.5599     0.59       0.7326     0.2183     0.3419    
1210.818   108.5058   229.7986   121.8633   216.3277   12.5978    1.064      2.1583     0.3773     0.4594     0.5108     0.5404     0.5712     0.703      0.2332     0.3223    
1210.9704  108.3768   226.0498   128.4395   216.2981   12.5277    1.0642     2.1789     0.4022     0.4665     0.5184     0.5474     0.5752     0.6973     0.2543     0.3045    
1211.1228  107.2036   222.0582   129.3633   216.2685   12.4411    1.0645     2.2094     0.4529     0.5185     0.5835     0.6215     0.6536     0.797      0.2953     0.2942    
1211.2752  105.7534   213.4299   127.7686   216.2389   12.3701    1.0647     2.2616     0.4533     0.5239     0.59       0.6357     0.6703     0.8244     0.3043     0.3042    
1211.4276  103.4854   207.177    126.3587   216.2094   12.2498    1.065      2.3384     0.5356     0.6157     0.6942     0.7541     0.7978     0.9888     0.4126     0.2822    
1211.58    91.8801    188.9791   120.9994   216.1798   12.2003    1.0652     2.419      0.8612     0.9779     1.1375     1.2508     1.3322     1.7061     0.7392     0.217     
1211.7324  92.6314    185.2407   117.6389   216.1503   12.1042    1.0654     2.4497     1.2298     1.31       1.4858     1.6188     1.7503     2.2126     1.3508     0.1857    
1211.8848  92.4512    185.2407   112.4735   216.1208   12.0897    1.0657     2.435      0.9408     0.9585     1.0489     1.1477     1.249      1.4799     0.7689     0.1858    
1212.0372  93.1091    185.8625   114.1649   216.0913   12.1942    1.0659     2.4032     0.9123     0.9426     1.0006     1.0934     1.1894     1.3805     0.662      0.2267    
1212.1896  97.0615    188.0604   117.1812   216.0618   12.2373    1.0662     2.3609     1.0432     1.1012     1.1823     1.296      1.4263     1.6866     0.6247     0.2605    
1212.342   96.6925    192.0326   121.9423   216.0323   12.2352    1.0664     2.2922     0.7107     0.738      0.7728     0.8353     0.9119     1.0323     0.4465     0.3027    
1212.4944  98.0751    201.9707   126.3173   216.0028   12.2389    1.0667     2.2057     0.5615     0.603      0.6208     0.6636     0.72       0.8054     0.2914     0.3464    
1212.6468  102.8254   206.8075   125.0303   215.9734   12.2675    1.0669     2.1498     0.5253     0.5749     0.5889     0.6249     0.6735     0.755      0.2432     0.393     
1212.7992  105.6587   218.6306   124.5449   215.944    12.368     1.0672     2.1377     0.494      0.558      0.581      0.6093     0.6521     0.7476     0.2318     0.4113    
1212.9516  108.6608   226.337    127.5295   215.9145   12.6255    1.0674     2.1436     0.465      0.5431     0.5709     0.5941     0.6325     0.739      0.2277     0.4019    
1213.104   109.3993   232.3004   132.343    215.8851   12.8429    1.0677     2.1499     0.4529     0.5548     0.5885     0.6103     0.6425     0.7706     0.2263     0.3873    
1213.2564  111.1118   235.329    129.3347   215.8558   13.1637    1.0679     2.1453     0.4631     0.568      0.6184     0.6471     0.6766     0.8256     0.2276     0.3783    
1213.4088  111.691    243.3506   125.3284   215.8264   13.2197    1.0682     2.1426     0.4664     0.5548     0.6121     0.643      0.6678     0.8135     0.2333     0.369     
1213.5612  112.0403   243.327    126.9932   215.797    13.2562    1.0684     2.1394     0.4569     0.5306     0.5945     0.6347     0.6537     0.8018     0.2296     0.3696    
1213.7136  111.6337   244.682    134.1994   215.7677   13.2578    1.0687     2.1319     0.4438     0.5075     0.5685     0.6161     0.6314     0.776      0.2237     0.3667    
1213.866   110.2521   245.3814   136.772    215.7383   13.1211    1.0689     2.1239     0.4431     0.5059     0.5669     0.6234     0.635      0.7855     0.2228     0.3748    
1214.0184  111.654    244.0603   134.4446   215.709    13.1656    1.0692     2.1234     0.4427     0.5115     0.5754     0.6419     0.6532     0.8168     0.2243     0.3902    
1214.1708  111.6968   242.8258   131.6331   215.6797   13.0663    1.0695     2.1368     0.4343     0.5065     0.5692     0.6393     0.6494     0.8188     0.228      0.4032    
1214.3232  111.2257   242.3549   129.5056   215.6504   12.999     1.0697     2.1528     0.4332     0.5113     0.5847     0.6644     0.6785     0.8707     0.2379     0.388     
1214.4756  110.9186   239.1268   129.5719   215.6211   12.7493    1.07       2.1491     0.4442     0.5244     0.6024     0.6864     0.7042     0.9076     0.24       0.3681    
1214.628   109.9118   239.2547   131.5797   215.5918   12.8628    1.0702     2.123      0.4361     0.5129     0.5916     0.6734     0.6937     0.8941     0.2311     0.3638    
1214.7804  109.8699   234.7074   134.3645   215.5626   12.8518    1.0705     2.1015     0.4244     0.5011     0.5794     0.6579     0.6804     0.8755     0.2102     0.3846    
1214.9328  109.7597   233.7727   136.4463   215.5334   12.7516    1.0707     2.1241     0.4212     0.4966     0.572      0.6426     0.6664     0.8496     0.2363     0.3813    
1215.0852  109.9449   232.9799   136.7026   215.5041   12.6911    1.071      2.1601     0.4566     0.539      0.6198     0.6883     0.7138     0.9019     0.2601     0.3718    
1215.2376  109.5662   231.3915   132.8473   215.4749   12.7287    1.0712     2.1642     0.447      0.5379     0.6145     0.6734     0.6981     0.8772     0.287      0.3576    
1215.39    108.6247   231.6345   127.9703   215.4457   12.7807    1.0715     2.1363     0.4262     0.521      0.5864     0.6295     0.6493     0.8121     0.2692     0.363     
1215.5424  108.6247   232.3336   133.3892   215.4165   12.7114    1.0717     2.1075     0.4269     0.5238     0.5854     0.6212     0.6375     0.7946     0.2728     0.3532    
1215.6948  108.2284   231.7703   137.1566   215.3874   12.4922    1.072      2.1095     0.4423     0.5308     0.5885     0.6184     0.6331     0.7789     0.2848     0.3435    
1215.8472  108.4215   222.7169   139.0679   215.3582   12.4754    1.0722     2.1199     0.4426     0.5216     0.582      0.6064     0.619      0.7583     0.2751     0.3454    
1215.9996  116.0754   216.0954   133.2782   215.3291   12.3627    1.0725     2.1537     0.4353     0.5088     0.5649     0.5884     0.6009     0.7328     0.2642     0.3735    
