~Version Information Sectionhv
 VERS.      2.0         :CWLS Log ASCII Standard - version 2.0
 WRAP.      NO          :Mulitple lines per depth step
~Well Information Section
#MNEM.UNIT                      VALUE/NAME                 DESCRIPTION
#----.----     ----------------------------------   --------------------
 STRT     .M            1685.0100                         :START DEPTH
 STOP     .M            1879.9700                         :STOP DEPTH
 STEP     .M               0.0100                         :STEP
 NULL     .             -999.2500                         :NULL VALUE
 COMP     .          JORDAN PETROLEUM LIMITED             :COMPANY
 WELL     .          100052506825W500                     :WELL
 FLD      .          UNDEFINED                            :FIELD
 LOC      .                                               :LOCATION
 CNTY     .          UNKNOWN                              :COUNTY
 STAT     .          UNKNOWN                              :STATE
 CTRY     .          UNKNOWN                              :COUNTRY
 SRVC     .          UNKNOWN                              :SERVICE COMPANY
 DATE     .          UNKNOWN                              :LOG DATE
 UWI      .          100052506825W500                  :UNIQUE WELL ID
 XCOORD   .          0                                    :SURFACE X
 YCOORD   .          0                                    :SURFACE Y
 LAT      .          0                                    :LATITUDE
 LON      .          0                                    :LONGITUDE
 ELEV     .M               0.0000                         :SURFACE ELEV
 ELEV_TYPE.          KB                                   :ELEV TYPE
~Curve Information Section
#MNEM .UNIT          API CODE        CURVE DESCRIPTION
#---- .----        LG--CV-CL--M      -------------------------
 DEPTH.M                             :1 Measured Depth
 BIT  .MM               UNKNOWN      :2 BIT SIZE **MERGED**
 CAL  .MM               UNKNOWN      :3 DENSITY CALIPER
 DEN  .UNKNOWN          UNKNOWN      :4 Calculated in RESys
 DENC .UNKNOWN          UNKNOWN      :5 Calculated in RESys
 DPL  .V/V              UNKNOWN      :6 13
 DPS  .V/V              UNKNOWN      :7 11
 DTC  .GAPI             UNKNOWN      :8 3-5 FT COMPENSATED SONIC
 GR   .GAPI             UNKNOWN      :9 PNS GAMMA RAY
 MINV .OHMM             UNKNOWN      :10 MICRO-INVERSE
 MNRL .OHMM             UNKNOWN      :11 MICRO-NORMAL 2"
 NPL  .V/V              UNKNOWN      :12 14
 NPS  .V/V              UNKNOWN      :13 10
 PE   .B/E              UNKNOWN      :14 NEAR PE CURVE
 RD   .OHMM             UNKNOWN      :15 DEEP INDUCTION
 RS   .OHMM             UNKNOWN      :16 SHALLOW FE
 SP   .MV               UNKNOWN      :17 SPONTANEOUS POTENTIAL
 Z    .M                UNKNOWN      :18 DEPTH
~Parameter Information Section
#MNEM.UNIT                      VALUE                       DESCRIPTION
#----.----     ----------------------------------   --------------------
~A  DEPTH    BIT      CAL       DEN      DENC     DPL     DPS      DTC       GR      MINV    MNRL    NPL    NPS    PE       RD        RS        SP       Z     
# ...
 1737.0100 200.0000 210.1061 2610.5144   21.0488  0.0582  0.0239 219.0014   91.4371 11.5573  9.9127 0.1270 0.1670 2.3805   14.0637   13.9738  67.2926 1737.0100
 1737.0200 200.0000 210.0905 2604.6030   18.4110  0.0616  0.0275 218.9247   93.4200 11.5492  9.8938 0.1275 0.1675 2.3615   14.0751   13.9528  67.2851 1737.0200
 1737.0300 200.0000 210.0771 2601.2016   16.2441  0.0636  0.0296 218.8494   94.1493 11.5423  9.8725 0.1285 0.1685 2.4270   14.0870   13.9312  67.2741 1737.0300
 1737.0400 200.0000 210.0639 2598.0185   14.1181  0.0655  0.0315 218.7742   94.7697 11.5354  9.8510 0.1296 0.1696 2.4998   14.0990   13.9096  67.2628 1737.0400
 1737.0500 200.0000 210.0536 2595.0083   12.5457  0.0672  0.0333 218.6990   95.0428 11.5285  9.8295 0.1307 0.1707 2.5728   14.1110   13.8880  67.2515 1737.0500
 1737.0600 200.0000 210.0480 2592.2799   11.8764  0.0688  0.0350 218.6238   94.7493 11.5216  9.8080 0.1317 0.1717 2.6458   14.1230   13.8664  67.2402 1737.0600
 1737.0700 200.0000 210.0424 2589.5516   11.2071  0.0704  0.0366 218.5486   94.4558 11.5147  9.7865 0.1326 0.1726 2.7188   14.1350   13.8448  67.2289 1737.0700
 1737.0800 200.0000 210.0387 2591.1885   10.7693  0.0695  0.0356 218.4734   94.2502 11.5078  9.7650 0.1329 0.1729 2.7287   14.1470   13.8232  67.2176 1737.0800
 1737.0900 200.0000 210.0353 2593.6570   10.3756  0.0680  0.0341 218.3982   94.0614 11.5009  9.7435 0.1330 0.1730 2.7265   14.1590   13.8016  67.2063 1737.0900
 1737.1000 200.0000 210.0307 2596.4373   10.5134  0.0664  0.0325 218.3116   93.9600 11.4925  9.7241 0.1332 0.1732 2.8104   14.1710   13.7814  67.1922 1737.1000
 1737.1100 200.0000 210.0229 2599.9451   11.8913  0.0643  0.0303 218.1982   94.0628 11.4806  9.7098 0.1334 0.1734 3.0949   14.1830   13.7642  67.1713 1737.1100
 1737.1200 200.0000 210.0151 2603.4530   13.2692  0.0623  0.0282 218.0848   94.1655 11.4687  9.6954 0.1336 0.1736 3.3794   14.1950   13.7471  67.1505 1737.1200
 1737.1300 200.0000 210.0125 2613.1812   15.6346  0.0566  0.0223 217.9675   93.4494 11.4562  9.6818 0.1353 0.1753 3.4784   14.2070   13.7305  67.1287 1737.1300
 1737.1400 200.0000 210.0117 2624.8741   18.3117  0.0497  0.0152 217.8490   92.4747 11.4436  9.6684 0.1374 0.1774 3.5187   14.2190   13.7140  67.1066 1737.1400
 1737.1500 200.0000 210.0102 2635.3096   20.5299  0.0436  0.0089 217.7305   91.3061 11.4310  9.6550 0.1396 0.1796 3.4694   14.2310   13.6975  67.0845 1737.1500
 1737.1600 200.0000 210.0065 2641.2860   21.1204  0.0402  0.0053 217.6120   89.4501 11.4184  9.6416 0.1417 0.1817 3.1022   14.2430   13.6810  67.0624 1737.1600
 1737.1700 200.0000 210.0029 2647.2623   21.7110  0.0367  0.0017 217.4935   87.5940 11.4058  9.6282 0.1439 0.1839 2.7350   14.2550   13.6645  67.0403 1737.1700
 1737.1800 200.0000 209.9987 2654.1221   22.6763  0.0327 -0.0025 217.3750   85.1796 11.3932  9.6148 0.1440 0.1840 2.8498   14.2670   13.6480  67.0182 1737.1800
 1737.1900 200.0000 209.9944 2661.3977   23.8181  0.0285 -0.0069 217.2565   82.5023 11.3806  9.6014 0.1431 0.1831 3.1914   14.2790   13.6315  66.9961 1737.1900
 1737.2000 200.0000 209.9906 2667.2913   24.7559  0.0250 -0.0105 217.1477   80.0668 11.3694  9.5910 0.1420 0.1820 3.4646   14.2908   13.6173  66.9741 1737.2000
 1737.2100 200.0000 209.9903 2664.6929   24.4410  0.0265 -0.0089 217.0981   79.1168 11.3666  9.5990 0.1389 0.1789 3.3177   14.3014   13.6176  66.9526 1737.2100
 1737.2200 200.0000 209.9901 2662.0945   24.1260  0.0280 -0.0073 217.0486   78.1667 11.3638  9.6069 0.1359 0.1759 3.1707   14.3120   13.6178  66.9310 1737.2200
 1737.2300 200.0000 209.9900 2664.7964   25.3936  0.0264 -0.0090 217.0015   78.6396 11.3614  9.6156 0.1340 0.1740 3.0254   14.3225   13.6186  66.9095 1737.2300
 1737.2400 200.0000 209.9900 2671.0326   27.7164  0.0228 -0.0127 216.9560   80.0615 11.3592  9.6248 0.1327 0.1727 2.8812   14.3330   13.6198  66.8880 1737.2400
 1737.2500 200.0000 209.9883 2676.8483   29.9968  0.0194 -0.0163 216.9105   81.4336 11.3570  9.6340 0.1317 0.1717 2.7561   14.3435   13.6210  66.8665 1737.2500
 1737.2600 200.0000 209.9606 2676.0687   31.6109  0.0199 -0.0158 216.8650   82.0263 11.3548  9.6432 0.1331 0.1731 2.9320   14.3540   13.6222  66.8450 1737.2600
 1737.2700 200.0000 209.9329 2675.2892   33.2251  0.0203 -0.0153 216.8195   82.6191 11.3526  9.6524 0.1346 0.1746 3.1079   14.3645   13.6234  66.8235 1737.2700
 1737.2800 200.0000 209.9107 2667.8897   32.3624  0.0246 -0.0108 216.7742   81.4320 11.3506  9.6616 0.1354 0.1754 3.1884   14.3750   13.6248  66.8020 1737.2800
 1737.2900 200.0000 209.8937 2654.3779   29.2128  0.0325 -0.0027 216.7291   78.6015 11.3488  9.6707 0.1356 0.1756 3.1809   14.3855   13.6263  66.7805 1737.2900
 1737.3000 200.0000 209.8766 2640.8661   26.0632  0.0404  0.0055 216.6839   75.7711 11.3470  9.6799 0.1358 0.1758 3.1734   14.3960   13.6279  66.7589 1737.3000
 1737.3100 200.0000 209.8435 2632.5742   24.4182  0.0453  0.0106 216.6818   77.0982 11.3943  9.6837 0.1346 0.1746 3.1377   14.4052   13.6696  66.7347 1737.3100
 1737.3200 200.0000 209.8100 2624.3892   22.8040  0.0500  0.0155 216.6806   78.5104 11.4426  9.6874 0.1334 0.1734 3.1015   14.4144   13.7122  66.7104 1737.3200
 1737.3300 200.0000 209.7788 2616.7186   20.9474  0.0545  0.0202 216.6794   79.8537 11.4909  9.6911 0.1323 0.1723 3.0826   14.4236   13.7548  66.6861 1737.3300
 1737.3400 200.0000 209.7503 2609.7028   18.7820  0.0587  0.0244 216.6782   81.1091 11.5392  9.6948 0.1313 0.1713 3.0857   14.4328   13.7974  66.6618 1737.3400
 1737.3500 200.0000 209.7218 2602.6871   16.6167  0.0628  0.0287 216.6770   82.3646 11.5875  9.6985 0.1303 0.1703 3.0889   14.4420   13.8400  66.6375 1737.3500
 1737.3600 200.0000 209.6920 2607.7725   19.4824  0.0598  0.0256 216.6758   83.8689 11.6358  9.7022 0.1311 0.1711 2.7600   14.4512   13.8826  66.6132 1737.3600
 1737.3700 200.0000 209.6619 2614.2036   22.9076  0.0560  0.0217 216.6746   85.4010 11.6841  9.7059 0.1320 0.1720 2.3942   14.4604   13.9252  66.5889 1737.3700
 1737.3800 200.0000 209.6292 2615.6079   25.3409  0.0552  0.0208 216.6768   86.2195 11.7316  9.7100 0.1325 0.1725 2.2258   14.4695   13.9686  66.5636 1737.3800
 1737.3900 200.0000 209.5918 2608.0724   26.0102  0.0596  0.0254 216.6852   85.7692 11.7779  9.7148 0.1323 0.1723 2.4086   14.4783   14.0132  66.5367 1737.3900
 1737.4000 200.0000 209.5544 2600.5370   26.6795  0.0640  0.0300 216.6935   85.3189 11.8242  9.7196 0.1321 0.1721 2.5915   14.4871   14.0578  66.5098 1737.4000
 1737.4100 200.0000 209.5245 2605.9975   30.1894  0.0608  0.0267 216.8043   85.7239 11.8485  9.7365 0.1314 0.1714 2.7301   14.4918   14.1239  66.4550 1737.4100
 1737.4200 200.0000 209.4962 2614.3125   34.3232  0.0560  0.0216 216.9376   86.3168 11.8680  9.7560 0.1306 0.1706 2.8590   14.4956   14.1948  66.3940 1737.4200
 1737.4300 200.0000 209.4702 2619.4818   37.6086  0.0530  0.0185 217.0709   86.8712 11.8875  9.7755 0.1299 0.1699 2.9502   14.4994   14.2656  66.3330 1737.4300
 1737.4400 200.0000 209.4503 2616.5585   38.7109  0.0547  0.0203 217.2042   87.3264 11.9070  9.7950 0.1297 0.1697 2.9445   14.5032   14.3366  66.2720 1737.4400
 1737.4500 200.0000 209.4303 2613.6353   39.8133  0.0564  0.0220 217.3375   87.7815 11.9265  9.8145 0.1296 0.1696 2.9389   14.5070   14.4075  66.2110 1737.4500
 1737.4600 200.0000 209.4064 2611.7695   40.0709  0.0574  0.0232 217.4708   88.1228 11.9460  9.8340 0.1306 0.1706 2.9100   14.5108   14.4784  66.1500 1737.4600
 1737.4700 200.0000 209.3812 2610.2754   40.0315  0.0583  0.0241 217.6041   88.4241 11.9655  9.8535 0.1322 0.1722 2.8730   14.5146   14.5493  66.0890 1737.4700
 1737.4800 200.0000 209.3572 2606.8335   39.4491  0.0603  0.0262 217.7367   88.0421 11.9846  9.8729 0.1337 0.1737 2.8506   14.5183   14.6196  66.0273 1737.4800
 1737.4900 200.0000 209.3379 2595.5953   36.6932  0.0669  0.0330 217.8666   84.9254 12.0021  9.8921 0.1351 0.1751 2.8869   14.5219   14.6879  65.9627 1737.4900
 1737.5000 200.0000 209.3187 2584.3572   33.9373  0.0735  0.0398 217.9966   81.8088 12.0196  9.9112 0.1366 0.1766 2.9232   14.5255   14.7561  65.8982 1737.5000
