~Version Information Sectionhv
 VERS.      2.0         :CWLS Log ASCII Standard - version 2.0
 WRAP.      NO          :Mulitple lines per depth step
~Well Information Section
#MNEM.UNIT                      VALUE/NAME                 DESCRIPTION
#----.----     ----------------------------------   --------------------
 STRT     .M            1685.0100                         :START DEPTH
 STOP     .M            1879.9700                         :STOP DEPTH
 STEP     .M               0.0100                         :STEP
 NULL     .             -999.2500                         :NULL VALUE
 COMP     .          JORDAN PETROLEUM LIMITED             :COMPANY
 WELL     .          100052506825W500                     :WELL
 FLD      .          UNDEFINED                            :FIELD
 LOC      .                                               :LOCATION
 CNTY     .          UNKNOWN                              :COUNTY
 STAT     .          UNKNOWN                              :STATE
 CTRY     .          UNKNOWN                              :COUNTRY
 SRVC     .          UNKNOWN                              :SERVICE COMPANY
 DATE     .          UNKNOWN                              :LOG DATE
 UWI      .          100052506825W500                  :UNIQUE WELL ID
 XCOORD   .          0                                    :SURFACE X
 YCOORD   .          0                                    :SURFACE Y
 LAT      .          0                                    :LATITUDE
 LON      .          0                                    :LONGITUDE
 ELEV     .M               0.0000                         :SURFACE ELEV
 ELEV_TYPE.          KB                                   :ELEV TYPE
~Curve Information Section
#MNEM .UNIT          API CODE        CURVE DESCRIPTION
#---- .----        LG--CV-CL--M      -------------------------
 DEPTH.M                             :1 Measured Depth
 BIT  .MM               UNKNOWN      :2 BIT SIZE **MERGED**
 CAL  .MM               UNKNOWN      :3 DENSITY CALIPER
 DEN  .UNKNOWN          UNKNOWN      :4 Calculated in RESys
 DENC .UNKNOWN          UNKNOWN      :5 Calculated in RESys
 DPL  .V/V              UNKNOWN      :6 13
 DPS  .V/V              UNKNOWN      :7 11
 DTC  .GAPI             UNKNOWN      :8 3-5 FT COMPENSATED SONIC
 GR   .GAPI             UNKNOWN      :9 PNS GAMMA RAY
 MINV .OHMM             UNKNOWN      :10 MICRO-INVERSE
 MNRL .OHMM             UNKNOWN      :11 MICRO-NORMAL 2"
 NPL  .V/V              UNKNOWN      :12 14
 NPS  .V/V              UNKNOWN      :13 10
 PE   .B/E              UNKNOWN      :14 NEAR PE CURVE
 RD   .OHMM             UNKNOWN      :15 DEEP INDUCTION
 RS   .OHMM             UNKNOWN      :16 SHALLOW FE
 SP   .MV               UNKNOWN      :17 SPONTANEOUS POTENTIAL
 Z    .M                UNKNOWN      :18 DEPTH
~Parameter Information Section
#MNEM.UNIT                      VALUE                       DESCRIPTION
#----.----     ----------------------------------   --------------------
~A  DEPTH    BIT      CAL       DEN      DENC     DPL     DPS      DTC       GR      MINV    MNRL    NPL    NPS    PE       RD        RS        SP       Z     
# ...
 1711.0100 200.0000 224.5875 2586.7938   44.3292  0.0721  0.0383 246.0353  127.2859  5.2958  6.9612 0.1832 0.2232 2.6707    8.2362    9.4416  75.1295 1711.0100
 1711.0200 200.0000 224.6428 2584.4414   43.4991  0.0735  0.0397 246.0064  128.2168  5.1022  6.8454 0.1817 0.2217 2.6810    8.2388    9.4214  75.1488 1711.0200
 1711.0300 200.0000 224.6988 2581.1934   42.4755  0.0754  0.0417 245.9666  128.9943  4.9038  6.7246 0.1800 0.2200 2.6871    8.2412    9.4016  75.1692 1711.0300
 1711.0400 200.0000 224.7553 2576.7965   41.1037  0.0779  0.0444 245.9268  129.6584  4.7054  6.6038 0.1776 0.2176 2.6589    8.2436    9.3818  75.1896 1711.0400
 1711.0500 200.0000 224.8130 2570.1705   39.0565  0.0818  0.0484 245.8870  130.1029  4.5070  6.4830 0.1737 0.2137 2.5639    8.2460    9.3620  75.2100 1711.0500
 1711.0600 200.0000 224.8707 2563.5445   37.0092  0.0856  0.0524 245.8472  130.5473  4.3086  6.3622 0.1698 0.2098 2.4690    8.2484    9.3422  75.2304 1711.0600
 1711.0700 200.0000 224.9281 2562.6878   36.0960  0.0861  0.0529 245.8074  131.0151  4.1102  6.2414 0.1646 0.2046 2.4749    8.2508    9.3224  75.2508 1711.0700
 1711.0800 200.0000 224.9855 2563.2724   35.4661  0.0858  0.0526 245.7676  131.4887  3.9118  6.1206 0.1590 0.1990 2.5061    8.2532    9.3026  75.2712 1711.0800
 1711.0900 200.0000 225.0448 2565.5129   35.2662  0.0845  0.0512 245.6258  131.8968  3.7353  6.0146 0.1535 0.1935 2.5543    8.2540    9.2831  75.2938 1711.0900
 1711.1000 200.0000 225.1099 2572.4636   36.2899  0.0804  0.0470 245.1938  132.1183  3.6212  5.9507 0.1484 0.1884 2.6506    8.2503    9.2647  75.3229 1711.1000
 1711.1100 200.0000 225.1750 2579.4144   37.3135  0.0763  0.0428 244.7619  132.3398  3.5070  5.8868 0.1432 0.1832 2.7469    8.2466    9.2463  75.3519 1711.1100
 1711.1200 200.0000 225.2464 2584.6344   37.9686  0.0733  0.0396 244.0519  131.6828  3.4526  5.8632 0.1393 0.1793 2.7329    8.2386    9.2290  75.3870 1711.1200
 1711.1300 200.0000 225.3202 2589.1817   38.4804  0.0707  0.0369 243.2339  130.6844  3.4214  5.8553 0.1359 0.1759 2.6760    8.2289    9.2120  75.4245 1711.1300
 1711.1400 200.0000 225.3935 2591.6583   38.4888  0.0692  0.0354 242.4159  129.5480  3.3902  5.8474 0.1329 0.1729 2.6327    8.2192    9.1950  75.4620 1711.1400
 1711.1500 200.0000 225.4642 2584.7075   36.2053  0.0733  0.0396 241.5979  127.7837  3.3590  5.8395 0.1314 0.1714 2.6515    8.2095    9.1780  75.4995 1711.1500
 1711.1600 200.0000 225.5349 2577.7567   33.9219  0.0773  0.0438 240.7799  126.0195  3.3278  5.8316 0.1299 0.1699 2.6702    8.1998    9.1610  75.5370 1711.1600
 1711.1700 200.0000 225.6162 2571.6791   31.3612  0.0809  0.0475 239.9619  124.3310  3.2966  5.8237 0.1292 0.1692 2.7304    8.1901    9.1440  75.5745 1711.1700
 1711.1800 200.0000 225.7036 2566.0925   28.6447  0.0842  0.0509 239.1439  122.6852  3.2654  5.8158 0.1289 0.1689 2.8139    8.1804    9.1270  75.6120 1711.1800
 1711.1900 200.0000 225.7936 2561.5786   26.3182  0.0868  0.0536 238.3436  121.2268  3.2423  5.8122 0.1286 0.1686 2.8833    8.1707    9.1079  75.6500 1711.1900
 1711.2000 200.0000 225.9080 2566.7105   27.4993  0.0838  0.0505 237.7026  121.4548  3.2918  5.8474 0.1287 0.1687 2.8268    8.1610    9.0694  75.6917 1711.2000
 1711.2100 200.0000 226.0224 2571.8423   28.6804  0.0808  0.0474 237.0616  121.6827  3.3413  5.8826 0.1288 0.1688 2.7703    8.1512    9.0310  75.7334 1711.2100
 1711.2200 200.0000 226.1370 2581.0127   31.7358  0.0754  0.0418 236.4963  122.1428  3.4254  5.9362 0.1294 0.1694 2.7357    8.1414    8.9834  75.7768 1711.2200
 1711.2300 200.0000 226.2517 2593.3552   36.2633  0.0682  0.0343 235.9905  122.7851  3.5366  6.0043 0.1305 0.1705 2.7184    8.1316    8.9286  75.8217 1711.2300
 1711.2400 200.0000 226.3665 2605.7042   40.7995  0.0610  0.0268 235.4848  123.4087  3.6478  6.0724 0.1315 0.1715 2.7029    8.1218    8.8738  75.8666 1711.2400
 1711.2500 200.0000 226.4833 2618.3715   45.7602  0.0535  0.0192 234.9790  123.1132  3.7590  6.1405 0.1335 0.1735 2.7752    8.1120    8.8190  75.9115 1711.2500
 1711.2600 200.0000 226.6001 2631.0388   50.7208  0.0461  0.0115 234.4732  122.8176  3.8702  6.2086 0.1356 0.1756 2.8475    8.1022    8.7642  75.9564 1711.2600
 1711.2700 200.0000 226.7561 2642.0533   55.2467  0.0397  0.0048 233.9674  122.3530  3.9814  6.2767 0.1381 0.1781 2.8629    8.0924    8.7094  76.0013 1711.2700
 1711.2800 200.0000 226.9546 2651.2777   59.3018  0.0343 -0.0008 233.4616  121.7051  4.0926  6.3448 0.1413 0.1813 2.8166    8.0826    8.6546  76.0462 1711.2800
 1711.2900 200.0000 227.1531 2660.5021   63.3569  0.0289 -0.0064 232.9558  121.0571  4.2038  6.4129 0.1444 0.1844 2.7703    8.0728    8.5998  76.0911 1711.2900
 1711.3000 200.0000 227.3293 2666.0014   67.2270  0.0257 -0.0097 232.6827  121.4536  4.2972  6.4776 0.1483 0.1883 2.7259    8.0672    8.5945  76.1332 1711.3000
 1711.3100 200.0000 227.5040 2671.2632   71.0852  0.0226 -0.0129 232.4244  121.9167  4.3895  6.5420 0.1523 0.1923 2.6816    8.0619    8.5924  76.1751 1711.3100
 1711.3200 200.0000 227.6325 2667.3774   73.3528  0.0249 -0.0105 232.2244  122.9719  4.4772  6.6056 0.1562 0.1962 2.6462    8.0576    8.6026  76.2162 1711.3200
 1711.3300 200.0000 227.6919 2649.7731   73.2346  0.0352  0.0001 232.1116  124.9152  4.5583  6.6679 0.1599 0.1999 2.6241    8.0549    8.6314  76.2563 1711.3300
 1711.3400 200.0000 227.7512 2632.1688   73.1165  0.0456  0.0108 231.9988  126.8584  4.6394  6.7302 0.1637 0.2037 2.6020    8.0522    8.6602  76.2964 1711.3400
 1711.3500 200.0000 227.7758 2595.2897   70.7975  0.0671  0.0332 231.8860  128.3134  4.7205  6.7925 0.1660 0.2060 2.6380    8.0495    8.6890  76.3365 1711.3500
 1711.3600 200.0000 227.7947 2555.2740   68.1204  0.0905  0.0574 231.7732  129.6889  4.8016  6.8548 0.1680 0.2080 2.6836    8.0468    8.7178  76.3766 1711.3600
 1711.3700 200.0000 227.8075 2513.6160   66.0984  0.1149  0.0827 231.6604  130.2726  4.8827  6.9171 0.1697 0.2097 2.7128    8.0441    8.7466  76.4167 1711.3700
 1711.3800 200.0000 227.8070 2468.4684   65.4685  0.1413  0.1100 231.5476  129.1742  4.9638  6.9794 0.1704 0.2104 2.7075    8.0414    8.7754  76.4568 1711.3800
 1711.3900 200.0000 227.8066 2423.3209   64.8386  0.1677  0.1374 231.4348  128.0757  5.0449  7.0417 0.1712 0.2112 2.7023    8.0387    8.8042  76.4969 1711.3900
 1711.4000 200.0000 227.8115 2378.2240   67.3718  0.1940  0.1647 231.7918  127.1104  5.0738  7.0612 0.1724 0.2124 2.7577    8.0378    8.8596  76.5347 1711.4000
 1711.4100 200.0000 227.8180 2333.1414   70.7970  0.2204  0.1920 232.2813  126.1826  5.0881  7.0686 0.1737 0.2137 2.8303    8.0374    8.9225  76.5718 1711.4100
 1711.4200 200.0000 227.8257 2287.7781   73.4662  0.2469  0.2195 232.8349  125.6057  5.0952  7.0702 0.1753 0.2153 2.8824    8.0372    8.9890  76.6086 1711.4200
 1711.4300 200.0000 227.8373 2241.5263   73.7417  0.2739  0.2476 233.5912  126.1396  5.0798  7.0533 0.1779 0.2179 2.8693    8.0378    9.0670  76.6444 1711.4300
 1711.4400 200.0000 227.8489 2195.2744   74.0173  0.3010  0.2756 234.3476  126.6736  5.0644  7.0364 0.1804 0.2204 2.8562    8.0384    9.1450  76.6802 1711.4400
 1711.4500 200.0000 227.7920 2174.1696   71.1511  0.3133  0.2884 235.1040  127.7122  5.0490  7.0195 0.1836 0.2236 2.6868    8.0390    9.2230  76.7160 1711.4500
 1711.4600 200.0000 227.7058 2163.8409   66.9385  0.3194  0.2946 235.8604  128.9670  5.0336  7.0026 0.1870 0.2270 2.4503    8.0396    9.3010  76.7518 1711.4600
 1711.4700 200.0000 227.6249 2163.3355   63.2362  0.3197  0.2949 236.6168  130.1580  5.0182  6.9857 0.1905 0.2305 2.2385    8.0402    9.3790  76.7876 1711.4700
 1711.4800 200.0000 227.5725 2214.3944   62.2126  0.2898  0.2640 237.3732  131.0141  5.0028  6.9688 0.1952 0.2352 2.1562    8.0408    9.4570  76.8234 1711.4800
 1711.4900 200.0000 227.5200 2265.4534   61.1890  0.2600  0.2331 238.1296  131.8703  4.9874  6.9519 0.1999 0.2399 2.0740    8.0414    9.5350  76.8592 1711.4900
 1711.5000 200.0000 227.5226 2336.4089   62.8993  0.2185  0.1901 238.6837  131.7668  4.9744  6.9240 0.2064 0.2464 2.1054    8.0432    9.6143  76.8937 1711.5000
