~Version Information Sectionhv
 VERS.      2.0         :CWLS Log ASCII Standard - version 2.0
 WRAP.      NO          :Mulitple lines per depth step
~Well Information Section
#MNEM.UNIT                      VALUE/NAME                 DESCRIPTION
#----.----     ----------------------------------   --------------------
 STRT     .M            1685.0100                         :START DEPTH
 STOP     .M            1879.9700                         :STOP DEPTH
 STEP     .M               0.0100                         :STEP
 NULL     .             -999.2500                         :NULL VALUE
 COMP     .          JORDAN PETROLEUM LIMITED             :COMPANY
 WELL     .          100052506825W500                     :WELL
 FLD      .          UNDEFINED                            :FIELD
 LOC      .                                               :LOCATION
 CNTY     .          UNKNOWN                              :COUNTY
 STAT     .          UNKNOWN                              :STATE
 CTRY     .          UNKNOWN                              :COUNTRY
 SRVC     .          UNKNOWN                              :SERVICE COMPANY
 DATE     .          UNKNOWN                              :LOG DATE
 UWI      .          100052506825W500                  :UNIQUE WELL ID
 XCOORD   .          0                                    :SURFACE X
 YCOORD   .          0                                    :SURFACE Y
 LAT      .          0                                    :LATITUDE
 LON      .          0                                    :LONGITUDE
 ELEV     .M               0.0000                         :SURFACE ELEV
 ELEV_TYPE.          KB                                   :ELEV TYPE
~Curve Information Section
#MNEM .UNIT          API CODE        CURVE DESCRIPTION
#---- .----        LG--CV-CL--M      -------------------------
 DEPTH.M                             :1 Measured Depth
 BIT  .MM               UNKNOWN      :2 BIT SIZE **MERGED**
 CAL  .MM               UNKNOWN      :3 DENSITY CALIPER
 DEN  .UNKNOWN          UNKNOWN      :4 Calculated in RESys
 DENC .UNKNOWN          UNKNOWN      :5 Calculated in RESys
 DPL  .V/V              UNKNOWN      :6 13
 DPS  .V/V              UNKNOWN      :7 11
 DTC  .GAPI             UNKNOWN      :8 3-5 FT COMPENSATED SONIC
 GR   .GAPI             UNKNOWN      :9 PNS GAMMA RAY
 MINV .OHMM             UNKNOWN      :10 MICRO-INVERSE
 MNRL .OHMM             UNKNOWN      :11 MICRO-NORMAL 2"
 NPL  .V/V              UNKNOWN      :12 14
 NPS  .V/V              UNKNOWN      :13 10
 PE   .B/E              UNKNOWN      :14 NEAR PE CURVE
 RD   .OHMM             UNKNOWN      :15 DEEP INDUCTION
 RS   .OHMM             UNKNOWN      :16 SHALLOW FE
 SP   .MV               UNKNOWN      :17 SPONTANEOUS POTENTIAL
 Z    .M                UNKNOWN      :18 DEPTH
~Parameter Information Section
#MNEM.UNIT                      VALUE                       DESCRIPTION
#----.----     ----------------------------------   --------------------
~A  DEPTH    BIT      CAL       DEN      DENC     DPL     DPS      DTC       GR      MINV    MNRL    NPL    NPS    PE       RD        RS        SP       Z     
# ...
 1724.0100 200.0000 217.2890 2596.2303   40.6442  0.0665  0.0326 245.6325  115.4975  4.5525  6.0403 0.1753 0.2153 3.0507    8.7887    9.2807  76.5116 1724.0100
 1724.0200 200.0000 217.2865 2590.2543   41.7465  0.0700  0.0362 245.3776  115.1547  4.6464  6.1096 0.1767 0.2167 2.8864    8.7824    9.2606  76.5230 1724.0200
 1724.0300 200.0000 217.2803 2588.5654   42.6126  0.0710  0.0372 245.1999  114.8779  4.7296  6.1759 0.1780 0.2180 2.7558    8.7756    9.2449  76.5335 1724.0300
 1724.0400 200.0000 217.2742 2586.8764   43.4788  0.0720  0.0383 245.0222  114.6010  4.8128  6.2422 0.1793 0.2193 2.6253    8.7688    9.2292  76.5440 1724.0400
 1724.0500 200.0000 217.2748 2590.0480   44.7512  0.0701  0.0363 244.8445  114.5529  4.8960  6.3085 0.1791 0.2191 2.6603    8.7620    9.2135  76.5545 1724.0500
 1724.0600 200.0000 217.2766 2594.0106   46.0898  0.0679  0.0339 244.6668  114.5419  4.9792  6.3748 0.1785 0.2185 2.7223    8.7552    9.1978  76.5650 1724.0600
 1724.0700 200.0000 217.2786 2598.0979   47.2142  0.0655  0.0315 244.4891  114.1924  5.0624  6.4411 0.1774 0.2174 2.7618    8.7484    9.1821  76.5755 1724.0700
 1724.0800 200.0000 217.2810 2602.4503   47.8835  0.0629  0.0288 244.3114  113.1240  5.1456  6.5074 0.1748 0.2148 2.7532    8.7416    9.1664  76.5860 1724.0800
 1724.0900 200.0000 217.2835 2606.8026   48.5528  0.0604  0.0262 244.1337  112.0555  5.2288  6.5737 0.1723 0.2123 2.7447    8.7348    9.1507  76.5965 1724.0900
 1724.1000 200.0000 217.2840 2612.0164   49.8670  0.0573  0.0230 243.8489  111.3161  5.2890  6.6178 0.1703 0.2103 2.7450    8.7288    9.1352  76.5943 1724.1000
 1724.1100 200.0000 217.2840 2617.4731   51.3630  0.0541  0.0197 243.5338  110.6694  5.3427  6.6555 0.1686 0.2086 2.7479    8.7229    9.1199  76.5885 1724.1100
 1724.1200 200.0000 217.2840 2623.1325   52.9158  0.0508  0.0163 243.2042  110.2992  5.3932  6.6902 0.1674 0.2074 2.7437    8.7172    9.1046  76.5810 1724.1200
 1724.1300 200.0000 217.2840 2629.4336   54.6481  0.0471  0.0125 242.8283  110.8046  5.4338  6.7153 0.1677 0.2077 2.7170    8.7118    9.0894  76.5680 1724.1300
 1724.1400 200.0000 217.2840 2635.7348   56.3804  0.0434  0.0086 242.4524  111.3099  5.4744  6.7404 0.1681 0.2081 2.6902    8.7064    9.0742  76.5550 1724.1400
 1724.1500 200.0000 217.2840 2638.5345   57.2032  0.0418  0.0069 242.0765  111.0157  5.5150  6.7655 0.1690 0.2090 2.7241    8.7010    9.0590  76.5420 1724.1500
 1724.1600 200.0000 217.2840 2639.8337   57.6362  0.0410  0.0062 241.7006  110.3788  5.5556  6.7906 0.1702 0.2102 2.7841    8.6956    9.0438  76.5290 1724.1600
 1724.1700 200.0000 217.2840 2640.7483   57.7606  0.0405  0.0056 241.3247  109.7507  5.5962  6.8157 0.1713 0.2113 2.8278    8.6902    9.0286  76.5160 1724.1700
 1724.1800 200.0000 217.2840 2639.6440   56.2645  0.0411  0.0063 240.9488  109.1688  5.6368  6.8408 0.1716 0.2116 2.7867    8.6848    9.0134  76.5030 1724.1800
 1724.1900 200.0000 217.2840 2638.5396   54.7685  0.0418  0.0069 240.5729  108.5868  5.6774  6.8659 0.1719 0.2119 2.7456    8.6794    8.9982  76.4900 1724.1900
 1724.2000 200.0000 217.2840 2638.6436   53.3456  0.0417  0.0069 240.3411  107.2905  5.6979  6.8882 0.1721 0.2121 2.7249    8.6788    8.9746  76.4675 1724.2000
 1724.2100 200.0000 217.2840 2639.4881   51.9677  0.0412  0.0064 240.1977  105.5563  5.7062  6.9089 0.1723 0.2123 2.7167    8.6812    8.9458  76.4392 1724.2100
 1724.2200 200.0000 217.2840 2639.9635   50.5803  0.0410  0.0061 240.0602  103.8482  5.7136  6.9294 0.1724 0.2124 2.7114    8.6838    8.9168  76.4104 1724.2200
 1724.2300 200.0000 217.2840 2636.1958   49.0842  0.0432  0.0084 239.9918  102.4405  5.7114  6.9486 0.1721 0.2121 2.7407    8.6887    8.8837  76.3771 1724.2300
 1724.2400 200.0000 217.2840 2632.4281   47.5882  0.0454  0.0106 239.9234  101.0329  5.7092  6.9678 0.1719 0.2119 2.7700    8.6936    8.8506  76.3438 1724.2400
 1724.2500 200.0000 217.2840 2628.7657   46.0283  0.0475  0.0129 239.8550   99.3704  5.7070  6.9870 0.1709 0.2109 2.7520    8.6985    8.8175  76.3105 1724.2500
 1724.2600 200.0000 217.2840 2625.1928   44.4142  0.0496  0.0150 239.7866   97.4908  5.7048  7.0062 0.1694 0.2094 2.6937    8.7034    8.7844  76.2772 1724.2600
 1724.2700 200.0000 217.2840 2621.6200   42.8000  0.0517  0.0172 239.7182   95.6112  5.7026  7.0254 0.1678 0.2078 2.6354    8.7083    8.7513  76.2439 1724.2700
 1724.2800 200.0000 217.2840 2615.3838   40.8709  0.0553  0.0210 239.6498   94.3193  5.7004  7.0446 0.1666 0.2066 2.5176    8.7132    8.7182  76.2106 1724.2800
 1724.2900 200.0000 217.2840 2609.1476   38.9417  0.0589  0.0248 239.5814   93.0273  5.6982  7.0638 0.1654 0.2054 2.3997    8.7181    8.6851  76.1773 1724.2900
 1724.3000 200.0000 217.2840 2612.0551   39.5480  0.0572  0.0230 239.5229   91.8057  5.6824  7.0642 0.1649 0.2049 2.3711    8.7270    8.6453  76.1417 1724.3000
 1724.3100 200.0000 217.2840 2625.6968   43.1307  0.0493  0.0147 239.4759   90.6664  5.6507  7.0425 0.1652 0.2052 2.4472    8.7408    8.5976  76.1035 1724.3100
 1724.3200 200.0000 217.2840 2639.3385   46.7134  0.0413  0.0065 239.4290   89.5272  5.6190  7.0208 0.1656 0.2056 2.5232    8.7546    8.5499  76.0654 1724.3200
 1724.3300 200.0000 217.2840 2643.3584   48.0142  0.0390  0.0040 239.3864   89.9193  5.5814  6.9909 0.1659 0.2059 2.4813    8.7701    8.4993  76.0261 1724.3300
 1724.3400 200.0000 217.2840 2646.5415   49.1165  0.0371  0.0021 239.3442   90.4447  5.5432  6.9602 0.1663 0.2063 2.4291    8.7858    8.4484  75.9868 1724.3400
 1724.3500 200.0000 217.2840 2650.7119   50.6078  0.0347 -0.0004 239.3020   90.8982  5.5050  6.9295 0.1660 0.2060 2.3863    8.8015    8.3975  75.9475 1724.3500
 1724.3600 200.0000 217.2840 2656.4934   52.7338  0.0313 -0.0039 239.2598   91.2346  5.4668  6.8988 0.1647 0.2047 2.3588    8.8172    8.3466  75.9082 1724.3600
 1724.3700 200.0000 217.2840 2662.2748   54.8598  0.0279 -0.0074 239.2176   91.5710  5.4286  6.8681 0.1633 0.2033 2.3312    8.8329    8.2957  75.8689 1724.3700
 1724.3800 200.0000 217.2840 2660.1989   55.4646  0.0292 -0.0062 239.1754   91.7326  5.3904  6.8374 0.1605 0.2005 2.4715    8.8486    8.2448  75.8296 1724.3800
 1724.3900 200.0000 217.2840 2656.6261   55.7795  0.0312 -0.0040 239.1332   91.8610  5.3522  6.8067 0.1574 0.1974 2.6439    8.8643    8.1939  75.7903 1724.3900
 1724.4000 200.0000 217.2842 2655.4501   58.3266  0.0319 -0.0033 239.0579   92.1977  5.3003  6.7733 0.1549 0.1949 2.7214    8.8823    8.1446  75.7504 1724.4000
 1724.4100 200.0000 217.2849 2659.8674   66.0825  0.0293 -0.0060 238.9053   93.0203  5.2163  6.7337 0.1534 0.1934 2.5776    8.9057    8.0991  75.7090 1724.4100
 1724.4200 200.0000 217.2856 2664.2847   73.8384  0.0267 -0.0087 238.7526   93.8429  5.1324  6.6941 0.1519 0.1919 2.4339    8.9291    8.0535  75.6675 1724.4200
 1724.4300 200.0000 217.2859 2661.1487   84.8555  0.0286 -0.0068 238.5888   95.2722  5.0437  6.6536 0.1520 0.1920 2.3688    8.9532    8.0086  75.6259 1724.4300
 1724.4400 200.0000 217.2859 2655.6271   96.9027  0.0318 -0.0034 238.4214   96.8932  4.9536  6.6128 0.1524 0.1924 2.3285    8.9776    7.9638  75.5842 1724.4400
 1724.4500 200.0000 217.2860 2647.8764  108.7854  0.0363  0.0013 238.2540   98.2147  4.8635  6.5720 0.1529 0.1929 2.3054    9.0020    7.9190  75.5425 1724.4500
 1724.4600 200.0000 217.2860 2632.2209  120.0846  0.0455  0.0108 238.0866   98.4739  4.7734  6.5312 0.1534 0.1934 2.3433    9.0264    7.8742  75.5008 1724.4600
 1724.4700 200.0000 217.2860 2616.5654  131.3838  0.0547  0.0203 237.9192   98.7331  4.6833  6.4904 0.1538 0.1938 2.3811    9.0508    7.8294  75.4591 1724.4700
 1724.4800 200.0000 217.2979 2593.7985  136.7936  0.0680  0.0341 237.7518   99.1989  4.5932  6.4496 0.1541 0.1941 2.3604    9.0752    7.7846  75.4174 1724.4800
 1724.4900 200.0000 217.3154 2567.6843  139.4314  0.0833  0.0499 237.5844   99.7621  4.5031  6.4088 0.1541 0.1941 2.3122    9.0996    7.7398  75.3757 1724.4900
 1724.5000 200.0000 217.3757 2543.4612  142.1408  0.0974  0.0646 237.4347  100.1701  4.4212  6.3724 0.1544 0.1944 2.2782    9.1242    7.7115  75.3333 1724.5000
