~Version Information Sectionhv
 VERS.      2.0         :CWLS Log ASCII Standard - version 2.0
 WRAP.      NO          :Mulitple lines per depth step
~Well Information Section
#MNEM.UNIT                      VALUE/NAME                 DESCRIPTION
#----.----     ----------------------------------   --------------------
 STRT     .M            1685.0100                         :START DEPTH
 STOP     .M            1879.9700                         :STOP DEPTH
 STEP     .M               0.0100                         :STEP
 NULL     .             -999.2500                         :NULL VALUE
 COMP     .          JORDAN PETROLEUM LIMITED             :COMPANY
 WELL     .          100052506825W500                     :WELL
 FLD      .          UNDEFINED                            :FIELD
 LOC      .                                               :LOCATION
 CNTY     .          UNKNOWN                              :COUNTY
 STAT     .          UNKNOWN                              :STATE
 CTRY     .          UNKNOWN                              :COUNTRY
 SRVC     .          UNKNOWN                              :SERVICE COMPANY
 DATE     .          UNKNOWN                              :LOG DATE
 UWI      .          100052506825W500                  :UNIQUE WELL ID
 XCOORD   .          0                                    :SURFACE X
 YCOORD   .          0                                    :SURFACE Y
 LAT      .          0                                    :LATITUDE
 LON      .          0                                    :LONGITUDE
 ELEV     .M               0.0000                         :SURFACE ELEV
 ELEV_TYPE.          KB                                   :ELEV TYPE
~Curve Information Section
#MNEM .UNIT          API CODE        CURVE DESCRIPTION
#---- .----        LG--CV-CL--M      -------------------------
 DEPTH.M                             :1 Measured Depth
 BIT  .MM               UNKNOWN      :2 BIT SIZE **MERGED**
 CAL  .MM               UNKNOWN      :3 DENSITY CALIPER
 DEN  .UNKNOWN          UNKNOWN      :4 Calculated in RESys
 DENC .UNKNOWN          UNKNOWN      :5 Calculated in RESys
 DPL  .V/V              UNKNOWN      :6 13
 DPS  .V/V              UNKNOWN      :7 11
 DTC  .GAPI             UNKNOWN      :8 3-5 FT COMPENSATED SONIC
 GR   .GAPI             UNKNOWN      :9 PNS GAMMA RAY
 MINV .OHMM             UNKNOWN      :10 MICRO-INVERSE
 MNRL .OHMM             UNKNOWN      :11 MICRO-NORMAL 2"
 NPL  .V/V              UNKNOWN      :12 14
 NPS  .V/V              UNKNOWN      :13 10
 PE   .B/E              UNKNOWN      :14 NEAR PE CURVE
 RD   .OHMM             UNKNOWN      :15 DEEP INDUCTION
 RS   .OHMM             UNKNOWN      :16 SHALLOW FE
 SP   .MV               UNKNOWN      :17 SPONTANEOUS POTENTIAL
 Z    .M                UNKNOWN      :18 DEPTH
~Parameter Information Section
#MNEM.UNIT                      VALUE                       DESCRIPTION
#----.----     ----------------------------------   --------------------
~A  DEPTH    BIT      CAL       DEN      DENC     DPL     DPS      DTC       GR      MINV    MNRL    NPL    NPS    PE       RD        RS        SP       Z     
# ...
 1827.5100 200.0000 203.8382 2643.3808   49.2007  0.0389  0.0040 228.9289  122.8048 13.8652 10.2336 0.1401 0.1801 3.2351    5.9030    7.0412  43.6793 1827.5100
 1827.5200 200.0000 203.8564 2638.8986   50.3818  0.0415  0.0067 228.9869  122.9856 13.8441 10.1147 0.1408 0.1808 3.3334    5.9325    7.0637  43.8492 1827.5200
 1827.5300 200.0000 203.8683 2626.9335   48.2679  0.0486  0.0140 229.0491  121.8588 13.8279 10.0144 0.1402 0.1802 3.3010    5.9621    7.0930  44.0008 1827.5300
 1827.5400 200.0000 203.8795 2614.1363   45.7876  0.0561  0.0217 229.1118  120.5866 13.8122  9.9162 0.1394 0.1794 3.2541    5.9918    7.1230  44.1504 1827.5400
 1827.5500 200.0000 203.8968 2605.9450   44.1575  0.0609  0.0267 229.1745  120.2783 13.7965  9.8180 0.1381 0.1781 3.2056    6.0215    7.1530  44.2999 1827.5500
 1827.5600 200.0000 203.9249 2605.9450   44.0394  0.0609  0.0267 229.2372  121.6841 13.7808  9.7198 0.1361 0.1761 3.1543    6.0512    7.1830  44.4496 1827.5600
 1827.5700 200.0000 203.9529 2605.9450   43.9213  0.0609  0.0267 229.2999  123.0899 13.7651  9.6216 0.1340 0.1740 3.1029    6.0809    7.2130  44.5992 1827.5700
 1827.5800 200.0000 203.9690 2609.3005   43.0607  0.0589  0.0247 229.3626  122.9695 13.7494  9.5234 0.1319 0.1719 2.9866    6.1106    7.2430  44.7488 1827.5800
 1827.5900 200.0000 203.9824 2613.3930   42.0371  0.0565  0.0222 229.4253  122.5139 13.7337  9.4252 0.1299 0.1699 2.8560    6.1403    7.2730  44.8984 1827.5900
 1827.6000 200.0000 203.9950 2618.2856   41.5645  0.0537  0.0192 229.4854  121.9144 13.6947  9.3126 0.1282 0.1682 2.7540    6.1698    7.3194  45.0388 1827.6000
 1827.6100 200.0000 204.0058 2625.2364   42.5094  0.0496  0.0150 229.5389  120.9447 13.5956  9.1628 0.1273 0.1673 2.7255    6.1989    7.4080  45.1557 1827.6100
 1827.6200 200.0000 204.0166 2632.1871   43.4542  0.0455  0.0108 229.5925  119.9751 13.4966  9.0130 0.1265 0.1665 2.6969    6.2279    7.4966  45.2725 1827.6200
 1827.6300 200.0000 204.0266 2636.1098   43.5252  0.0432  0.0084 229.6452  119.8144 13.3898  8.8584 0.1267 0.1667 2.8434    6.2570    7.5907  45.3864 1827.6300
 1827.6400 200.0000 204.0363 2638.9681   43.2890  0.0415  0.0067 229.6976  119.9381 13.2804  8.7022 0.1273 0.1673 3.0514    6.2860    7.6866  45.4992 1827.6400
 1827.6500 200.0000 204.0480 2640.5798   43.1630  0.0406  0.0057 229.7500  120.1535 13.1710  8.5460 0.1278 0.1678 3.2118    6.3150    7.7825  45.6120 1827.6500
 1827.6600 200.0000 204.0675 2637.2018   43.4779  0.0426  0.0078 229.8024  120.7362 13.0616  8.3898 0.1284 0.1684 3.1817    6.3440    7.8784  45.7248 1827.6600
 1827.6700 200.0000 204.0871 2633.8239   43.7929  0.0445  0.0098 229.8548  121.3189 12.9522  8.2336 0.1289 0.1689 3.1516    6.3730    7.9743  45.8376 1827.6700
 1827.6800 200.0000 204.1002 2628.1740   42.6789  0.0478  0.0132 229.9072  122.5333 12.8428  8.0774 0.1293 0.1693 3.1867    6.4020    8.0702  45.9504 1827.6800
 1827.6900 200.0000 204.1102 2621.3531   40.8286  0.0519  0.0174 229.9596  124.0733 12.7334  7.9212 0.1296 0.1696 3.2554    6.4310    8.1661  46.0632 1827.6900
 1827.7000 200.0000 204.1202 2615.3967   39.1434  0.0554  0.0210 230.0186  125.5329 12.6051  7.7729 0.1299 0.1699 3.3218    6.4592    8.2637  46.1594 1827.7000
 1827.7100 200.0000 204.1313 2615.7865   38.6709  0.0551  0.0207 230.1264  126.4016 12.3383  7.6824 0.1310 0.1710 3.3715    6.4819    8.3735  46.1339 1827.7100
 1827.7200 200.0000 204.1424 2616.1763   38.1985  0.0549  0.0205 230.2341  127.2704 12.0716  7.5920 0.1321 0.1721 3.4212    6.5045    8.4833  46.1083 1827.7200
 1827.7300 200.0000 204.1480 2619.9939   39.1187  0.0527  0.0182 230.3435  127.2963 11.8003  7.5034 0.1338 0.1738 3.4349    6.5269    8.5935  46.0788 1827.7300
 1827.7400 200.0000 204.1495 2626.2951   41.0478  0.0490  0.0144 230.4540  126.7116 11.5257  7.4162 0.1358 0.1758 3.4225    6.5492    8.7040  46.0464 1827.7400
 1827.7500 200.0000 204.1510 2632.4408   42.9487  0.0453  0.0106 230.5645  126.1974 11.2510  7.3290 0.1377 0.1777 3.4027    6.5715    8.8145  46.0140 1827.7500
 1827.7600 200.0000 204.1510 2634.8444   44.1691  0.0439  0.0092 230.6750  127.3800 10.9764  7.2418 0.1388 0.1788 3.2044    6.5938    8.9250  45.9816 1827.7600
 1827.7700 200.0000 204.1510 2637.2479   45.3896  0.0425  0.0077 230.7855  128.5626 10.7018  7.1546 0.1398 0.1798 3.0062    6.6161    9.0355  45.9492 1827.7700
 1827.7800 200.0000 204.1457 2637.0530   46.1969  0.0426  0.0078 230.8951  130.4053 10.4291  7.0678 0.1397 0.1797 3.0602    6.6383    9.1456  45.9158 1827.7800
 1827.7900 200.0000 204.1351 2634.2597   46.5906  0.0443  0.0095 231.0038  132.9074 10.1585  6.9814 0.1386 0.1786 3.3664    6.6604    9.2553  45.8814 1827.7900
 1827.8000 200.0000 204.1244 2631.4664   46.9843  0.0459  0.0112 231.1125  135.4094  9.8878  6.8949 0.1375 0.1775 3.6727    6.6825    9.3649  45.8471 1827.8000
 1827.8100 200.0000 204.1251 2633.2261   46.1684  0.0449  0.0102 231.1113  135.9917  9.8522  6.8565 0.1371 0.1771 3.6578    6.6941    9.4257  45.6956 1827.8100
 1827.8200 200.0000 204.1262 2635.1749   45.3023  0.0438  0.0090 231.1056  136.4942  9.8264  6.8200 0.1367 0.1767 3.6296    6.7052    9.4844  45.5392 1827.8200
 1827.8300 200.0000 204.1264 2633.4122   44.0061  0.0448  0.0101 231.0999  136.6386  9.8006  6.7835 0.1368 0.1768 3.6060    6.7163    9.5431  45.3828 1827.8300
 1827.8400 200.0000 204.1253 2626.5263   42.1163  0.0488  0.0142 231.0942  136.2888  9.7748  6.7470 0.1377 0.1777 3.5887    6.7274    9.6018  45.2264 1827.8400
 1827.8500 200.0000 204.1242 2619.6405   40.2266  0.0528  0.0184 231.0885  135.9389  9.7490  6.7105 0.1385 0.1785 3.5714    6.7385    9.6605  45.0700 1827.8500
 1827.8600 200.0000 204.1250 2621.5593   39.8268  0.0517  0.0172 231.0828  135.8604  9.7232  6.6740 0.1391 0.1791 3.6077    6.7496    9.7192  44.9136 1827.8600
 1827.8700 200.0000 204.1261 2624.6774   39.6299  0.0499  0.0153 231.0771  135.8188  9.6974  6.6375 0.1396 0.1796 3.6513    6.7607    9.7779  44.7572 1827.8700
 1827.8800 200.0000 204.1264 2622.3384   38.5225  0.0513  0.0168 231.0680  135.5134  9.6715  6.6028 0.1396 0.1796 3.6536    6.7714    9.8361  44.5992 1827.8800
 1827.8900 200.0000 204.1253 2609.4113   35.6485  0.0588  0.0246 231.0524  134.6965  9.6452  6.5717 0.1387 0.1787 3.5757    6.7815    9.8935  44.4382 1827.8900
 1827.9000 200.0000 204.1242 2596.4841   32.7745  0.0664  0.0324 231.0367  133.8795  9.6189  6.5406 0.1379 0.1779 3.4979    6.7916    9.9508  44.2772 1827.9000
 1827.9100 200.0000 204.1247 2599.8252   32.8930  0.0644  0.0304 230.9278  131.6304  9.5881  6.5598 0.1363 0.1763 3.4897    6.7920    9.9953  44.0731 1827.9100
 1827.9200 200.0000 204.1256 2607.2306   33.7591  0.0601  0.0259 230.7956  129.0234  9.5562  6.5916 0.1345 0.1745 3.4990    6.7900   10.0366  43.8582 1827.9200
 1827.9300 200.0000 204.1288 2612.1524   33.9290  0.0572  0.0229 230.6634  126.4944  9.5243  6.6234 0.1328 0.1728 3.4695    6.7880   10.0779  43.6433 1827.9300
 1827.9400 200.0000 204.1386 2610.0087   32.1179  0.0585  0.0242 230.5312  124.1871  9.4924  6.6552 0.1313 0.1713 3.3297    6.7860   10.1192  43.4284 1827.9400
 1827.9500 200.0000 204.1483 2607.8650   30.3069  0.0597  0.0255 230.3990  121.8797  9.4605  6.6870 0.1298 0.1698 3.1898    6.7840   10.1605  43.2135 1827.9500
 1827.9600 200.0000 204.1578 2618.7255   31.4443  0.0534  0.0190 230.2668  119.2008  9.4286  6.7188 0.1289 0.1689 3.1380    6.7820   10.2018  42.9986 1827.9600
 1827.9700 200.0000 204.1673 2634.6408   33.7278  0.0441  0.0093 230.1346  116.3774  9.3967  6.7506 0.1283 0.1683 3.1204    6.7800   10.2431  42.7837 1827.9700
 1827.9800 200.0000 204.1750 2647.5730   35.4086  0.0365  0.0015 229.9969  113.5686  9.3663  6.7819 0.1279 0.1679 3.1121    6.7778   10.2837  42.5684 1827.9800
 1827.9900 200.0000 204.1750 2646.9234   34.3456  0.0369  0.0019 229.8342  110.8258  9.3428  6.8106 0.1283 0.1683 3.1468    6.7745   10.3206  42.3514 1827.9900
 1828.0000 200.0000 204.1750 2646.2738   33.2826  0.0373  0.0023 229.6715  108.0831  9.3193  6.8393 0.1287 0.1687 3.1814    6.7712   10.3576  42.1343 1828.0000
