~Version Information Sectionhv
 VERS.      2.0         :CWLS Log ASCII Standard - version 2.0
 WRAP.      NO          :Mulitple lines per depth step
~Well Information Section
#MNEM.UNIT                      VALUE/NAME                 DESCRIPTION
#----.----     ----------------------------------   --------------------
 STRT     .M            1685.0100                         :START DEPTH
 STOP     .M            1879.9700                         :STOP DEPTH
 STEP     .M               0.0100                         :STEP
 NULL     .             -999.2500                         :NULL VALUE
 COMP     .          JORDAN PETROLEUM LIMITED             :COMPANY
 WELL     .          100052506825W500                     :WELL
 FLD      .          UNDEFINED                            :FIELD
 LOC      .                                               :LOCATION
 CNTY     .          UNKNOWN                              :COUNTY
 STAT     .          UNKNOWN                              :STATE
 CTRY     .          UNKNOWN                              :COUNTRY
 SRVC     .          UNKNOWN                              :SERVICE COMPANY
 DATE     .          UNKNOWN                              :LOG DATE
 UWI      .          100052506825W500                  :UNIQUE WELL ID
 XCOORD   .          0                                    :SURFACE X
 YCOORD   .          0                                    :SURFACE Y
 LAT      .          0                                    :LATITUDE
 LON      .          0                                    :LONGITUDE
 ELEV     .M               0.0000                         :SURFACE ELEV
 ELEV_TYPE.          KB                                   :ELEV TYPE
~Curve Information Section
#MNEM .UNIT          API CODE        CURVE DESCRIPTION
#---- .----        LG--CV-CL--M      -------------------------
 DEPTH.M                             :1 Measured Depth
 BIT  .MM               UNKNOWN      :2 BIT SIZE **MERGED**
 CAL  .MM               UNKNOWN      :3 DENSITY CALIPER
 DEN  .UNKNOWN          UNKNOWN      :4 Calculated in RESys
 DENC .UNKNOWN          UNKNOWN      :5 Calculated in RESys
 DPL  .V/V              UNKNOWN      :6 13
 DPS  .V/V              UNKNOWN      :7 11
 DTC  .GAPI             UNKNOWN      :8 3-5 FT COMPENSATED SONIC
 GR   .GAPI             UNKNOWN      :9 PNS GAMMA RAY
 MINV .OHMM             UNKNOWN      :10 MICRO-INVERSE
 MNRL .OHMM             UNKNOWN      :11 MICRO-NORMAL 2"
 NPL  .V/V              UNKNOWN      :12 14
 NPS  .V/V              UNKNOWN      :13 10
 PE   .B/E              UNKNOWN      :14 NEAR PE CURVE
 RD   .OHMM             UNKNOWN      :15 DEEP INDUCTION
 RS   .OHMM             UNKNOWN      :16 SHALLOW FE
 SP   .MV               UNKNOWN      :17 SPONTANEOUS POTENTIAL
 Z    .M                UNKNOWN      :18 DEPTH
~Parameter Information Section
#MNEM.UNIT                      VALUE                       DESCRIPTION
#----.----     ----------------------------------   --------------------
~A  DEPTH    BIT      CAL       DEN      DENC     DPL     DPS      DTC       GR      MINV    MNRL    NPL    NPS    PE       RD        RS        SP       Z     
# ...
 1840.5100 200.0000 201.2074 2590.5023   42.0178  0.0698  0.0361 216.0263   85.8631  9.0102  6.2661 0.1273 0.1673 2.7842    4.5890    5.6135  25.0268 1840.5100
 1840.5200 200.0000 201.0848 2599.3369   45.9942  0.0647  0.0307 215.9056   86.8655  9.0294  6.3072 0.1254 0.1654 2.6996    4.5930    5.5970  24.9376 1840.5200
 1840.5300 200.0000 200.9557 2604.6510   49.5901  0.0616  0.0275 215.7849   86.7447  9.0486  6.3483 0.1242 0.1642 2.6872    4.5970    5.5805  24.8484 1840.5300
 1840.5400 200.0000 200.8177 2605.1058   52.6610  0.0613  0.0272 215.6642   85.0734  9.0678  6.3894 0.1241 0.1641 2.7745    4.6010    5.5640  24.7592 1840.5400
 1840.5500 200.0000 200.6797 2605.5605   55.7318  0.0610  0.0269 215.5435   83.4021  9.0870  6.4305 0.1239 0.1639 2.8618    4.6050    5.5475  24.6700 1840.5500
 1840.5600 200.0000 200.5879 2594.6951   56.8970  0.0674  0.0335 215.4228   81.6217  9.1062  6.4716 0.1243 0.1643 2.8420    4.6090    5.5310  24.5808 1840.5600
 1840.5700 200.0000 200.5023 2582.2876   57.8025  0.0747  0.0410 215.3021   79.8264  9.1254  6.5127 0.1248 0.1648 2.8076    4.6130    5.5145  24.4916 1840.5700
 1840.5800 200.0000 200.3958 2572.1779   59.3909  0.0806  0.0472 215.1777   78.0859  9.1423  6.5522 0.1253 0.1653 2.7927    4.6171    5.4982  24.4064 1840.5800
 1840.5900 200.0000 200.2488 2566.5263   62.3042  0.0839  0.0506 215.0461   76.4516  9.1546  6.5885 0.1259 0.1659 2.8158    4.6214    5.4822  24.3291 1840.5900
 1840.6000 200.0000 200.1019 2560.8747   65.2176  0.0872  0.0540 214.9146   74.8174  9.1669  6.6248 0.1266 0.1666 2.8388    4.6256    5.4663  24.2518 1840.6000
 1840.6100 200.0000 199.9418 2556.0548   68.8870  0.0900  0.0569 214.6814   73.7942  9.1149  6.6165 0.1273 0.1673 2.7947    4.6323    5.4557  24.2860 1840.6100
 1840.6200 200.0000 199.7785 2551.4426   72.7453  0.0927  0.0597 214.4228   72.9236  9.0468  6.5970 0.1280 0.1680 2.7338    4.6396    5.4464  24.3480 1840.6200
 1840.6300 200.0000 199.6398 2545.4956   76.2144  0.0962  0.0633 214.1641   72.3491  8.9787  6.5775 0.1286 0.1686 2.6826    4.6469    5.4371  24.4100 1840.6300
 1840.6400 200.0000 199.5710 2535.7515   78.5766  0.1019  0.0692 213.9056   72.6166  8.9106  6.5580 0.1292 0.1692 2.6591    4.6542    5.4278  24.4720 1840.6400
 1840.6500 200.0000 199.5022 2526.0074   80.9388  0.1076  0.0751 213.6470   72.8840  8.8425  6.5385 0.1297 0.1697 2.6356    4.6615    5.4185  24.5340 1840.6500
 1840.6600 200.0000 199.4769 2518.3684   83.2726  0.1121  0.0798 213.3884   72.8867  8.7744  6.5190 0.1300 0.1700 2.6916    4.6688    5.4092  24.5960 1840.6600
 1840.6700 200.0000 199.4686 2511.5475   85.5955  0.1160  0.0839 213.1297   72.7864  8.7063  6.4995 0.1301 0.1701 2.7785    4.6761    5.3999  24.6580 1840.6700
 1840.6800 200.0000 199.4589 2506.4229   88.3579  0.1190  0.0870 212.8777   72.5016  8.6380  6.4792 0.1302 0.1702 2.8477    4.6835    5.3910  24.7252 1840.6800
 1840.6900 200.0000 199.4426 2509.0214   93.1217  0.1175  0.0854 212.6556   71.3764  8.5684  6.4554 0.1302 0.1702 2.8363    4.6913    5.3838  24.8162 1840.6900
 1840.7000 200.0000 199.4264 2511.6198   97.8854  0.1160  0.0839 212.4335   70.2513  8.4988  6.4316 0.1303 0.1703 2.8248    4.6990    5.3765  24.9072 1840.7000
 1840.7100 200.0000 199.3953 2512.7213  101.9688  0.1154  0.0832 212.3528   70.1269  8.4234  6.3911 0.1306 0.1706 2.7884    4.7086    5.3773  25.1106 1840.7100
 1840.7200 200.0000 199.3559 2512.9812  105.6696  0.1152  0.0830 212.3516   70.5652  8.3448  6.3412 0.1309 0.1709 2.7381    4.7192    5.3826  25.3772 1840.7200
 1840.7300 200.0000 199.3149 2512.2464  108.9842  0.1157  0.0835 212.3504   70.9274  8.2662  6.2913 0.1313 0.1713 2.6917    4.7298    5.3879  25.6438 1840.7300
 1840.7400 200.0000 199.2601 2502.5672  108.8268  0.1213  0.0894 212.3492   70.6043  8.1876  6.2414 0.1316 0.1716 2.6819    4.7404    5.3932  25.9104 1840.7400
 1840.7500 200.0000 199.2053 2492.8881  108.6693  0.1270  0.0952 212.3480   70.2812  8.1090  6.1915 0.1318 0.1718 2.6720    4.7510    5.3985  26.1770 1840.7500
 1840.7600 200.0000 199.1763 2485.6466  108.1590  0.1312  0.0996 212.3468   70.3094  8.0304  6.1416 0.1315 0.1715 2.6496    4.7616    5.4038  26.4436 1840.7600
 1840.7700 200.0000 199.1676 2480.3199  107.3716  0.1344  0.1028 212.3456   70.6134  7.9518  6.0917 0.1308 0.1708 2.6172    4.7722    5.4091  26.7102 1840.7700
 1840.7800 200.0000 199.1590 2475.1169  106.5905  0.1374  0.1060 212.3444   70.9012  7.8733  6.0418 0.1301 0.1701 2.5854    4.7828    5.4145  26.9775 1840.7800
 1840.7900 200.0000 199.1578 2475.9614  106.1181  0.1369  0.1055 212.3425   70.3912  7.7978  5.9923 0.1289 0.1689 2.5811    4.7941    5.4221  27.2764 1840.7900
 1840.8000 200.0000 199.1565 2476.8059  105.6456  0.1364  0.1050 212.3407   69.8812  7.7223  5.9428 0.1276 0.1676 2.5768    4.8053    5.4297  27.5752 1840.8000
 1840.8100 200.0000 199.1545 2481.2679  105.1165  0.1338  0.1023 212.3375   69.3893  7.6525  5.8941 0.1269 0.1669 2.5585    4.8179    5.4418  27.9342 1840.8100
 1840.8200 200.0000 199.1515 2489.6478  104.5260  0.1289  0.0972 212.3330   68.9172  7.5890  5.8462 0.1268 0.1668 2.5250    4.8318    5.4586  28.3585 1840.8200
 1840.8300 200.0000 199.1485 2498.0277  103.9354  0.1240  0.0921 212.3285   68.4450  7.5255  5.7983 0.1266 0.1666 2.4914    4.8457    5.4754  28.7827 1840.8300
 1840.8400 200.0000 199.1582 2499.6292   98.5336  0.1230  0.0911 212.3240   69.1452  7.4620  5.7504 0.1276 0.1676 2.4897    4.8596    5.4922  29.2068 1840.8400
 1840.8500 200.0000 199.1687 2500.7985   92.8249  0.1223  0.0904 212.3195   69.9202  7.3985  5.7025 0.1287 0.1687 2.4899    4.8735    5.5090  29.6310 1840.8500
 1840.8600 200.0000 199.1851 2503.7869   87.0848  0.1206  0.0886 212.3150   70.8254  7.3350  5.6546 0.1297 0.1697 2.4714    4.8874    5.5258  30.0552 1840.8600
 1840.8700 200.0000 199.2105 2509.5034   81.2974  0.1172  0.0851 212.3105   71.9257  7.2715  5.6067 0.1307 0.1707 2.4247    4.9013    5.5426  30.4794 1840.8700
 1840.8800 200.0000 199.2359 2515.2199   75.5100  0.1139  0.0817 212.3060   73.0260  7.2080  5.5588 0.1318 0.1718 2.3779    4.9152    5.5594  30.9036 1840.8800
 1840.8900 200.0000 199.2753 2519.7074   70.5014  0.1113  0.0790 212.3275   73.9317  7.1019  5.5065 0.1324 0.1724 2.3990    4.9300    5.5803  31.3362 1840.8900
 1840.9000 200.0000 199.3170 2523.9947   65.6195  0.1088  0.0764 212.3531   74.8058  6.9889  5.4534 0.1329 0.1729 2.4310    4.9450    5.6019  31.7702 1840.9000
 1840.9100 200.0000 199.3615 2527.4505   60.9770  0.1068  0.0743 212.4052   75.8542  6.8326  5.3958 0.1334 0.1734 2.4690    4.9609    5.6275  32.2127 1840.9100
 1840.9200 200.0000 199.4118 2529.1395   56.8432  0.1058  0.0732 212.5134   77.2729  6.5842  5.3286 0.1338 0.1738 2.5195    4.9788    5.6620  32.6735 1840.9200
 1840.9300 200.0000 199.4621 2530.8285   52.7093  0.1048  0.0722 212.6216   78.6916  6.3358  5.2614 0.1341 0.1741 2.5700    4.9967    5.6965  33.1342 1840.9300
 1840.9400 200.0000 199.5342 2529.6799   48.4833  0.1055  0.0729 212.7298   79.5285  6.0874  5.1942 0.1338 0.1738 2.5367    5.0146    5.7310  33.5948 1840.9400
 1840.9500 200.0000 199.6124 2527.7310   44.2314  0.1066  0.0741 212.8380   80.2013  5.8390  5.1270 0.1334 0.1734 2.4798    5.0325    5.7655  34.0555 1840.9500
 1840.9600 200.0000 199.7016 2527.1700   40.2156  0.1070  0.0744 212.9462   81.1640  5.5906  5.0598 0.1326 0.1726 2.4440    5.0504    5.8000  34.5162 1840.9600
 1840.9700 200.0000 199.8253 2531.0026   36.9479  0.1047  0.0721 213.0544   83.0447  5.3422  4.9926 0.1311 0.1711 2.4749    5.0683    5.8345  34.9769 1840.9700
 1840.9800 200.0000 199.9491 2534.8353   33.6802  0.1025  0.0698 213.1626   84.9254  5.0938  4.9254 0.1296 0.1696 2.5058    5.0862    5.8690  35.4376 1840.9800
 1840.9900 200.0000 200.0895 2541.8057   31.9559  0.0984  0.0656 213.2774   86.7537  4.9021  4.8714 0.1280 0.1680 2.5758    5.1051    5.9067  35.8880 1840.9900
 1841.0000 200.0000 200.2371 2550.1206   30.8929  0.0935  0.0605 213.3950   88.5595  4.7348  4.8231 0.1263 0.1663 2.6626    5.1243    5.9458  36.3340 1841.0000
