~Version Information Sectionhv
 VERS.      2.0         :CWLS Log ASCII Standard - version 2.0
 WRAP.      NO          :Mulitple lines per depth step
~Well Information Section
#MNEM.UNIT                      VALUE/NAME                 DESCRIPTION
#----.----     ----------------------------------   --------------------
 STRT     .M            1685.0100                         :START DEPTH
 STOP     .M            1879.9700                         :STOP DEPTH
 STEP     .M               0.0100                         :STEP
 NULL     .             -999.2500                         :NULL VALUE
 COMP     .          JORDAN PETROLEUM LIMITED             :COMPANY
 WELL     .          100052506825W500                     :WELL
 FLD      .          UNDEFINED                            :FIELD
 LOC      .                                               :LOCATION
 CNTY     .          UNKNOWN                              :COUNTY
 STAT     .          UNKNOWN                              :STATE
 CTRY     .          UNKNOWN                              :COUNTRY
 SRVC     .          UNKNOWN                              :SERVICE COMPANY
 DATE     .          UNKNOWN                              :LOG DATE
 UWI      .          100052506825W500                  :UNIQUE WELL ID
 XCOORD   .          0                                    :SURFACE X
 YCOORD   .          0                                    :SURFACE Y
 LAT      .          0                                    :LATITUDE
 LON      .          0                                    :LONGITUDE
 ELEV     .M               0.0000                         :SURFACE ELEV
 ELEV_TYPE.          KB                                   :ELEV TYPE
~Curve Information Section
#MNEM .UNIT          API CODE        CURVE DESCRIPTION
#---- .----        LG--CV-CL--M      -------------------------
 DEPTH.M                             :1 Measured Depth
 BIT  .MM               UNKNOWN      :2 BIT SIZE **MERGED**
 CAL  .MM               UNKNOWN      :3 DENSITY CALIPER
 DEN  .UNKNOWN          UNKNOWN      :4 Calculated in RESys
 DENC .UNKNOWN          UNKNOWN      :5 Calculated in RESys
 DPL  .V/V              UNKNOWN      :6 13
 DPS  .V/V              UNKNOWN      :7 11
 DTC  .GAPI             UNKNOWN      :8 3-5 FT COMPENSATED SONIC
 GR   .GAPI             UNKNOWN      :9 PNS GAMMA RAY
 MINV .OHMM             UNKNOWN      :10 MICRO-INVERSE
 MNRL .OHMM             UNKNOWN      :11 MICRO-NORMAL 2"
 NPL  .V/V              UNKNOWN      :12 14
 NPS  .V/V              UNKNOWN      :13 10
 PE   .B/E              UNKNOWN      :14 NEAR PE CURVE
 RD   .OHMM             UNKNOWN      :15 DEEP INDUCTION
 RS   .OHMM             UNKNOWN      :16 SHALLOW FE
 SP   .MV               UNKNOWN      :17 SPONTANEOUS POTENTIAL
 Z    .M                UNKNOWN      :18 DEPTH
~Parameter Information Section
#MNEM.UNIT                      VALUE                       DESCRIPTION
#----.----     ----------------------------------   --------------------
~A  DEPTH    BIT      CAL       DEN      DENC     DPL     DPS      DTC       GR      MINV    MNRL    NPL    NPS    PE       RD        RS        SP       Z     
# ...
 1879.5100 200.0000 200.0040 2656.0943   34.1385  0.0315 -0.0037 221.5236  105.3488  3.8769  7.0879 0.0968 0.1368 2.9250   13.1767   14.3361  36.8348 1879.5100
 1879.5200 200.0000 200.0198 2661.6159   35.7826  0.0283 -0.0070 221.2420  105.9201  3.8794  7.0906 0.0953 0.1353 2.9054   13.1564   14.3212  36.6282 1879.5200
 1879.5300 200.0000 200.0391 2667.1376   37.6723  0.0251 -0.0104 220.9070  106.7018  3.8806  7.0924 0.0930 0.1330 2.8983   13.1351   14.3033  36.4158 1879.5300
 1879.5400 200.0000 200.0583 2672.6592   39.5621  0.0219 -0.0137 220.5720  107.4836  3.8818  7.0942 0.0908 0.1308 2.8913   13.1138   14.2854  36.2035 1879.5400
 1879.5500 200.0000 200.0787 2672.1971   39.3299  0.0221 -0.0135 220.2370  106.8995  3.8830  7.0960 0.0883 0.1283 2.9564   13.0925   14.2675  35.9911 1879.5500
 1879.5600 200.0000 200.0992 2671.6124   39.0544  0.0224 -0.0131 219.9020  106.2875  3.8842  7.0978 0.0858 0.1258 3.0229   13.0712   14.2496  35.7787 1879.5600
 1879.5700 200.0000 200.0622 2669.0559   38.1206  0.0239 -0.0115 219.5670  105.4715  3.8854  7.0996 0.0842 0.1242 3.0630   13.0499   14.2317  35.5663 1879.5700
 1879.5800 200.0000 199.9521 2663.9890   36.3490  0.0269 -0.0085 219.2320  104.3958  3.8866  7.1014 0.0838 0.1238 3.0695   13.0286   14.2138  35.3539 1879.5800
 1879.5900 200.0000 199.8420 2658.9221   34.5773  0.0299 -0.0054 218.8970  103.3201  3.8878  7.1032 0.0833 0.1233 3.0759   13.0073   14.1959  35.1415 1879.5900
 1879.6000 200.0000 199.6378 2651.9845   33.1954  0.0340 -0.0012 218.1199  103.9091  3.8869  7.1028 0.0848 0.1248 3.0659   12.9809   14.1748  34.9300 1879.6000
 1879.6100 200.0000 199.4232 2644.8388   31.8568  0.0381  0.0031 217.2936  104.6832  3.8859  7.1021 0.0864 0.1264 3.0540   12.9538   14.1533  34.7187 1879.6100
 1879.6200 200.0000 199.1890 2640.0780   31.1417  0.0409  0.0060 216.3703  105.2138  3.8844  7.1010 0.0881 0.1281 3.0611   12.9256   14.1310  34.5077 1879.6200
 1879.6300 200.0000 198.9200 2639.5583   31.5354  0.0412  0.0063 215.2744  105.3112  3.8821  7.0990 0.0900 0.1300 3.1019   12.8954   14.1075  34.2970 1879.6300
 1879.6400 200.0000 198.6509 2639.0386   31.9291  0.0415  0.0066 214.1785  105.4086  3.8798  7.0970 0.0919 0.1319 3.1427   12.8652   14.0840  34.0862 1879.6400
 1879.6500 200.0000 198.3823 2637.2406   32.7747  0.0426  0.0077 213.0826  105.2753  3.8775  7.0950 0.0937 0.1337 3.1026   12.8350   14.0605  33.8755 1879.6500
 1879.6600 200.0000 198.1136 2635.1619   33.7196  0.0437  0.0090 211.9867  105.0914  3.8752  7.0930 0.0955 0.1355 3.0447   12.8048   14.0370  33.6648 1879.6600
 1879.6700 200.0000 197.8436 2634.4832   34.6204  0.0441  0.0094 210.8908  104.9590  3.8729  7.0910 0.0975 0.1375 3.0184   12.7746   14.0135  33.4541 1879.6700
 1879.6800 200.0000 197.5700 2637.4065   35.4078  0.0424  0.0076 209.7949  104.9590  3.8706  7.0890 0.0998 0.1398 3.0736   12.7444   13.9900  33.2434 1879.6800
 1879.6900 200.0000 197.2964 2640.3297   36.1952  0.0407  0.0059 208.6990  104.9590  3.8683  7.0870 0.1022 0.1422 3.1288   12.7142   13.9665  33.0327 1879.6900
 1879.7000 200.0000 196.9782 2642.5800   37.2156  0.0394  0.0045 208.0410 -999.2500  3.8666  7.0853 0.1045 0.1445 3.1167   12.6808   13.9374  32.8419 1879.7000
 1879.7100 200.0000 196.6443 2644.5938   38.3180  0.0382  0.0033 207.5368 -999.2500  3.8650  7.0836 0.1068 0.1468 3.0810   12.6463   13.9063  32.6581 1879.7100
 1879.7200 200.0000 196.3063 2646.9711   39.5542  0.0369  0.0018 207.0812 -999.2500  3.8636  7.0820 0.1088 0.1488 3.0546   12.6114   13.8746  32.4765 1879.7200
 1879.7300 200.0000 195.9518 2650.8038   41.3258  0.0346 -0.0005 206.8203 -999.2500  3.8624  7.0805 0.1091 0.1491 3.0648   12.5751   13.8404  32.3036 1879.7300
 1879.7400 200.0000 195.5972 2654.6365   43.0974  0.0324 -0.0028 206.5594 -999.2500  3.8612  7.0790 0.1094 0.1494 3.0751   12.5388   13.8062  32.1308 1879.7400
 1879.7500 200.0000 195.3050 2656.2401   44.2456  0.0314 -0.0038 206.2985 -999.2500  3.8600  7.0775 0.1080 0.1480 3.0722   12.5025   13.7720  31.9580 1879.7500
 1879.7600 200.0000 195.0448 2656.6948   45.0724  0.0311 -0.0041 206.0376 -999.2500  3.8588  7.0760 0.1057 0.1457 3.0624   12.4662   13.7378  31.7852 1879.7600
 1879.7700 200.0000 194.7954 2657.3520   45.9888  0.0308 -0.0045 205.7767 -999.2500  3.8576  7.0745 0.1033 0.1433 3.0558   12.4299   13.7036  31.6124 1879.7700
 1879.7800 200.0000 194.6241 2659.4957   47.5636  0.0295 -0.0058 205.5158 -999.2500  3.8564  7.0730 0.1003 0.1403 3.0728   12.3936   13.6694  31.4396 1879.7800
 1879.7900 200.0000 194.4528 2661.6394   49.1384  0.0283 -0.0071 205.2549 -999.2500  3.8552  7.0715 0.0973 0.1373 3.0899   12.3573   13.6352  31.2668 1879.7900
 1879.8000 200.0000 194.3715 2663.5947   50.2566  0.0272 -0.0082 205.0215 -999.2500  3.8543  7.0702 0.0952 0.1352 3.1692   12.3197   13.5920  31.1133 1879.8000
 1879.8100 200.0000 194.3553 2665.4136   51.0440  0.0261 -0.0093 204.8081 -999.2500  3.8535  7.0691 0.0937 0.1337 3.2936   12.2810   13.5423  30.9739 1879.8100
 1879.8200 200.0000 194.3411 2667.0952   51.7906  0.0251 -0.0104 204.5952 -999.2500  3.8528  7.0680 0.0923 0.1323 3.4127   12.2422   13.4924  30.8348 1879.8200
 1879.8300 200.0000 194.3747 2665.4712   51.5544  0.0261 -0.0094 204.3958 -999.2500  3.8522  7.0670 0.0926 0.1326 3.4037   12.2028   13.4381  30.7052 1879.8300
 1879.8400 200.0000 194.4082 2663.8472   51.3181  0.0270 -0.0084 204.1964 -999.2500  3.8516  7.0660 0.0929 0.1329 3.3947   12.1634   13.3838  30.5756 1879.8400
 1879.8500 200.0000 194.5047 2662.4827   51.0031  0.0278 -0.0076 203.9970 -999.2500  3.8510  7.0650 0.0931 0.1331 3.3579   12.1240   13.3294  30.4460 1879.8500
 1879.8600 200.0000 194.6641 2661.3784   50.6094  0.0284 -0.0069 203.7976 -999.2500  3.8504  7.0640 0.0934 0.1334 3.2933   12.0846   13.2752  30.3164 1879.8600
 1879.8700 200.0000 194.8234 2660.2740   50.2157  0.0291 -0.0062 203.5982 -999.2500  3.8498  7.0630 0.0936 0.1336 3.2287   12.0452   13.2209  30.1868 1879.8700
 1879.8800 200.0000 195.1087 2658.6708   50.1244  0.0300 -0.0053 203.3987 -999.2500  3.8492  7.0620 0.0934 0.1334 3.2505   12.0058   13.1666  30.0572 1879.8800
 1879.8900 200.0000 195.3992 2657.0467   50.0457  0.0310 -0.0043 203.1993 -999.2500  3.8486  7.0610 0.0933 0.1333 3.2760   11.9664   13.1123  29.9276 1879.8900
 1879.9000 200.0000 195.6990 2656.1596   50.5624  0.0315 -0.0037 203.0247 -999.2500  3.8479  7.0599 0.0929 0.1329 3.3065   11.9274   13.0591  29.8080 1879.9000
 1879.9100 200.0000 196.0118 2656.2895   51.9009  0.0314 -0.0038 202.8844 -999.2500  3.8471  7.0586 0.0921 0.1321 3.3441   11.8891   13.0075  29.7023 1879.9100
 1879.9200 200.0000 196.3246 2656.4194   53.2395  0.0313 -0.0039 202.7440 -999.2500  3.8462  7.0574 0.0914 0.1314 3.3818   11.8508   12.9559  29.5966 1879.9200
 1879.9300 200.0000 196.6967 2656.1491   54.8206  0.0315 -0.0037 202.6139 -999.2500  3.8453  7.0561 0.0899 0.1299 3.4261   11.8127   12.9047  29.4950 1879.9300
 1879.9400 200.0000 197.0768 2655.8243   56.4348  0.0317 -0.0035 202.4852 -999.2500  3.8444  7.0548 0.0883 0.1283 3.4713   11.7746   12.8536  29.3940 1879.9400
 1879.9500 200.0000 197.4523 2654.0414   57.6875  0.0327 -0.0024 202.3565 -999.2500  3.8435  7.0535 0.0870 0.1270 3.4777   11.7365   12.8025  29.2930 1879.9500
 1879.9600 200.0000 197.8187 2649.4292   58.2386  0.0354  0.0003 202.2278 -999.2500  3.8426  7.0522 0.0862 0.1262 3.4087   11.6984   12.7514  29.1920 1879.9600
 1879.9700 200.0000 198.1851 2644.8170   58.7898  0.0382  0.0031 202.0991 -999.2500  3.8417  7.0509 0.0855 0.1255 3.3398   11.6603   12.7003  29.0910 1879.9700
