~Version Information Sectionhv
 VERS.      2.0         :CWLS Log ASCII Standard - version 2.0
 WRAP.      NO          :Mulitple lines per depth step
~Well Information Section
#MNEM.UNIT                      VALUE/NAME                 DESCRIPTION
#----.----     ----------------------------------   --------------------
 STRT     .M            1685.0100                         :START DEPTH
 STOP     .M            1879.9700                         :STOP DEPTH
 STEP     .M               0.0100                         :STEP
 NULL     .             -999.2500                         :NULL VALUE
 COMP     .          JORDAN PETROLEUM LIMITED             :COMPANY
 WELL     .          100052506825W500                     :WELL
 FLD      .          UNDEFINED                            :FIELD
 LOC      .                                               :LOCATION
 CNTY     .          UNKNOWN                              :COUNTY
 STAT     .          UNKNOWN                              :STATE
 CTRY     .          UNKNOWN                              :COUNTRY
 SRVC     .          UNKNOWN                              :SERVICE COMPANY
 DATE     .          UNKNOWN                              :LOG DATE
 UWI      .          100052506825W500                  :UNIQUE WELL ID
 XCOORD   .          0                                    :SURFACE X
 YCOORD   .          0                                    :SURFACE Y
 LAT      .          0                                    :LATITUDE
 LON      .          0                                    :LONGITUDE
 ELEV     .M               0.0000                         :SURFACE ELEV
 ELEV_TYPE.          KB                                   :ELEV TYPE
~Curve Information Section
#MNEM .UNIT          API CODE        CURVE DESCRIPTION
#---- .----        LG--CV-CL--M      -------------------------
 DEPTH.M                             :1 Measured Depth
 BIT  .MM               UNKNOWN      :2 BIT SIZE **MERGED**
 CAL  .MM               UNKNOWN      :3 DENSITY CALIPER
 DEN  .UNKNOWN          UNKNOWN      :4 Calculated in RESys
 DENC .UNKNOWN          UNKNOWN      :5 Calculated in RESys
 DPL  .V/V              UNKNOWN      :6 13
 DPS  .V/V              UNKNOWN      :7 11
 DTC  .GAPI             UNKNOWN      :8 3-5 FT COMPENSATED SONIC
 GR   .GAPI             UNKNOWN      :9 PNS GAMMA RAY
 MINV .OHMM             UNKNOWN      :10 MICRO-INVERSE
 MNRL .OHMM             UNKNOWN      :11 MICRO-NORMAL 2"
 NPL  .V/V              UNKNOWN      :12 14
 NPS  .V/V              UNKNOWN      :13 10
 PE   .B/E              UNKNOWN      :14 NEAR PE CURVE
 RD   .OHMM             UNKNOWN      :15 DEEP INDUCTION
 RS   .OHMM             UNKNOWN      :16 SHALLOW FE
 SP   .MV               UNKNOWN      :17 SPONTANEOUS POTENTIAL
 Z    .M                UNKNOWN      :18 DEPTH
~Parameter Information Section
#MNEM.UNIT                      VALUE                       DESCRIPTION
#----.----     ----------------------------------   --------------------
~A  DEPTH    BIT      CAL       DEN      DENC     DPL     DPS      DTC       GR      MINV    MNRL    NPL    NPS    PE       RD        RS        SP       Z     
# ...
 1801.5100 200.0000 196.9374 2539.6154   57.6914  0.0997  0.0669 234.8694  115.7240 12.3256 12.9479 0.1503 0.1903 3.1106    4.0713   12.0319  18.1328 1801.5100
 1801.5200 200.0000 196.9333 2546.1334   58.3047  0.0959  0.0629 234.9586  115.5316 12.2416 12.8744 0.1539 0.1939 3.0780    4.0638   12.0180  17.7310 1801.5200
 1801.5300 200.0000 196.9290 2552.3696   58.6591  0.0922  0.0592 235.0509  115.1709 12.1564 12.7961 0.1574 0.1974 3.0302    4.0562   12.0100  17.3189 1801.5300
 1801.5400 200.0000 196.9260 2559.0424   59.0386  0.0883  0.0551 235.1432  114.4161 12.0712 12.7178 0.1603 0.2003 2.9731    4.0486   12.0020  16.9070 1801.5400
 1801.5500 200.0000 196.9256 2566.6428   59.4717  0.0838  0.0505 235.2355  112.8237 11.9860 12.6395 0.1617 0.2017 2.8960    4.0410   11.9940  16.4950 1801.5500
 1801.5600 200.0000 196.9253 2574.2432   59.9047  0.0794  0.0459 235.3278  111.2313 11.9008 12.5612 0.1631 0.2031 2.8190    4.0334   11.9860  16.0830 1801.5600
 1801.5700 200.0000 196.9288 2576.7257   60.0000  0.0779  0.0444 235.4201  110.3947 11.8156 12.4829 0.1634 0.2034 2.8345    4.0258   11.9780  15.6710 1801.5700
 1801.5800 200.0000 196.9335 2577.7651   60.0000  0.0773  0.0438 235.5124  109.7714 11.7304 12.4046 0.1633 0.2033 2.8760    4.0182   11.9700  15.2590 1801.5800
 1801.5900 200.0000 196.9359 2577.0269   59.7070  0.0778  0.0442 235.5877  108.8368 11.6470 12.3271 0.1633 0.2033 2.9103    4.0106   11.9795  14.8333 1801.5900
 1801.6000 200.0000 196.9311 2570.6608   58.4866  0.0815  0.0481 235.6094  106.9171 11.5695 12.2520 0.1633 0.2033 2.9222    4.0030   12.0446  14.3642 1801.6000
 1801.6100 200.0000 196.9264 2564.2947   57.2661  0.0852  0.0519 235.6312  104.9974 11.4920 12.1770 0.1632 0.2032 2.9340    3.9954   12.1096  13.8951 1801.6100
 1801.6200 200.0000 196.9200 2553.9268   54.7779  0.0913  0.0582 235.6058  103.2826 11.4196 12.1042 0.1632 0.2032 2.9007    3.9878   12.2234  13.3880 1801.6200
 1801.6300 200.0000 196.9130 2541.8442   51.7464  0.0983  0.0655 235.5602  101.6558 11.3494 12.0323 0.1631 0.2031 2.8480    3.9802   12.3581  12.8645 1801.6300
 1801.6400 200.0000 196.9067 2529.7823   48.8661  0.1054  0.0729 235.5146  100.3418 11.2792 11.9604 0.1630 0.2030 2.8068    3.9726   12.4928  12.3410 1801.6400
 1801.6500 200.0000 196.9050 2517.8296   46.7795  0.1124  0.0801 235.4690  100.6702 11.2090 11.8885 0.1625 0.2025 2.8259    3.9650   12.6275  11.8175 1801.6500
 1801.6600 200.0000 196.9033 2505.8769   44.6929  0.1194  0.0873 235.4234  100.9986 11.1388 11.8166 0.1620 0.2020 2.8449    3.9574   12.7622  11.2940 1801.6600
 1801.6700 200.0000 196.9044 2495.6560   43.2653  0.1253  0.0935 235.3778  100.8161 11.0686 11.7447 0.1617 0.2017 2.8491    3.9498   12.8969  10.7705 1801.6700
 1801.6800 200.0000 196.9072 2486.4966   42.2417  0.1307  0.0991 235.3322  100.3205 10.9984 11.6728 0.1616 0.2016 2.8444    3.9422   13.0316  10.2470 1801.6800
 1801.6900 200.0000 196.9096 2477.3424   41.2590  0.1360  0.1046 235.2864   99.8362 10.9254 11.6003 0.1617 0.2017 2.8350    3.9346   13.1682   9.7218 1801.6900
 1801.7000 200.0000 196.9083 2468.2479   40.7472  0.1413  0.1102 235.2396   99.4819 10.8205 11.5202 0.1640 0.2040 2.7723    3.9266   13.3269   9.1769 1801.7000
 1801.7100 200.0000 196.9070 2459.1534   40.2354  0.1467  0.1157 235.1927   99.1276 10.7156 11.4401 0.1663 0.2063 2.7096    3.9187   13.4855   8.6320 1801.7100
 1801.7200 200.0000 196.8993 2453.9176   40.2551  0.1497  0.1188 235.1452   98.1810 10.5968 11.3568 0.1701 0.2101 2.6785    3.9106   13.6538   8.0786 1801.7200
 1801.7300 200.0000 196.8860 2451.9688   40.7276  0.1509  0.1200 235.0973   96.7298 10.4662 11.2707 0.1751 0.2151 2.6744    3.9024   13.8302   7.5179 1801.7300
 1801.7400 200.0000 196.8728 2450.0200   41.2000  0.1520  0.1212 235.0494   95.2786 10.3356 11.1846 0.1801 0.2201 2.6702    3.8942   14.0066   6.9572 1801.7400
 1801.7500 200.0000 196.8526 2452.3586   41.7512  0.1507  0.1198 235.0015   94.4757 10.2050 11.0985 0.1836 0.2236 2.6613    3.8860   14.1830   6.3965 1801.7500
 1801.7600 200.0000 196.8323 2454.6972   42.3024  0.1493  0.1184 234.9536   93.6729 10.0744 11.0124 0.1872 0.2272 2.6524    3.8778   14.3594   5.8358 1801.7600
 1801.7700 200.0000 196.8098 2456.3783   42.3284  0.1483  0.1173 234.9057   93.6713  9.9438 10.9263 0.1889 0.2289 2.6393    3.8696   14.5358   5.2751 1801.7700
 1801.7800 200.0000 196.7846 2457.2878   41.7378  0.1478  0.1168 234.8578   94.6105  9.8132 10.8402 0.1884 0.2284 2.6212    3.8614   14.7122   4.7144 1801.7800
 1801.7900 200.0000 196.7594 2458.1972   41.1472  0.1472  0.1162 234.8099   95.5498  9.6826 10.7541 0.1879 0.2279 2.6030    3.8532   14.8886   4.1537 1801.7900
 1801.8000 200.0000 196.7374 2459.2262   40.2307  0.1467  0.1156 234.8289   95.6752  9.6057 10.7178 0.1853 0.2253 2.6176    3.8450   14.9551   3.6679 1801.8000
 1801.8100 200.0000 196.7157 2460.2656   39.2858  0.1461  0.1150 234.8537   95.7298  9.5333 10.6857 0.1825 0.2225 2.6350    3.8368   15.0122   3.1886 1801.8100
 1801.8200 200.0000 196.6918 2460.9594   37.9969  0.1457  0.1146 234.8942   95.5929  9.4736 10.6654 0.1801 0.2201 2.6503    3.8286   15.0434   2.7270 1801.8200
 1801.8300 200.0000 196.6645 2461.0893   36.1465  0.1456  0.1145 234.9603   95.1433  9.4344 10.6641 0.1782 0.2182 2.6620    3.8204   15.0326   2.2940 1801.8300
 1801.8400 200.0000 196.6373 2461.2192   34.2961  0.1455  0.1144 235.0264   94.6936  9.3952 10.6628 0.1764 0.2164 2.6738    3.8122   15.0218   1.8610 1801.8400
 1801.8500 200.0000 196.6040 2465.5507   34.4630  0.1430  0.1118 235.0925   94.9658  9.3560 10.6615 0.1754 0.2154 2.6855    3.8040   15.0110   1.4280 1801.8500
 1801.8600 200.0000 196.5696 2470.6826   35.0142  0.1400  0.1087 235.1586   95.3754  9.3168 10.6602 0.1745 0.2145 2.6971    3.7958   15.0002   0.9950 1801.8600
 1801.8700 200.0000 196.5394 2474.2750   35.6716  0.1379  0.1065 235.2247   95.8214  9.2776 10.6589 0.1737 0.2137 2.7303    3.7876   14.9894   0.5620 1801.8700
 1801.8800 200.0000 196.5191 2474.2750   36.5771  0.1379  0.1065 235.2908   96.3522  9.2384 10.6576 0.1731 0.2131 2.8138    3.7794   14.9786   0.1290 1801.8800
 1801.8900 200.0000 196.4989 2474.2750   37.4826  0.1379  0.1065 235.3569   96.8829  9.1992 10.6563 0.1725 0.2125 2.8973    3.7712   14.9678  -0.3040 1801.8900
 1801.9000 200.0000 196.4819 2473.3370   38.4181  0.1384  0.1071 235.4728   97.0204  9.2170 10.6889 0.1722 0.2122 2.8696    3.7631   14.9163  -0.6547 1801.9000
 1801.9100 200.0000 196.4659 2472.1028   39.3630  0.1391  0.1078 235.6043   97.0338  9.2528 10.7323 0.1720 0.2120 2.8067    3.7551   14.8520  -0.9794 1801.9100
 1801.9200 200.0000 196.4504 2471.1114   40.2386  0.1397  0.1084 235.7420   96.7615  9.2956 10.7798 0.1719 0.2119 2.7422    3.7470   14.7826  -1.2940 1801.9200
 1801.9300 200.0000 196.4370 2470.9815   40.8685  0.1398  0.1085 235.9015   95.4765  9.3634 10.8422 0.1721 0.2121 2.6720    3.7390   14.6954  -1.5725 1801.9300
 1801.9400 200.0000 196.4235 2470.8516   41.4984  0.1399  0.1086 236.0610   94.1915  9.4312 10.9046 0.1723 0.2123 2.6019    3.7310   14.6082  -1.8510 1801.9400
 1801.9500 200.0000 196.4230 2474.4762   43.1724  0.1378  0.1064 236.2205   93.5630  9.4990 10.9670 0.1720 0.2120 2.5622    3.7230   14.5210  -2.1295 1801.9500
 1801.9600 200.0000 196.4285 2479.8679   45.3377  0.1346  0.1031 236.3800   93.2437  9.5668 11.0294 0.1713 0.2113 2.5368    3.7150   14.4338  -2.4080 1801.9600
 1801.9700 200.0000 196.4328 2484.7505   47.4645  0.1318  0.1002 236.5395   92.9759  9.6346 11.0918 0.1706 0.2106 2.5165    3.7070   14.3466  -2.6865 1801.9700
 1801.9800 200.0000 196.4289 2486.5044   49.3542  0.1307  0.0991 236.6990   93.0255  9.7024 11.1542 0.1693 0.2093 2.5273    3.6990   14.2594  -2.9650 1801.9800
 1801.9900 200.0000 196.4250 2488.2583   51.2440  0.1297  0.0980 236.8585   93.0752  9.7702 11.2166 0.1680 0.2080 2.5382    3.6910   14.1722  -3.2435 1801.9900
 1802.0000 200.0000 196.4270 2487.1672   52.4252  0.1303  0.0987 236.9522   92.1756  9.8116 11.2745 0.1672 0.2072 2.5559    3.6833   14.0944  -3.5350 1802.0000
