~Version Information Sectionhv
 VERS.      2.0         :CWLS Log ASCII Standard - version 2.0
 WRAP.      NO          :Mulitple lines per depth step
~Well Information Section
#MNEM.UNIT                      VALUE/NAME                 DESCRIPTION
#----.----     ----------------------------------   --------------------
 STRT     .M            1685.0100                         :START DEPTH
 STOP     .M            1879.9700                         :STOP DEPTH
 STEP     .M               0.0100                         :STEP
 NULL     .             -999.2500                         :NULL VALUE
 COMP     .          JORDAN PETROLEUM LIMITED             :COMPANY
 WELL     .          100052506825W500                     :WELL
 FLD      .          UNDEFINED                            :FIELD
 LOC      .                                               :LOCATION
 CNTY     .          UNKNOWN                              :COUNTY
 STAT     .          UNKNOWN                              :STATE
 CTRY     .          UNKNOWN                              :COUNTRY
 SRVC     .          UNKNOWN                              :SERVICE COMPANY
 DATE     .          UNKNOWN                              :LOG DATE
 UWI      .          100052506825W500                  :UNIQUE WELL ID
 XCOORD   .          0                                    :SURFACE X
 YCOORD   .          0                                    :SURFACE Y
 LAT      .          0                                    :LATITUDE
 LON      .          0                                    :LONGITUDE
 ELEV     .M               0.0000                         :SURFACE ELEV
 ELEV_TYPE.          KB                                   :ELEV TYPE
~Curve Information Section
#MNEM .UNIT          API CODE        CURVE DESCRIPTION
#---- .----        LG--CV-CL--M      -------------------------
 DEPTH.M                             :1 Measured Depth
 BIT  .MM               UNKNOWN      :2 BIT SIZE **MERGED**
 CAL  .MM               UNKNOWN      :3 DENSITY CALIPER
 DEN  .UNKNOWN          UNKNOWN      :4 Calculated in RESys
 DENC .UNKNOWN          UNKNOWN      :5 Calculated in RESys
 DPL  .V/V              UNKNOWN      :6 13
 DPS  .V/V              UNKNOWN      :7 11
 DTC  .GAPI             UNKNOWN      :8 3-5 FT COMPENSATED SONIC
 GR   .GAPI             UNKNOWN      :9 PNS GAMMA RAY
 MINV .OHMM             UNKNOWN      :10 MICRO-INVERSE
 MNRL .OHMM             UNKNOWN      :11 MICRO-NORMAL 2"
 NPL  .V/V              UNKNOWN      :12 14
 NPS  .V/V              UNKNOWN      :13 10
 PE   .B/E              UNKNOWN      :14 NEAR PE CURVE
 RD   .OHMM             UNKNOWN      :15 DEEP INDUCTION
 RS   .OHMM             UNKNOWN      :16 SHALLOW FE
 SP   .MV               UNKNOWN      :17 SPONTANEOUS POTENTIAL
 Z    .M                UNKNOWN      :18 DEPTH
~Parameter Information Section
#MNEM.UNIT                      VALUE                       DESCRIPTION
#----.----     ----------------------------------   --------------------
~A  DEPTH    BIT      CAL       DEN      DENC     DPL     DPS      DTC       GR      MINV    MNRL    NPL    NPS    PE       RD        RS        SP       Z     
# ...
 1698.0100 200.0000 213.1450 2568.7238   44.5324  0.0827  0.0493 248.1766  132.6738  6.4587  8.0772 0.2215 0.2615 2.5258   10.3198   12.7703  67.4465 1698.0100
 1698.0200 200.0000 213.1479 2569.3734   43.2332  0.0823  0.0489 247.7152  131.1321  6.5184  8.0614 0.2229 0.2629 2.4957   10.3616   12.8706  67.4920 1698.0200
 1698.0300 200.0000 213.1508 2570.0230   41.9340  0.0819  0.0485 247.2538  129.5904  6.5781  8.0456 0.2243 0.2643 2.4657   10.4034   12.9709  67.5375 1698.0300
 1698.0400 200.0000 213.1602 2566.6247   40.6348  0.0839  0.0505 246.7924  126.6754  6.6378  8.0298 0.2244 0.2644 2.5222   10.4452   13.0712  67.5830 1698.0400
 1698.0500 200.0000 213.1710 2562.3373   39.3356  0.0864  0.0531 246.3310  123.4586  6.6975  8.0140 0.2241 0.2641 2.5977   10.4870   13.1715  67.6285 1698.0500
 1698.0600 200.0000 213.1829 2557.5408   37.7608  0.0892  0.0560 245.8696  120.3957  6.7572  7.9982 0.2233 0.2633 2.6338   10.5288   13.2718  67.6740 1698.0600
 1698.0700 200.0000 213.1975 2551.4345   35.4774  0.0927  0.0597 245.4082  117.7284  6.8169  7.9824 0.2212 0.2612 2.5690   10.5706   13.3721  67.7195 1698.0700
 1698.0800 200.0000 213.2121 2545.3282   33.1939  0.0963  0.0634 244.9468  115.0611  6.8766  7.9666 0.2191 0.2591 2.5041   10.6124   13.4724  67.7650 1698.0800
 1698.0900 200.0000 213.2363 2545.1339   32.2504  0.0964  0.0636 244.4504  112.9256  6.9275  7.9692 0.2167 0.2567 2.4672   10.6515   13.5641  67.8131 1698.0900
 1698.1000 200.0000 213.2638 2547.0177   31.7780  0.0953  0.0624 243.9416  110.9770  6.9753  7.9782 0.2141 0.2541 2.4401   10.6895   13.6527  67.8622 1698.1000
 1698.1100 200.0000 213.2913 2548.0705   30.9750  0.0947  0.0618 243.4123  109.1855  7.0180  7.9980 0.2117 0.2517 2.4062   10.7260   13.7362  67.9127 1698.1100
 1698.1200 200.0000 213.3190 2545.7969   28.8490  0.0960  0.0632 242.8006  108.0229  7.0400  8.0610 0.2097 0.2497 2.3449   10.7560   13.7994  67.9694 1698.1200
 1698.1300 200.0000 213.3467 2543.5233   26.7231  0.0973  0.0645 242.1889  106.8603  7.0620  8.1240 0.2078 0.2478 2.2837   10.7860   13.8626  68.0261 1698.1300
 1698.1400 200.0000 213.3683 2543.3501   26.1819  0.0975  0.0646 241.5772  105.5595  7.0840  8.1870 0.2052 0.2452 2.2828   10.8160   13.9258  68.0828 1698.1400
 1698.1500 200.0000 213.3867 2544.2596   26.4574  0.0970  0.0641 240.9656  104.1875  7.1060  8.2500 0.2022 0.2422 2.3130   10.8460   13.9890  68.1395 1698.1500
 1698.1600 200.0000 213.4070 2545.7453   27.0068  0.0961  0.0632 240.3539  103.1629  7.1280  8.3130 0.1990 0.2390 2.3458   10.8760   14.0522  68.1962 1698.1600
 1698.1700 200.0000 213.4409 2551.4619   29.5658  0.0928  0.0597 239.7422  104.6882  7.1500  8.3760 0.1937 0.2337 2.3973   10.9060   14.1154  68.2529 1698.1700
 1698.1800 200.0000 213.4748 2557.1784   32.1249  0.0894  0.0563 239.1305  106.2136  7.1720  8.4390 0.1884 0.2284 2.4488   10.9360   14.1786  68.3096 1698.1800
 1698.1900 200.0000 213.5068 2563.6106   35.0264  0.0856  0.0524 238.5008  106.8443  7.1995  8.5135 0.1821 0.2221 2.4353   10.9597   14.2370  68.3607 1698.1900
 1698.2000 200.0000 213.5374 2570.5614   38.1760  0.0815  0.0481 237.8581  106.8268  7.2311  8.5963 0.1751 0.2151 2.3746   10.9790   14.2920  68.4077 1698.2000
 1698.2100 200.0000 213.5672 2577.2505   41.1812  0.0776  0.0441 237.2133  106.8306  7.2633  8.6804 0.1681 0.2081 2.3163   10.9975   14.3465  68.4540 1698.2100
 1698.2200 200.0000 213.5810 2577.6403   40.7087  0.0774  0.0439 236.5195  107.3440  7.3106  8.7958 0.1610 0.2010 2.3160   10.9990   14.3880  68.4850 1698.2200
 1698.2300 200.0000 213.5947 2578.0301   40.2363  0.0772  0.0436 235.8257  107.8574  7.3579  8.9112 0.1539 0.1939 2.3157   11.0005   14.4294  68.5160 1698.2300
 1698.2400 200.0000 213.6066 2579.6870   39.5865  0.0762  0.0426 235.1317  108.3813  7.4052  9.0266 0.1474 0.1874 2.3242   11.0020   14.4710  68.5470 1698.2400
 1698.2500 200.0000 213.6165 2582.6102   38.7597  0.0745  0.0408 234.4379  108.9155  7.4525  9.1420 0.1417 0.1817 2.3415   11.0035   14.5125  68.5780 1698.2500
 1698.2600 200.0000 213.6265 2585.5334   37.9330  0.0728  0.0391 233.7441  109.4496  7.4998  9.2574 0.1359 0.1759 2.3587   11.0050   14.5540  68.6090 1698.2600
 1698.2700 200.0000 213.6441 2587.8330   38.1268  0.0714  0.0377 233.0503  109.8599  7.5471  9.3728 0.1322 0.1722 2.3491   11.0065   14.5955  68.6400 1698.2700
 1698.2800 200.0000 213.6620 2590.1066   38.3630  0.0701  0.0363 232.3565  110.2651  7.5944  9.4882 0.1286 0.1686 2.3384   11.0080   14.6370  68.6710 1698.2800
 1698.2900 200.0000 213.6834 2590.6881   39.2443  0.0697  0.0359 231.7495  110.7634  7.6530  9.5805 0.1255 0.1655 2.3128   11.0035   14.6695  68.6970 1698.2900
 1698.3000 200.0000 213.7095 2588.9342   41.0160  0.0708  0.0370 231.2621  111.3904  7.7271  9.6410 0.1230 0.1630 2.2667   10.9908   14.6893  68.7160 1698.3000
 1698.3100 200.0000 213.7357 2587.1803   42.7876  0.0718  0.0381 230.7747  112.0173  7.8013  9.7015 0.1206 0.1606 2.2205   10.9780   14.7092  68.7350 1698.3100
 1698.3200 200.0000 213.7762 2578.1654   42.8268  0.0771  0.0435 230.5178  111.3270  7.9054  9.7008 0.1182 0.1582 2.2230   10.9494   14.7050  68.7406 1698.3200
 1698.3300 200.0000 213.8187 2568.1615   42.6299  0.0829  0.0496 230.2922  110.4573  8.0136  9.6917 0.1158 0.1558 2.2322   10.9186   14.6975  68.7444 1698.3300
 1698.3400 200.0000 213.8658 2559.6600   42.1786  0.0879  0.0548 230.0666  109.1211  8.1218  9.6826 0.1135 0.1535 2.2475   10.8878   14.6900  68.7482 1698.3400
 1698.3500 200.0000 213.9218 2554.0734   41.2338  0.0912  0.0581 229.8410  106.8798  8.2300  9.6735 0.1112 0.1512 2.2748   10.8570   14.6825  68.7520 1698.3500
 1698.3600 200.0000 213.9777 2548.4868   40.2889  0.0944  0.0615 229.6154  104.6384  8.3382  9.6644 0.1090 0.1490 2.3021   10.8262   14.6750  68.7558 1698.3600
 1698.3700 200.0000 214.0496 2548.5654   39.5960  0.0944  0.0615 229.3898  103.8388  8.4464  9.6553 0.1075 0.1475 2.2253   10.7954   14.6675  68.7596 1698.3700
 1698.3800 200.0000 214.1255 2550.0595   38.9661  0.0935  0.0606 229.1642  103.3994  8.5546  9.6462 0.1062 0.1462 2.1223   10.7646   14.6600  68.7634 1698.3800
 1698.3900 200.0000 214.2036 2551.9253   38.3464  0.0924  0.0594 229.0166  103.2384  8.6454  9.6343 0.1053 0.1453 2.0240   10.7308   14.6371  68.7717 1698.3900
 1698.4000 200.0000 214.2876 2554.8485   37.7558  0.0907  0.0577 229.0906  103.8695  8.6866  9.6143 0.1055 0.1455 1.9387   10.6886   14.5708  68.7930 1698.4000
 1698.4100 200.0000 214.3717 2557.7718   37.1653  0.0890  0.0559 229.1647  104.5006  8.7279  9.5943 0.1057 0.1457 1.8535   10.6463   14.5045  68.8143 1698.4100
 1698.4200 200.0000 214.4541 2559.4788   36.8866  0.0880  0.0549 229.4512  105.6349  8.7216  9.5666 0.1070 0.1470 1.8676   10.5960   14.3964  68.8480 1698.4200
 1698.4300 200.0000 214.5358 2560.7130   36.7291  0.0873  0.0541 229.8203  106.9649  8.6969  9.5359 0.1086 0.1486 1.9203   10.5425   14.2721  68.8865 1698.4300
 1698.4400 200.0000 214.6180 2561.5027   36.5078  0.0868  0.0536 230.1895  107.9467  8.6722  9.5052 0.1103 0.1503 1.9760   10.4890   14.1478  68.9250 1698.4400
 1698.4500 200.0000 214.7024 2560.2685   35.9960  0.0875  0.0544 230.5586  107.3428  8.6475  9.4745 0.1125 0.1525 2.0450   10.4355   14.0235  68.9635 1698.4500
 1698.4600 200.0000 214.7867 2559.0342   35.4842  0.0882  0.0551 230.9277  106.7390  8.6228  9.4438 0.1146 0.1546 2.1141   10.3820   13.8992  69.0020 1698.4600
 1698.4700 200.0000 214.8780 2561.5006   35.4260  0.0868  0.0536 231.2967  105.7254  8.5981  9.4131 0.1163 0.1563 2.1734   10.3285   13.7749  69.0405 1698.4700
 1698.4800 200.0000 214.9730 2566.0478   35.6228  0.0842  0.0509 231.6658  104.4813  8.5734  9.3824 0.1178 0.1578 2.2272   10.2749   13.6506  69.0790 1698.4800
 1698.4900 200.0000 215.0691 2570.6796   35.8394  0.0815  0.0481 232.0542  103.5145  8.5430  9.3501 0.1191 0.1591 2.2778   10.2211   13.5256  69.1164 1698.4900
 1698.5000 200.0000 215.1737 2576.0713   36.2331  0.0783  0.0448 232.6158  105.0417  8.4612  9.3036 0.1194 0.1594 2.2984   10.1639   13.3946  69.1439 1698.5000
