~Version Information Sectionhv
 VERS.      2.0         :CWLS Log ASCII Standard - version 2.0
 WRAP.      NO          :Mulitple lines per depth step
~Well Information Section
#MNEM.UNIT                      VALUE/NAME                 DESCRIPTION
#----.----     ----------------------------------   --------------------
 STRT     .M            1685.0100                         :START DEPTH
 STOP     .M            1879.9700                         :STOP DEPTH
 STEP     .M               0.0100                         :STEP
 NULL     .             -999.2500                         :NULL VALUE
 COMP     .          JORDAN PETROLEUM LIMITED             :COMPANY
 WELL     .          100052506825W500                     :WELL
 FLD      .          UNDEFINED                            :FIELD
 LOC      .                                               :LOCATION
 CNTY     .          UNKNOWN                              :COUNTY
 STAT     .          UNKNOWN                              :STATE
 CTRY     .          UNKNOWN                              :COUNTRY
 SRVC     .          UNKNOWN                              :SERVICE COMPANY
 DATE     .          UNKNOWN                              :LOG DATE
 UWI      .          100052506825W500                  :UNIQUE WELL ID
 XCOORD   .          0                                    :SURFACE X
 YCOORD   .          0                                    :SURFACE Y
 LAT      .          0                                    :LATITUDE
 LON      .          0                                    :LONGITUDE
 ELEV     .M               0.0000                         :SURFACE ELEV
 ELEV_TYPE.          KB                                   :ELEV TYPE
~Curve Information Section
#MNEM .UNIT          API CODE        CURVE DESCRIPTION
#---- .----        LG--CV-CL--M      -------------------------
 DEPTH.M                             :1 Measured Depth
 BIT  .MM               UNKNOWN      :2 BIT SIZE **MERGED**
 CAL  .MM               UNKNOWN      :3 DENSITY CALIPER
 DEN  .UNKNOWN          UNKNOWN      :4 Calculated in RESys
 DENC .UNKNOWN          UNKNOWN      :5 Calculated in RESys
 DPL  .V/V              UNKNOWN      :6 13
 DPS  .V/V              UNKNOWN      :7 11
 DTC  .GAPI             UNKNOWN      :8 3-5 FT COMPENSATED SONIC
 GR   .GAPI             UNKNOWN      :9 PNS GAMMA RAY
 MINV .OHMM             UNKNOWN      :10 MICRO-INVERSE
 MNRL .OHMM             UNKNOWN      :11 MICRO-NORMAL 2"
 NPL  .V/V              UNKNOWN      :12 14
 NPS  .V/V              UNKNOWN      :13 10
 PE   .B/E              UNKNOWN      :14 NEAR PE CURVE
 RD   .OHMM             UNKNOWN      :15 DEEP INDUCTION
 RS   .OHMM             UNKNOWN      :16 SHALLOW FE
 SP   .MV               UNKNOWN      :17 SPONTANEOUS POTENTIAL
 Z    .M                UNKNOWN      :18 DEPTH
~Parameter Information Section
#MNEM.UNIT                      VALUE                       DESCRIPTION
#----.----     ----------------------------------   --------------------
~A  DEPTH    BIT      CAL       DEN      DENC     DPL     DPS      DTC       GR      MINV    MNRL    NPL    NPS    PE       RD        RS        SP       Z     
# ...
 1788.5100 200.0000 199.1460 2278.8822   22.8308  0.2521  0.2249 292.8632  653.1156 42.1781 26.3844 0.2438 0.2838 4.4551  533.7117 1102.2296  49.3467 1788.5100
 1788.5200 200.0000 199.1460 2263.7464   16.4529  0.2610  0.2341 293.6493  656.5623 42.4142 26.3648 0.2345 0.2745 4.4791  530.2328 1102.7261  49.2934 1788.5200
 1788.5300 200.0000 199.1460 2248.6106   10.0749  0.2698  0.2433 294.4354  660.0091 42.6503 26.3452 0.2252 0.2652 4.5030  526.7539 1103.2226  49.2401 1788.5300
 1788.5400 200.0000 199.1467 2231.5518    6.3115  0.2798  0.2536 295.2215  662.9217 42.8864 26.3256 0.2205 0.2605 4.5426  523.2750 1103.7190  49.1868 1788.5400
 1788.5500 200.0000 199.1475 2214.0124    3.2013  0.2900  0.2642 296.0076  665.7007 43.1225 26.3060 0.2170 0.2570 4.5860  519.7961 1104.2155  49.1335 1788.5500
 1788.5600 200.0000 199.1484 2194.5807    0.4290  0.3014  0.2760 296.7937  667.6176 43.3586 26.2864 0.2144 0.2544 4.6108  516.3173 1104.7120  49.0802 1788.5600
 1788.5700 200.0000 199.1496 2169.7658   -1.3821  0.3159  0.2911 297.5798  667.0814 43.5947 26.2668 0.2149 0.2549 4.5822  512.8384 1105.2085  49.0269 1788.5700
 1788.5800 200.0000 199.1508 2144.9509   -3.1931  0.3304  0.3061 298.3659  666.5453 43.8308 26.2472 0.2155 0.2555 4.5537  509.3595 1105.7050  48.9736 1788.5800
 1788.5900 200.0000 199.1499 2127.5736   -2.6510  0.3406  0.3166 299.0545  665.3787 44.1212 26.2075 0.2185 0.2585 4.5112  505.6088 1104.9160  48.9215 1788.5900
 1788.6000 200.0000 199.1483 2113.0874   -1.1944  0.3491  0.3254 299.7052  663.9671 44.4328 26.1600 0.2225 0.2625 4.4632  501.7525 1103.6272  48.8699 1788.6000
 1788.6100 200.0000 199.1468 2100.7772    0.4750  0.3563  0.3329 300.3049  661.5029 44.7728 26.1020 0.2269 0.2669 4.4290  497.7537 1101.6640  48.8190 1788.6100
 1788.6200 200.0000 199.1459 2098.3736    3.1128  0.3577  0.3343 300.6716  654.2465 45.2426 25.9960 0.2328 0.2728 4.4574  493.1058 1096.6305  48.7710 1788.6200
 1788.6300 200.0000 199.1449 2095.9701    5.7506  0.3591  0.3358 301.0384  646.9900 45.7124 25.8900 0.2387 0.2787 4.4859  488.4580 1091.5970  48.7230 1788.6300
 1788.6400 200.0000 199.1464 2097.8077    6.9268  0.3580  0.3347 301.4052  641.2127 46.1822 25.7840 0.2442 0.2842 4.5130  483.8101 1086.5636  48.6750 1788.6400
 1788.6500 200.0000 199.1493 2102.0301    7.2811  0.3555  0.3321 301.7720  636.2671 46.6520 25.6780 0.2494 0.2894 4.5395  479.1622 1081.5301  48.6270 1788.6500
 1788.6600 200.0000 199.1531 2107.2212    7.4857  0.3525  0.3290 302.1388  631.1255 47.1218 25.5720 0.2544 0.2944 4.5542  474.5143 1076.4967  48.5790 1788.6600
 1788.6700 200.0000 199.1648 2121.1228    6.3440  0.3444  0.3205 302.5056  624.2205 47.5916 25.4660 0.2578 0.2978 4.4628  469.8664 1071.4632  48.5310 1788.6700
 1788.6800 200.0000 199.1765 2135.0243    5.2023  0.3363  0.3121 302.8724  617.3156 48.0614 25.3600 0.2612 0.3012 4.3714  465.2184 1066.4297  48.4830 1788.6800
 1788.6900 200.0000 199.1842 2151.2907    3.4432  0.3267  0.3022 303.1541  606.9405 48.4436 25.2663 0.2636 0.3036 4.3133  460.7671 1055.1647  48.4352 1788.6900
 1788.7000 200.0000 199.1890 2169.4147    1.1991  0.3161  0.2913 303.3688  593.8395 48.7568 25.1823 0.2651 0.3051 4.2814  456.4702 1039.0050  48.3876 1788.7000
 1788.7100 200.0000 199.1936 2187.5752   -1.0363  0.3055  0.2803 303.5787  580.7223 49.0651 25.0989 0.2666 0.3066 4.2499  452.1845 1022.4898  48.3401 1788.7100
 1788.7200 200.0000 199.1922 2207.5180   -2.8474  0.2938  0.2682 303.5514  566.8081 49.1292 25.0498 0.2668 0.3068 4.2387  448.4462  988.6190  48.2932 1788.7200
 1788.7300 200.0000 199.1907 2227.4609   -4.6584  0.2822  0.2561 303.5241  552.8938 49.1933 25.0007 0.2670 0.3070 4.2275  444.7079  954.7482  48.2463 1788.7300
 1788.7400 200.0000 199.1919 2244.8778   -6.2993  0.2720  0.2455 303.4968  537.8994 49.2574 24.9516 0.2668 0.3068 4.2481  440.9696  920.8773  48.1994 1788.7400
 1788.7500 200.0000 199.1957 2259.5589   -7.7560  0.2634  0.2366 303.4695  521.7349 49.3215 24.9025 0.2663 0.3063 4.3030  437.2313  887.0065  48.1525 1788.7500
 1788.7600 200.0000 199.1996 2274.2400   -9.2127  0.2548  0.2277 303.4422  505.5705 49.3856 24.8534 0.2657 0.3057 4.3579  433.4930  853.1357  48.1056 1788.7600
 1788.7700 200.0000 199.2084 2279.5779  -10.5954  0.2517  0.2245 303.4149  491.2307 49.4497 24.8043 0.2640 0.3040 4.3390  429.7547  819.2649  48.0587 1788.7700
 1788.7800 200.0000 199.2176 2284.3200  -11.9733  0.2490  0.2216 303.3876  477.0074 49.5138 24.7552 0.2623 0.3023 4.3154  426.0164  785.3941  48.0118 1788.7800
 1788.7900 200.0000 199.2268 2288.0226  -12.8630  0.2468  0.2194 303.2854  464.3961 49.5725 24.7033 0.2599 0.2999 4.3194  422.2458  753.6831  47.9667 1788.7900
 1788.8000 200.0000 199.2360 2290.1663  -13.0205  0.2455  0.2181 303.0710  454.2024 49.6230 24.6472 0.2567 0.2967 4.3648  418.4266  725.2113  47.9243 1788.8000
 1788.8100 200.0000 199.2452 2292.3100  -13.1780  0.2443  0.2168 302.8565  444.0087 49.6735 24.5911 0.2535 0.2935 4.4102  414.6075  696.7395  47.8818 1788.8100
 1788.8200 200.0000 199.2455 2299.5936  -11.0330  0.2400  0.2124 302.4444  435.2419 49.7098 24.5276 0.2500 0.2900 4.4720  410.7030  673.9702  47.8442 1788.8200
 1788.8300 200.0000 199.2442 2307.7137   -8.5133  0.2352  0.2074 302.0001  426.7073 49.7437 24.4629 0.2463 0.2863 4.5365  406.7846  652.1288  47.8073 1788.8300
 1788.8400 200.0000 199.2412 2316.6446   -5.4014  0.2300  0.2020 301.5558  419.2300 49.7776 24.3982 0.2428 0.2828 4.5659  402.8663  630.2875  47.7704 1788.8400
 1788.8500 200.0000 199.2344 2327.2981   -1.0313  0.2238  0.1956 301.1115  413.9987 49.8115 24.3335 0.2395 0.2795 4.5208  398.9479  608.4462  47.7335 1788.8500
 1788.8600 200.0000 199.2275 2337.9516    3.3387  0.2176  0.1891 300.6672  408.7675 49.8454 24.2688 0.2363 0.2763 4.4757  395.0295  586.6048  47.6966 1788.8600
 1788.8700 200.0000 199.2296 2344.6527    7.5860  0.2137  0.1851 300.2229  406.5993 49.8793 24.2041 0.2339 0.2739 4.5011  391.1111  564.7635  47.6597 1788.8700
 1788.8800 200.0000 199.2341 2350.2394   11.7986  0.2104  0.1817 299.7786  405.2949 49.9132 24.1394 0.2317 0.2717 4.5463  387.1927  542.9221  47.6228 1788.8800
 1788.8900 200.0000 199.2383 2353.7677   15.4252  0.2083  0.1795 299.3102  404.4491 49.9331 24.0636 0.2302 0.2702 4.5852  383.2997  524.2067  47.5845 1788.8900
 1788.9000 200.0000 199.2411 2350.7796   17.1969  0.2100  0.1813 298.7656  405.0552 49.9087 23.9527 0.2308 0.2708 4.6041  379.4875  515.3884  47.5417 1788.9000
 1788.9100 200.0000 199.2439 2347.7914   18.9686  0.2118  0.1832 298.2210  405.6613 49.8842 23.8418 0.2314 0.2714 4.6229  375.6752  506.5702  47.4988 1788.9100
 1788.9200 200.0000 199.2492 2343.5754   19.9410  0.2143  0.1857 297.6094  407.9691 49.8208 23.7000 0.2339 0.2739 4.5397  371.9337  506.4477  47.4520 1788.9200
 1788.9300 200.0000 199.2555 2338.8333   20.5709  0.2171  0.1886 296.9691  411.0060 49.7407 23.5450 0.2371 0.2771 4.4128  368.2226  510.0515  47.4035 1788.9300
 1788.9400 200.0000 199.2630 2334.9228   21.4024  0.2194  0.1910 296.3287  414.1476 49.6606 23.3900 0.2402 0.2802 4.2899  364.5115  513.6553  47.3550 1788.9400
 1788.9500 200.0000 199.2770 2335.3775   23.2922  0.2191  0.1907 295.6885  417.8383 49.5805 23.2350 0.2425 0.2825 4.1888  360.8005  517.2590  47.3065 1788.9500
 1788.9600 200.0000 199.2909 2335.8322   25.1819  0.2188  0.1904 295.0482  421.5291 49.5004 23.0800 0.2448 0.2848 4.0876  357.0894  520.8628  47.2580 1788.9600
 1788.9700 200.0000 199.3030 2336.6091   27.2181  0.2184  0.1899 294.4079  425.5882 49.4203 22.9250 0.2452 0.2852 4.0237  353.3783  524.4666  47.2095 1788.9700
 1788.9800 200.0000 199.3140 2337.5836   29.3441  0.2178  0.1893 293.7676  429.8731 49.3402 22.7700 0.2445 0.2845 3.9825  349.6672  528.0704  47.1610 1788.9800
 1788.9900 200.0000 199.3253 2338.7555   31.3158  0.2171  0.1886 293.1203  434.1487 49.2492 22.6123 0.2436 0.2836 3.9359  345.9734  531.6647  47.1122 1788.9900
 1789.0000 200.0000 199.3400 2342.1984   31.5126  0.2151  0.1865 292.3923  438.3178 49.0328 22.4238 0.2405 0.2805 3.8263  342.4788  535.1496  47.0598 1789.0000
