~Version Information Sectionhv
 VERS.      2.0         :CWLS Log ASCII Standard - version 2.0
 WRAP.      NO          :Mulitple lines per depth step
~Well Information Section
#MNEM.UNIT                      VALUE/NAME                 DESCRIPTION
#----.----     ----------------------------------   --------------------
 STRT     .M            1685.0100                         :START DEPTH
 STOP     .M            1879.9700                         :STOP DEPTH
 STEP     .M               0.0100                         :STEP
 NULL     .             -999.2500                         :NULL VALUE
 COMP     .          JORDAN PETROLEUM LIMITED             :COMPANY
 WELL     .          100052506825W500                     :WELL
 FLD      .          UNDEFINED                            :FIELD
 LOC      .                                               :LOCATION
 CNTY     .          UNKNOWN                              :COUNTY
 STAT     .          UNKNOWN                              :STATE
 CTRY     .          UNKNOWN                              :COUNTRY
 SRVC     .          UNKNOWN                              :SERVICE COMPANY
 DATE     .          UNKNOWN                              :LOG DATE
 UWI      .          100052506825W500                  :UNIQUE WELL ID
 XCOORD   .          0                                    :SURFACE X
 YCOORD   .          0                                    :SURFACE Y
 LAT      .          0                                    :LATITUDE
 LON      .          0                                    :LONGITUDE
 ELEV     .M               0.0000                         :SURFACE ELEV
 ELEV_TYPE.          KB                                   :ELEV TYPE
~Curve Information Section
#MNEM .UNIT          API CODE        CURVE DESCRIPTION
#---- .----        LG--CV-CL--M      -------------------------
 DEPTH.M                             :1 Measured Depth
 BIT  .MM               UNKNOWN      :2 BIT SIZE **MERGED**
 CAL  .MM               UNKNOWN      :3 DENSITY CALIPER
 DEN  .UNKNOWN          UNKNOWN      :4 Calculated in RESys
 DENC .UNKNOWN          UNKNOWN      :5 Calculated in RESys
 DPL  .V/V              UNKNOWN      :6 13
 DPS  .V/V              UNKNOWN      :7 11
 DTC  .GAPI             UNKNOWN      :8 3-5 FT COMPENSATED SONIC
 GR   .GAPI             UNKNOWN      :9 PNS GAMMA RAY
 MINV .OHMM             UNKNOWN      :10 MICRO-INVERSE
 MNRL .OHMM             UNKNOWN      :11 MICRO-NORMAL 2"
 NPL  .V/V              UNKNOWN      :12 14
 NPS  .V/V              UNKNOWN      :13 10
 PE   .B/E              UNKNOWN      :14 NEAR PE CURVE
 RD   .OHMM             UNKNOWN      :15 DEEP INDUCTION
 RS   .OHMM             UNKNOWN      :16 SHALLOW FE
 SP   .MV               UNKNOWN      :17 SPONTANEOUS POTENTIAL
 Z    .M                UNKNOWN      :18 DEPTH
~Parameter Information Section
#MNEM.UNIT                      VALUE                       DESCRIPTION
#----.----     ----------------------------------   --------------------
~A  DEPTH    BIT      CAL       DEN      DENC     DPL     DPS      DTC       GR      MINV    MNRL    NPL    NPS    PE       RD        RS        SP       Z     
# ...
 1763.0100 200.0000 228.6654 2324.5221  140.3676  0.2254  0.1973 334.4300  124.1506  2.7532  3.7852 0.4183 0.4583 2.4017    3.7667    5.7522  76.5348 1763.0100
 1763.0200 200.0000 227.9537 2341.1519  126.7062  0.2157  0.1872 335.1089  127.5640  2.7204  3.7804 0.4008 0.4408 2.6821    3.7834    5.7844  76.5576 1763.0200
 1763.0300 200.0000 227.2419 2357.7818  113.0448  0.2060  0.1771 335.7878  130.9775  2.6876  3.7756 0.3833 0.4233 2.9625    3.8001    5.8166  76.5804 1763.0300
 1763.0400 200.0000 226.5249 2389.1934  104.4486  0.1876  0.1581 336.4667  133.7633  2.6548  3.7708 0.3704 0.4104 3.2296    3.8168    5.8488  76.6032 1763.0400
 1763.0500 200.0000 225.8077 2421.2189   96.0628  0.1689  0.1387 337.1456  136.5231  2.6220  3.7660 0.3576 0.3976 3.4961    3.8335    5.8810  76.6260 1763.0500
 1763.0600 200.0000 225.1815 2433.0764   83.9555  0.1619  0.1315 337.8245  138.3504  2.5892  3.7612 0.3521 0.3921 3.6646    3.8502    5.9132  76.6488 1763.0600
 1763.0700 200.0000 224.6808 2417.0961   66.7114  0.1713  0.1412 338.5034  138.8906  2.5564  3.7564 0.3567 0.3967 3.6976    3.8669    5.9454  76.6716 1763.0700
 1763.0800 200.0000 224.1801 2401.1158   49.4674  0.1807  0.1508 339.1823  139.4308  2.5236  3.7516 0.3613 0.4013 3.7305    3.8836    5.9776  76.6944 1763.0800
 1763.0900 200.0000 223.8919 2360.2655   27.8920  0.2046  0.1756 339.7841  139.4459  2.4966  3.7475 0.3767 0.4167 3.6630    3.9004    6.0089  76.7171 1763.0900
 1763.1000 200.0000 223.6325 2316.0274    5.7267  0.2304  0.2024 340.3754  139.3895  2.4704  3.7434 0.3936 0.4336 3.5817    3.9172    6.0400  76.7398 1763.1000
 1763.1100 200.0000 223.3864 2275.5452  -13.5196  0.2541  0.2269 340.8819  139.6907  2.4506  3.7402 0.4098 0.4498 3.5220    3.9341    6.0702  76.7625 1763.1100
 1763.1200 200.0000 223.1657 2242.3504  -27.1022  0.2735  0.2471 341.2237  140.6860  2.4432  3.7384 0.4247 0.4647 3.5041    3.9512    6.0984  76.7850 1763.1200
 1763.1300 200.0000 222.9451 2209.1556  -40.6848  0.2929  0.2672 341.5655  141.6812  2.4358  3.7366 0.4397 0.4797 3.4863    3.9683    6.1266  76.8075 1763.1300
 1763.1400 200.0000 222.8113 2201.3246  -43.2425  0.2975  0.2719 341.9073  141.3472  2.4284  3.7348 0.4417 0.4817 3.5228    3.9854    6.1548  76.8300 1763.1400
 1763.1500 200.0000 222.6991 2199.8305  -43.0456  0.2984  0.2728 342.2490  140.6810  2.4210  3.7330 0.4404 0.4804 3.5730    4.0025    6.1830  76.8525 1763.1500
 1763.1600 200.0000 222.5991 2202.8476  -41.4357  0.2966  0.2710 342.5908  139.8329  2.4136  3.7312 0.4380 0.4780 3.6106    4.0196    6.2112  76.8750 1763.1600
 1763.1700 200.0000 222.5338 2218.6980  -35.8058  0.2873  0.2614 342.9326  138.4673  2.4062  3.7294 0.4327 0.4727 3.6127    4.0367    6.2394  76.8975 1763.1700
 1763.1800 200.0000 222.4685 2234.5483  -30.1759  0.2780  0.2518 343.2744  137.1017  2.3988  3.7276 0.4273 0.4673 3.6148    4.0538    6.2676  76.9200 1763.1800
 1763.1900 200.0000 222.3905 2250.9133  -24.4042  0.2684  0.2419 343.7407  135.7411  2.3977  3.7346 0.4284 0.4684 3.5887    4.0703    6.2897  76.9408 1763.1900
 1763.2000 200.0000 222.3076 2267.4782  -18.5774  0.2587  0.2318 344.2553  134.3825  2.3990  3.7449 0.4320 0.4720 3.5515    4.0866    6.3094  76.9610 1763.2000
 1763.2100 200.0000 222.2190 2284.2654  -12.6231  0.2489  0.2217 344.8353  133.3438  2.4036  3.7599 0.4359 0.4759 3.5204    4.1026    6.3260  76.9803 1763.2100
 1763.2200 200.0000 222.1042 2302.0646   -6.0876  0.2385  0.2109 345.7125  133.7619  2.4232  3.7958 0.4410 0.4810 3.5165    4.1172    6.3280  76.9956 1763.2200
 1763.2300 200.0000 221.9893 2319.8637    0.4478  0.2281  0.2001 346.5897  134.1799  2.4428  3.8317 0.4461 0.4861 3.5125    4.1318    6.3300  77.0109 1763.2300
 1763.2400 200.0000 221.8551 2333.0060    7.1596  0.2205  0.1921 347.4669  135.0339  2.4624  3.8676 0.4413 0.4813 3.5333    4.1464    6.3320  77.0262 1763.2400
 1763.2500 200.0000 221.7099 2343.5296   13.9706  0.2143  0.1857 348.3441  136.1330  2.4820  3.9035 0.4310 0.4710 3.5680    4.1610    6.3340  77.0415 1763.2500
 1763.2600 200.0000 221.5597 2353.2210   20.7225  0.2087  0.1799 349.2213  137.2094  2.5016  3.9394 0.4195 0.4595 3.6006    4.1756    6.3360  77.0568 1763.2600
 1763.2700 200.0000 221.3643 2355.4297   26.9430  0.2074  0.1785 350.0985  138.0820  2.5212  3.9753 0.3980 0.4380 3.6148    4.1902    6.3380  77.0721 1763.2700
 1763.2800 200.0000 221.1690 2357.6383   33.1634  0.2061  0.1772 350.9757  138.9545  2.5408  4.0112 0.3765 0.4165 3.6290    4.2048    6.3400  77.0874 1763.2800
 1763.2900 200.0000 220.9268 2358.0643   38.9870  0.2058  0.1769 351.8470  138.5821  2.5587  4.0462 0.3630 0.4030 3.6101    4.2185    6.3383  77.1010 1763.2900
 1763.3000 200.0000 220.6478 2357.0899   44.4988  0.2064  0.1775 352.7136  137.2316  2.5754  4.0805 0.3558 0.3958 3.5652    4.2315    6.3337  77.1133 1763.3000
 1763.3100 200.0000 220.3663 2356.2432   50.0398  0.2068  0.1780 353.5800  135.9001  2.5919  4.1147 0.3491 0.3891 3.5183    4.2445    6.3289  77.1256 1763.3100
 1763.3200 200.0000 219.9639 2361.6349   57.0083  0.2037  0.1748 354.4298  135.4891  2.6038  4.1464 0.3658 0.4058 3.3743    4.2550    6.3138  77.1330 1763.3200
 1763.3300 200.0000 219.5614 2367.0266   63.9768  0.2005  0.1715 355.2797  135.0782  2.6157  4.1781 0.3825 0.4225 3.2302    4.2655    6.2987  77.1405 1763.3300
 1763.3400 200.0000 219.0535 2375.3497   71.3800  0.1957  0.1665 356.1296  134.7318  2.6276  4.2098 0.4024 0.4424 3.1753    4.2760    6.2836  77.1480 1763.3400
 1763.3500 200.0000 218.4312 2386.8478   79.2540  0.1890  0.1595 356.9795  134.4554  2.6395  4.2415 0.4257 0.4657 3.2169    4.2865    6.2685  77.1555 1763.3500
 1763.3600 200.0000 217.8090 2398.3458   87.1280  0.1823  0.1525 357.8295  134.1790  2.6514  4.2732 0.4490 0.4890 3.2586    4.2970    6.2534  77.1630 1763.3600
 1763.3700 200.0000 217.0370 2407.5232   93.5586  0.1769  0.1470 358.6793  132.4368  2.6633  4.3049 0.4628 0.5028 3.4040    4.3075    6.2383  77.1705 1763.3700
 1763.3800 200.0000 216.2555 2416.5528   99.8972  0.1716  0.1415 359.5292  130.6013  2.6752  4.3366 0.4761 0.5161 3.5561    4.3180    6.2232  77.1780 1763.3800
 1763.3900 200.0000 215.4648 2423.9450  105.4168  0.1673  0.1370 360.3926  128.9450  2.6867  4.3686 0.4844 0.5244 3.6433    4.3274    6.2090  77.1821 1763.3900
 1763.4000 200.0000 214.6604 2428.8820  109.7081  0.1644  0.1340 361.2763  127.5578  2.6978  4.4011 0.4855 0.5255 3.6334    4.3351    6.1963  77.1812 1763.4000
 1763.4100 200.0000 213.8561 2433.8190  113.9994  0.1615  0.1310 362.1599  126.1706  2.7089  4.4336 0.4866 0.5266 3.6235    4.3428    6.1836  77.1802 1763.4100
 1763.4200 200.0000 213.0825 2435.0128  116.3946  0.1608  0.1303 363.0792  125.9718  2.7192  4.4670 0.4760 0.5160 3.6052    4.3476    6.1734  77.1704 1763.4200
 1763.4300 200.0000 212.3138 2435.5975  118.4812  0.1604  0.1299 364.0044  125.9664  2.7293  4.5005 0.4635 0.5035 3.5855    4.3519    6.1636  77.1591 1763.4300
 1763.4400 200.0000 211.5775 2435.1634  119.8496  0.1607  0.1302 364.9295  125.8012  2.7394  4.5340 0.4470 0.4870 3.5792    4.3562    6.1538  77.1478 1763.4400
 1763.4500 200.0000 210.9099 2432.5650  119.6921  0.1622  0.1318 365.8545  125.2964  2.7495  4.5675 0.4219 0.4619 3.6014    4.3605    6.1440  77.1365 1763.4500
 1763.4600 200.0000 210.2423 2429.9666  119.5346  0.1638  0.1334 366.7796  124.7916  2.7596  4.6010 0.3969 0.4369 3.6236    4.3648    6.1342  77.1252 1763.4600
 1763.4700 200.0000 209.6602 2426.6587  118.2716  0.1657  0.1354 367.7047  124.3859  2.7697  4.6345 0.3722 0.4122 3.6049    4.3691    6.1244  77.1139 1763.4700
 1763.4800 200.0000 209.1023 2423.1509  116.6968  0.1677  0.1375 368.6298  124.0080  2.7798  4.6680 0.3477 0.3877 3.5747    4.3734    6.1146  77.1026 1763.4800
 1763.4900 200.0000 208.5794 2419.9860  115.1692  0.1696  0.1394 369.4363  123.7032  2.7916  4.7017 0.3279 0.3679 3.5443    4.3773    6.1049  77.0909 1763.4900
 1763.5000 200.0000 208.1674 2417.9073  113.7913  0.1708  0.1407 369.8668  123.6295  2.8086  4.7358 0.3234 0.3634 3.5134    4.3799    6.0955  77.0778 1763.5000
