~Version Information Sectionhv
 VERS.      2.0         :CWLS Log ASCII Standard - version 2.0
 WRAP.      NO          :Mulitple lines per depth step
~Well Information Section
#MNEM.UNIT                      VALUE/NAME                 DESCRIPTION
#----.----     ----------------------------------   --------------------
 STRT     .M            1685.0100                         :START DEPTH
 STOP     .M            1879.9700                         :STOP DEPTH
 STEP     .M               0.0100                         :STEP
 NULL     .             -999.2500                         :NULL VALUE
 COMP     .          JORDAN PETROLEUM LIMITED             :COMPANY
 WELL     .          100052506825W500                     :WELL
 FLD      .          UNDEFINED                            :FIELD
 LOC      .                                               :LOCATION
 CNTY     .          UNKNOWN                              :COUNTY
 STAT     .          UNKNOWN                              :STATE
 CTRY     .          UNKNOWN                              :COUNTRY
 SRVC     .          UNKNOWN                              :SERVICE COMPANY
 DATE     .          UNKNOWN                              :LOG DATE
 UWI      .          100052506825W500                  :UNIQUE WELL ID
 XCOORD   .          0                                    :SURFACE X
 YCOORD   .          0                                    :SURFACE Y
 LAT      .          0                                    :LATITUDE
 LON      .          0                                    :LONGITUDE
 ELEV     .M               0.0000                         :SURFACE ELEV
 ELEV_TYPE.          KB                                   :ELEV TYPE
~Curve Information Section
#MNEM .UNIT          API CODE        CURVE DESCRIPTION
#---- .----        LG--CV-CL--M      -------------------------
 DEPTH.M                             :1 Measured Depth
 BIT  .MM               UNKNOWN      :2 BIT SIZE **MERGED**
 CAL  .MM               UNKNOWN      :3 DENSITY CALIPER
 DEN  .UNKNOWN          UNKNOWN      :4 Calculated in RESys
 DENC .UNKNOWN          UNKNOWN      :5 Calculated in RESys
 DPL  .V/V              UNKNOWN      :6 13
 DPS  .V/V              UNKNOWN      :7 11
 DTC  .GAPI             UNKNOWN      :8 3-5 FT COMPENSATED SONIC
 GR   .GAPI             UNKNOWN      :9 PNS GAMMA RAY
 MINV .OHMM             UNKNOWN      :10 MICRO-INVERSE
 MNRL .OHMM             UNKNOWN      :11 MICRO-NORMAL 2"
 NPL  .V/V              UNKNOWN      :12 14
 NPS  .V/V              UNKNOWN      :13 10
 PE   .B/E              UNKNOWN      :14 NEAR PE CURVE
 RD   .OHMM             UNKNOWN      :15 DEEP INDUCTION
 RS   .OHMM             UNKNOWN      :16 SHALLOW FE
 SP   .MV               UNKNOWN      :17 SPONTANEOUS POTENTIAL
 Z    .M                UNKNOWN      :18 DEPTH
~Parameter Information Section
#MNEM.UNIT                      VALUE                       DESCRIPTION
#----.----     ----------------------------------   --------------------
~A  DEPTH    BIT      CAL       DEN      DENC     DPL     DPS      DTC       GR      MINV    MNRL    NPL    NPS    PE       RD        RS        SP       Z     
# ...
 1814.5100 200.0000 200.4473 2583.7845   38.2858  0.0738  0.0401 227.7583   95.5414 13.2218  9.0746 0.1480 0.1880 3.3340    9.0269   12.1667  43.1711 1814.5100
 1814.5200 200.0000 200.4500 2575.3902   37.9992  0.0787  0.0452 227.6874   95.1544 13.2834  9.0368 0.1489 0.1889 3.3470    9.0386   12.2170  43.0150 1814.5200
 1814.5300 200.0000 200.4500 2572.2721   38.7866  0.0806  0.0471 227.6191   95.2170 13.3736  8.9972 0.1495 0.1895 3.3242    9.0509   12.2585  42.8395 1814.5300
 1814.5400 200.0000 200.4500 2569.1540   39.5740  0.0824  0.0490 227.5508   95.2796 13.4638  8.9576 0.1502 0.1902 3.3014    9.0632   12.3000  42.6640 1814.5400
 1814.5500 200.0000 200.4552 2569.2552   41.0228  0.0823  0.0489 227.4825   94.4481 13.5540  8.9180 0.1519 0.1919 3.2580    9.0755   12.3415  42.4885 1814.5500
 1814.5600 200.0000 200.4613 2569.9698   42.5976  0.0819  0.0485 227.4142   93.4462 13.6442  8.8784 0.1538 0.1938 3.2108    9.0878   12.3830  42.3130 1814.5600
 1814.5700 200.0000 200.4665 2571.0936   43.9362  0.0812  0.0478 227.3459   92.5241 13.7344  8.8388 0.1557 0.1957 3.1536    9.1001   12.4245  42.1376 1814.5700
 1814.5800 200.0000 200.4694 2573.1723   44.7236  0.0800  0.0466 227.2776   91.7880 13.8246  8.7992 0.1573 0.1973 3.0728    9.1124   12.4660  41.9620 1814.5800
 1814.5900 200.0000 200.4723 2575.2510   45.5110  0.0788  0.0453 227.2093   91.0519 13.9148  8.7596 0.1589 0.1989 2.9920    9.1247   12.5075  41.7865 1814.5900
 1814.6000 200.0000 200.4694 2574.3183   45.7898  0.0793  0.0459 227.1039   89.1903 14.1363  8.7747 0.1586 0.1986 2.9254    9.1393   12.5604  41.6241 1814.6000
 1814.6100 200.0000 200.4646 2572.4345   45.9079  0.0804  0.0470 226.9868   86.9733 14.3993  8.8071 0.1576 0.1976 2.8634    9.1546   12.6168  41.4659 1814.6100
 1814.6200 200.0000 200.4605 2570.8221   45.8701  0.0814  0.0480 226.8652   85.1636 14.6786  8.8462 0.1560 0.1960 2.8252    9.1702   12.6746  41.3092 1814.6200
 1814.6300 200.0000 200.4585 2570.1725   45.2796  0.0818  0.0484 226.7273   84.7982 15.0154  8.9093 0.1525 0.1925 2.8718    9.1868   12.7374  41.1583 1814.6300
 1814.6400 200.0000 200.4566 2569.5229   44.6890  0.0822  0.0488 226.5894   84.4328 15.3522  8.9724 0.1490 0.1890 2.9183    9.2034   12.8002  41.0074 1814.6400
 1814.6500 200.0000 200.4560 2563.4845   42.3852  0.0857  0.0524 226.4515   84.9112 15.6890  9.0355 0.1455 0.1855 2.9179    9.2200   12.8630  40.8565 1814.6500
 1814.6600 200.0000 200.4560 2554.9097   39.2749  0.0907  0.0576 226.3136   85.7868 16.0258  9.0986 0.1420 0.1820 2.8955    9.2366   12.9258  40.7056 1814.6600
 1814.6700 200.0000 200.4567 2546.6440   36.2033  0.0955  0.0626 226.1757   86.5134 16.3625  9.1617 0.1388 0.1788 2.8763    9.2532   12.9886  40.5547 1814.6700
 1814.6800 200.0000 200.4615 2540.2779   33.3686  0.0993  0.0665 226.0378   86.3246 16.6993  9.2248 0.1377 0.1777 2.8770    9.2698   13.0514  40.4038 1814.6800
 1814.6900 200.0000 200.4663 2533.9118   30.5340  0.1030  0.0704 225.8999   86.1357 17.0362  9.2879 0.1366 0.1766 2.8777    9.2864   13.1142  40.2529 1814.6900
 1814.7000 200.0000 200.4691 2528.0133   28.1481  0.1065  0.0739 225.7474   85.5737 17.2712  9.3537 0.1365 0.1765 2.8589    9.3037   13.1671  40.1143 1814.7000
 1814.7100 200.0000 200.4706 2522.4267   26.0615  0.1097  0.0773 225.5852   84.7629 17.4385  9.4214 0.1373 0.1773 2.8270    9.3217   13.2135  39.9839 1814.7100
 1814.7200 200.0000 200.4711 2517.4164   24.1496  0.1127  0.0804 225.4226   84.0322 17.6026  9.4892 0.1380 0.1780 2.7975    9.3396   13.2596  39.8540 1814.7200
 1814.7300 200.0000 200.4568 2521.4440   24.9763  0.1103  0.0779 225.2529   84.5580 17.7174  9.5583 0.1383 0.1783 2.8037    9.3579   13.3009  39.7300 1814.7300
 1814.7400 200.0000 200.4425 2525.4715   25.8031  0.1079  0.0755 225.0832   85.0837 17.8322  9.6274 0.1386 0.1786 2.8098    9.3762   13.3422  39.6060 1814.7400
 1814.7500 200.0000 200.4292 2530.3435   26.3638  0.1051  0.0725 224.9135   85.0685 17.9470  9.6965 0.1382 0.1782 2.8287    9.3945   13.3835  39.4820 1814.7500
 1814.7600 200.0000 200.4168 2535.9950   26.6787  0.1018  0.0691 224.7438   84.5539 18.0618  9.7656 0.1372 0.1772 2.8592    9.4128   13.4248  39.3580 1814.7600
 1814.7700 200.0000 200.4044 2541.6466   26.9937  0.0985  0.0657 224.5741   84.0392 18.1766  9.8347 0.1361 0.1761 2.8897    9.4311   13.4661  39.2340 1814.7700
 1814.7800 200.0000 200.3939 2545.1338   26.6914  0.0964  0.0636 224.4044   84.2713 18.2914  9.9038 0.1342 0.1742 2.8140    9.4494   13.5074  39.1100 1814.7800
 1814.7900 200.0000 200.3835 2548.5767   26.3764  0.0944  0.0615 224.2347   84.5186 18.4062  9.9729 0.1322 0.1722 2.7362    9.4677   13.5487  38.9860 1814.7900
 1814.8000 200.0000 200.3700 2556.8493   27.3258  0.0896  0.0565 224.0476   84.6389 18.4968 10.0252 0.1302 0.1702 2.7014    9.4854   13.5718  38.8656 1814.8000
 1814.8100 200.0000 200.3526 2571.2705   29.8848  0.0812  0.0477 223.8383   84.5975 18.5565 10.0562 0.1282 0.1682 2.7215    9.5024   13.5719  38.7498 1814.8100
 1814.8200 200.0000 200.3352 2585.6918   32.4439  0.0727  0.0390 223.6289   84.5560 18.6162 10.0872 0.1262 0.1662 2.7416    9.5194   13.5719  38.6340 1814.8200
 1814.8300 200.0000 200.3229 2590.9933   33.1606  0.0696  0.0358 223.4122   84.7085 18.6656 10.1110 0.1248 0.1648 2.9054    9.5361   13.5642  38.5197 1814.8300
 1814.8400 200.0000 200.3112 2595.2807   33.6724  0.0671  0.0332 223.1946   84.8826 18.7138 10.1340 0.1235 0.1635 3.0852    9.5528   13.5556  38.4056 1814.8400
 1814.8500 200.0000 200.2984 2601.3918   34.6235  0.0635  0.0295 222.9770   85.5894 18.7620 10.1570 0.1226 0.1626 3.2169    9.5695   13.5470  38.2915 1814.8500
 1814.8600 200.0000 200.2835 2610.7461   36.3558  0.0581  0.0238 222.7594   87.2436 18.8102 10.1800 0.1222 0.1622 3.2631    9.5862   13.5384  38.1774 1814.8600
 1814.8700 200.0000 200.2687 2620.1004   38.0880  0.0526  0.0181 222.5418   88.8978 18.8584 10.2030 0.1219 0.1619 3.3093    9.6029   13.5298  38.0633 1814.8700
 1814.8800 200.0000 200.2492 2622.1578   37.7221  0.0514  0.0169 222.3242   88.2066 18.9066 10.2260 0.1220 0.1620 3.2463    9.6196   13.5212  37.9492 1814.8800
 1814.8900 200.0000 200.2287 2622.6126   36.8954  0.0511  0.0166 222.1066   87.0003 18.9548 10.2490 0.1222 0.1622 3.1593    9.6363   13.5126  37.8351 1814.8900
 1814.9000 200.0000 200.2136 2625.7220   36.8620  0.0493  0.0147 221.8742   86.0416 19.0207 10.2808 0.1226 0.1626 3.0909    9.6511   13.4945  37.7319 1814.9000
 1814.9100 200.0000 200.2127 2635.6610   38.8699  0.0434  0.0087 221.6040   85.7195 19.1320 10.3352 0.1234 0.1634 3.0704    9.6609   13.4519  37.6568 1814.9100
 1814.9200 200.0000 200.2118 2645.5999   40.8778  0.0376  0.0027 221.3337   85.3975 19.2433 10.3896 0.1241 0.1641 3.0498    9.6707   13.4093  37.5816 1814.9200
 1814.9300 200.0000 200.2106 2649.0021   42.6526  0.0356  0.0006 221.0586   86.0408 19.3603 10.4469 0.1251 0.1651 3.0674    9.6800   13.3636  37.5101 1814.9300
 1814.9400 200.0000 200.2093 2650.1064   44.3455  0.0350 -0.0001 220.7818   87.0235 19.4794 10.5052 0.1263 0.1663 3.0983    9.6890   13.3168  37.4398 1814.9400
 1814.9500 200.0000 200.2083 2649.5097   45.5741  0.0354  0.0003 220.5051   87.5951 19.5985 10.5635 0.1273 0.1673 3.1423    9.6980   13.2700  37.3695 1814.9500
 1814.9600 200.0000 200.2082 2642.1042   44.9442  0.0397  0.0048 220.2283   86.5218 19.7176 10.6218 0.1277 0.1677 3.2386    9.7070   13.2232  37.2992 1814.9600
 1814.9700 200.0000 200.2080 2634.6987   44.3142  0.0440  0.0093 219.9514   85.4485 19.8367 10.6801 0.1282 0.1682 3.3349    9.7160   13.1764  37.2289 1814.9700
 1814.9800 200.0000 200.2080 2629.3508   44.8274  0.0472  0.0125 219.6746   85.5177 19.9558 10.7384 0.1280 0.1680 3.3502    9.7250   13.1296  37.1586 1814.9800
 1814.9900 200.0000 200.2080 2625.0634   45.9298  0.0497  0.0151 219.3978   86.1756 20.0749 10.7967 0.1275 0.1675 3.3236    9.7340   13.0828  37.0883 1814.9900
 1815.0000 200.0000 200.2080 2621.0408   46.8575  0.0520  0.0176 219.1279   86.6961 20.1812 10.8552 0.1269 0.1669 3.2921    9.7416   13.0375  37.0274 1815.0000
