~Version Information Sectionhv
 VERS.      2.0         :CWLS Log ASCII Standard - version 2.0
 WRAP.      NO          :Mulitple lines per depth step
~Well Information Section
#MNEM.UNIT                      VALUE/NAME                 DESCRIPTION
#----.----     ----------------------------------   --------------------
 STRT     .M            1685.0100                         :START DEPTH
 STOP     .M            1879.9700                         :STOP DEPTH
 STEP     .M               0.0100                         :STEP
 NULL     .             -999.2500                         :NULL VALUE
 COMP     .          JORDAN PETROLEUM LIMITED             :COMPANY
 WELL     .          100052506825W500                     :WELL
 FLD      .          UNDEFINED                            :FIELD
 LOC      .                                               :LOCATION
 CNTY     .          UNKNOWN                              :COUNTY
 STAT     .          UNKNOWN                              :STATE
 CTRY     .          UNKNOWN                              :COUNTRY
 SRVC     .          UNKNOWN                              :SERVICE COMPANY
 DATE     .          UNKNOWN                              :LOG DATE
 UWI      .          100052506825W500                  :UNIQUE WELL ID
 XCOORD   .          0                                    :SURFACE X
 YCOORD   .          0                                    :SURFACE Y
 LAT      .          0                                    :LATITUDE
 LON      .          0                                    :LONGITUDE
 ELEV     .M               0.0000                         :SURFACE ELEV
 ELEV_TYPE.          KB                                   :ELEV TYPE
~Curve Information Section
#MNEM .UNIT          API CODE        CURVE DESCRIPTION
#---- .----        LG--CV-CL--M      -------------------------
 DEPTH.M                             :1 Measured Depth
 BIT  .MM               UNKNOWN      :2 BIT SIZE **MERGED**
 CAL  .MM               UNKNOWN      :3 DENSITY CALIPER
 DEN  .UNKNOWN          UNKNOWN      :4 Calculated in RESys
 DENC .UNKNOWN          UNKNOWN      :5 Calculated in RESys
 DPL  .V/V              UNKNOWN      :6 13
 DPS  .V/V              UNKNOWN      :7 11
 DTC  .GAPI             UNKNOWN      :8 3-5 FT COMPENSATED SONIC
 GR   .GAPI             UNKNOWN      :9 PNS GAMMA RAY
 MINV .OHMM             UNKNOWN      :10 MICRO-INVERSE
 MNRL .OHMM             UNKNOWN      :11 MICRO-NORMAL 2"
 NPL  .V/V              UNKNOWN      :12 14
 NPS  .V/V              UNKNOWN      :13 10
 PE   .B/E              UNKNOWN      :14 NEAR PE CURVE
 RD   .OHMM             UNKNOWN      :15 DEEP INDUCTION
 RS   .OHMM             UNKNOWN      :16 SHALLOW FE
 SP   .MV               UNKNOWN      :17 SPONTANEOUS POTENTIAL
 Z    .M                UNKNOWN      :18 DEPTH
~Parameter Information Section
#MNEM.UNIT                      VALUE                       DESCRIPTION
#----.----     ----------------------------------   --------------------
~A  DEPTH    BIT      CAL       DEN      DENC     DPL     DPS      DTC       GR      MINV    MNRL    NPL    NPS    PE       RD        RS        SP       Z     
 1685.0100 200.0000 233.3699 2603.6782  107.0534  0.0622  0.0281 250.0831  109.8387 12.7284 12.8962 0.2236 0.2636 3.1991   12.4389   15.6999  73.4897 1685.0100
 1685.0200 200.0000 233.7962 2588.9971  114.0219  0.0708  0.0370 251.6302  109.1482 12.4658 12.7064 0.2320 0.2720 3.1663   12.3888   15.5928  73.4894 1685.0200
 1685.0300 200.0000 234.2292 2572.9130  120.2936  0.0802  0.0467 253.1773  108.9780 12.2032 12.5166 0.2391 0.2791 3.1568   12.3387   15.4857  73.4891 1685.0300
 1685.0400 200.0000 234.6781 2553.5548  124.9392  0.0915  0.0585 254.7244  110.0223 11.9406 12.3268 0.2429 0.2829 3.2018   12.2886   15.3786  73.4888 1685.0400
 1685.0500 200.0000 235.1269 2534.1966  129.5849  0.1028  0.0702 256.2715  111.0665 11.6780 12.1370 0.2468 0.2868 3.2469   12.2385   15.2715  73.4885 1685.0500
 1685.0600 200.0000 235.5852 2519.8245  135.9360  0.1112  0.0789 257.8185  112.1099 11.4154 11.9472 0.2465 0.2865 3.2820   12.1884   15.1644  73.4882 1685.0600
 1685.0700 200.0000 236.0465 2507.0273  142.8258  0.1187  0.0867 259.3656  113.1530 11.1528 11.7574 0.2449 0.2849 3.3140   12.1383   15.0573  73.4879 1685.0700
 1685.0800 200.0000 236.5162 2491.9724  148.9794  0.1275  0.0958 260.9294  114.3051 10.8897 11.5661 0.2433 0.2833 3.3388   12.0893   14.9555  73.4877 1685.0800
 1685.0900 200.0000 237.0151 2468.9114  152.5227  0.1410  0.1098 262.5523  115.8437 10.6248 11.3694 0.2417 0.2817 3.3381   12.0442   14.8721  73.4876 1685.0900
 1685.1000 200.0000 237.5141 2445.8504  156.0660  0.1545  0.1237 264.1752  117.3824 10.3598 11.1727 0.2402 0.2802 3.3374   11.9991   14.7887  73.4874 1685.1000
 1685.1100 200.0000 238.0049 2412.3652  155.4332  0.1741  0.1440 266.1555  119.0402 10.0836 10.9437 0.2419 0.2819 3.1953   11.9778   14.8172  73.4881 1685.1100
 1685.1200 200.0000 238.4918 2373.9736  152.8348  0.1965  0.1673 268.3041  120.7541  9.8022 10.6994 0.2453 0.2853 2.9867   11.9676   14.8984  73.4892 1685.1200
 1685.1300 200.0000 238.9621 2335.5001  149.9774  0.2190  0.1906 270.4527  121.9520  9.5208 10.4551 0.2488 0.2888 2.7904   11.9574   14.9796  73.4903 1685.1300
 1685.1400 200.0000 239.3309 2296.5238  145.5286  0.2418  0.2142 272.6013  119.9795  9.2394 10.2108 0.2537 0.2937 2.6707   11.9472   15.0608  73.4914 1685.1400
 1685.1500 200.0000 239.6998 2257.5475  141.0798  0.2646  0.2379 274.7499  118.0070  8.9580  9.9665 0.2585 0.2985 2.5510   11.9370   15.1420  73.4925 1685.1500
 1685.1600 200.0000 240.0660 2219.7404  136.0168  0.2867  0.2608 276.8985  117.4498  8.6766  9.7222 0.2657 0.3057 2.3827   11.9268   15.2232  73.4936 1685.1600
 1685.1700 200.0000 240.4304 2182.7129  130.5444  0.3083  0.2832 279.0471  117.8363  8.3952  9.4779 0.2743 0.3143 2.1820   11.9166   15.3044  73.4947 1685.1700
 1685.1800 200.0000 240.8030 2146.7329  125.3599  0.3294  0.3050 281.1932  118.3026  8.1129  9.2332 0.2837 0.3237 1.9962   11.9068   15.3856  73.4957 1685.1800
 1685.1900 200.0000 241.3027 2127.1798  124.6906  0.3408  0.3169 283.2998  120.0189  7.8152  8.9814 0.3051 0.3451 2.0445   11.9041   15.4670  73.4965 1685.1900
 1685.2000 200.0000 241.8024 2107.6267  124.0213  0.3523  0.3287 285.4064  121.7353  7.5175  8.7296 0.3264 0.3664 2.0928   11.9014   15.5485  73.4972 1685.2000
 1685.2100 200.0000 242.3816 2086.4861  121.1003  0.3647  0.3415 287.4193  122.9521  7.1835  8.4610 0.3510 0.3910 2.0993   11.9153   15.6304  73.4972 1685.2100
 1685.2200 200.0000 243.0341 2063.8799  116.1003  0.3778  0.3552 289.3457  123.7078  6.8158  8.1770 0.3786 0.4186 2.0671   11.9446   15.7128  73.4964 1685.2200
 1685.2300 200.0000 243.6866 2041.2736  111.1003  0.3910  0.3689 291.2720  124.4634  6.4482  7.8930 0.4062 0.4462 2.0349   11.9739   15.7951  73.4956 1685.2300
 1685.2400 200.0000 244.3868 2042.2205  112.1188  0.3905  0.3684 293.1985  121.9756  6.0806  7.6090 0.4285 0.4685 2.0287   12.0032   15.8775  73.4948 1685.2400
 1685.2500 200.0000 245.0880 2043.6496  113.2606  0.3897  0.3675 295.1249  119.4214  5.7130  7.3250 0.4507 0.4907 2.0229   12.0325   15.9599  73.4940 1685.2500
 1685.2600 200.0000 245.8120 2042.0494  113.6402  0.3906  0.3685 297.0513  117.3305  5.3454  7.0411 0.4662 0.5062 2.0227   12.0618   16.0424  73.4932 1685.2600
 1685.2700 200.0000 246.5651 2036.5928  113.0496  0.3938  0.3718 298.9776  115.8294  4.9778  6.7570 0.4734 0.5134 2.0297   12.0911   16.1248  73.4924 1685.2700
 1685.2800 200.0000 247.3182 2031.1361  112.4591  0.3970  0.3751 300.9040  114.3282  4.6102  6.4730 0.4805 0.5205 2.0366   12.1204   16.2072  73.4916 1685.2800
 1685.2900 200.0000 248.0526 2032.7530  114.5612  0.3960  0.3741 302.7036  114.3631  4.3440  6.2483 0.4826 0.5226 2.1440   12.1514   16.2919  73.4915 1685.2900
 1685.3000 200.0000 248.7849 2035.1565  116.9628  0.3946  0.3726 304.4891  114.5688  4.0891  6.0301 0.4842 0.5242 2.2625   12.1825   16.3770  73.4915 1685.3000
 1685.3100 200.0000 249.5265 2032.8372  117.8198  0.3960  0.3740 306.1240  114.8860  3.9546  5.8824 0.4843 0.5243 2.3753   12.2157   16.4648  73.4924 1685.3100
 1685.3200 200.0000 250.2846 2022.1187  115.9301  0.4023  0.3805 307.4911  115.4015  4.0342  5.8598 0.4819 0.5219 2.4777   12.2524   16.5576  73.4948 1685.3200
 1685.3300 200.0000 251.0428 2011.4003  114.0403  0.4086  0.3870 308.8582  115.9170  4.1138  5.8372 0.4795 0.5195 2.5801   12.2891   16.6504  73.4972 1685.3300
 1685.3400 200.0000 251.6510 2008.4048  113.3772  0.4103  0.3888 310.2253  114.9795  4.1934  5.8146 0.4748 0.5148 2.3988   12.3258   16.7432  73.4996 1685.3400
 1685.3500 200.0000 252.2262 2007.1056  112.9835  0.4111  0.3896 311.5924  113.7228  4.2730  5.7920 0.4696 0.5096 2.1553   12.3625   16.8360  73.5020 1685.3500
 1685.3600 200.0000 252.5786 2006.2609  112.7220  0.4115  0.3901 312.9595  112.4803  4.3526  5.7694 0.4647 0.5047 1.9386   12.3992   16.9288  73.5044 1685.3600
 1685.3700 200.0000 252.3574 2006.5857  112.8008  0.4113  0.3899 314.3265  111.2741  4.4322  5.7468 0.4604 0.5004 1.7909   12.4359   17.0216  73.5068 1685.3700
 1685.3800 200.0000 252.1361 2006.9105  112.8795  0.4112  0.3898 315.6936  110.0679  4.5118  5.7242 0.4561 0.4961 1.6431   12.4726   17.1144  73.5092 1685.3800
 1685.3900 200.0000 251.3220 2009.4944  113.1330  0.4096  0.3882 316.9046  111.0933  4.5922  5.7261 0.4546 0.4946 1.5505   12.5084   17.2001  73.5106 1685.3900
 1685.4000 200.0000 250.2995 2012.8723  113.4480  0.4077  0.3861 318.0608  112.9032  4.6729  5.7367 0.4541 0.4941 1.4774   12.5440   17.2833  73.5118 1685.4000
 1685.4100 200.0000 249.2438 2014.4323  113.1412  0.4068  0.3852 319.1252  115.0686  4.7540  5.7617 0.4549 0.4949 1.4223   12.5791   17.3624  73.5124 1685.4100
 1685.4200 200.0000 248.0553 2008.7158  110.3460  0.4101  0.3887 319.8223  118.6571  4.8370  5.8444 0.4610 0.5010 1.4400   12.6122   17.4248  73.5108 1685.4200
 1685.4300 200.0000 246.8668 2002.9992  107.5507  0.4135  0.3921 320.5195  122.2456  4.9200  5.9271 0.4671 0.5071 1.4576   12.6453   17.4872  73.5092 1685.4300
 1685.4400 200.0000 245.6235 1990.4240  102.6251  0.4208  0.3997 321.2167  124.3588  5.0030  6.0098 0.4775 0.5175 1.4603   12.6784   17.5496  73.5076 1685.4400
 1685.4500 200.0000 244.3521 1974.3138   96.6014  0.4302  0.4095 321.9139  125.7117  5.0860  6.0925 0.4900 0.5300 1.4552   12.7115   17.6120  73.5060 1685.4500
 1685.4600 200.0000 243.0754 1958.3282   90.4598  0.4396  0.4192 322.6111  126.8255  5.1690  6.1752 0.5029 0.5429 1.4522   12.7446   17.6744  73.5044 1685.4600
 1685.4700 200.0000 241.7611 1943.2573   83.4520  0.4484  0.4283 323.3083  126.1854  5.2520  6.2579 0.5192 0.5592 1.4643   12.7777   17.7368  73.5028 1685.4700
 1685.4800 200.0000 240.4467 1928.1865   76.4441  0.4572  0.4375 324.0055  125.5452  5.3350  6.3406 0.5354 0.5754 1.4764   12.8108   17.7992  73.5012 1685.4800
 1685.4900 200.0000 239.0865 1915.7525   70.4636  0.4645  0.4450 324.5274  125.3820  5.4013  6.4219 0.5483 0.5883 1.4875   12.8403   17.8226  73.4974 1685.4900
 1685.5000 200.0000 237.6932 1905.2289   65.2274  0.4706  0.4514 324.9224  125.5646  5.4555  6.5023 0.5589 0.5989 1.4979   12.8672   17.8177  73.4920 1685.5000
