~Version Information Sectionhv
 VERS.      2.0         :CWLS Log ASCII Standard - version 2.0
 WRAP.      NO          :Mulitple lines per depth step
~Well Information Section
#MNEM.UNIT                      VALUE/NAME                 DESCRIPTION
#----.----     ----------------------------------   --------------------
 STRT     .M            1685.0100                         :START DEPTH
 STOP     .M            1879.9700                         :STOP DEPTH
 STEP     .M               0.0100                         :STEP
 NULL     .             -999.2500                         :NULL VALUE
 COMP     .          JORDAN PETROLEUM LIMITED             :COMPANY
 WELL     .          100052506825W500                     :WELL
 FLD      .          UNDEFINED                            :FIELD
 LOC      .                                               :LOCATION
 CNTY     .          UNKNOWN                              :COUNTY
 STAT     .          UNKNOWN                              :STATE
 CTRY     .          UNKNOWN                              :COUNTRY
 SRVC     .          UNKNOWN                              :SERVICE COMPANY
 DATE     .          UNKNOWN                              :LOG DATE
 UWI      .          100052506825W500                  :UNIQUE WELL ID
 XCOORD   .          0                                    :SURFACE X
 YCOORD   .          0                                    :SURFACE Y
 LAT      .          0                                    :LATITUDE
 LON      .          0                                    :LONGITUDE
 ELEV     .M               0.0000                         :SURFACE ELEV
 ELEV_TYPE.          KB                                   :ELEV TYPE
~Curve Information Section
#MNEM .UNIT          API CODE        CURVE DESCRIPTION
#---- .----        LG--CV-CL--M      -------------------------
 DEPTH.M                             :1 Measured Depth
 BIT  .MM               UNKNOWN      :2 BIT SIZE **MERGED**
 CAL  .MM               UNKNOWN      :3 DENSITY CALIPER
 DEN  .UNKNOWN          UNKNOWN      :4 Calculated in RESys
 DENC .UNKNOWN          UNKNOWN      :5 Calculated in RESys
 DPL  .V/V              UNKNOWN      :6 13
 DPS  .V/V              UNKNOWN      :7 11
 DTC  .GAPI             UNKNOWN      :8 3-5 FT COMPENSATED SONIC
 GR   .GAPI             UNKNOWN      :9 PNS GAMMA RAY
 MINV .OHMM             UNKNOWN      :10 MICRO-INVERSE
 MNRL .OHMM             UNKNOWN      :11 MICRO-NORMAL 2"
 NPL  .V/V              UNKNOWN      :12 14
 NPS  .V/V              UNKNOWN      :13 10
 PE   .B/E              UNKNOWN      :14 NEAR PE CURVE
 RD   .OHMM             UNKNOWN      :15 DEEP INDUCTION
 RS   .OHMM             UNKNOWN      :16 SHALLOW FE
 SP   .MV               UNKNOWN      :17 SPONTANEOUS POTENTIAL
 Z    .M                UNKNOWN      :18 DEPTH
~Parameter Information Section
#MNEM.UNIT                      VALUE                       DESCRIPTION
#----.----     ----------------------------------   --------------------
~A  DEPTH    BIT      CAL       DEN      DENC     DPL     DPS      DTC       GR      MINV    MNRL    NPL    NPS    PE       RD        RS        SP       Z     
# ...
 1750.0100 200.0000 196.6128 2433.0551   85.1898  0.1619  0.1315 216.2574   31.2338  6.1708 10.2703 0.1299 0.1699 2.4271    6.1700   24.8954 -30.3591 1750.0100
 1750.0200 200.0000 196.6125 2430.3917   84.3630  0.1635  0.1331 216.0718   32.0249  6.1536 10.2566 0.1294 0.1694 2.5130    6.1780   25.2168 -30.3032 1750.0200
 1750.0300 200.0000 196.6080 2426.4137   83.0340  0.1659  0.1355 215.8862   32.2008  6.1364 10.2429 0.1291 0.1691 2.3876    6.1860   25.5382 -30.2473 1750.0300
 1750.0400 200.0000 196.5980 2420.7622   81.0655  0.1692  0.1389 215.7006   31.5934  6.1192 10.2292 0.1287 0.1687 1.9933    6.1940   25.8596 -30.1914 1750.0400
 1750.0500 200.0000 196.5880 2415.1106   79.0970  0.1725  0.1424 215.5150   30.9861  6.1020 10.2155 0.1284 0.1684 1.5990    6.2020   26.1809 -30.1355 1750.0500
 1750.0600 200.0000 196.5948 2417.4095   78.1560  0.1711  0.1410 215.3294   31.2464  6.0848 10.2018 0.1284 0.1684 1.6467    6.2100   26.5024 -30.0796 1750.0600
 1750.0700 200.0000 196.6035 2420.5926   77.3292  0.1693  0.1390 215.1438   31.6032  6.0676 10.1881 0.1284 0.1684 1.7436    6.2180   26.8238 -30.0237 1750.0700
 1750.0800 200.0000 196.6064 2422.6534   76.4174  0.1681  0.1378 214.9630   31.6382  6.0510 10.1749 0.1285 0.1685 1.7934    6.2259   27.1419 -29.9683 1750.0800
 1750.0900 200.0000 196.5993 2422.7183   75.3544  0.1680  0.1377 214.7907   31.1007  6.0356 10.1627 0.1288 0.1688 1.7594    6.2339   27.4542 -29.9139 1750.0900
 1750.1000 200.0000 196.5921 2422.7833   74.2914  0.1680  0.1377 214.6184   30.5632  6.0202 10.1505 0.1291 0.1691 1.7254    6.2418   27.7666 -29.8594 1750.1000
 1750.1100 200.0000 196.5828 2424.9255   74.7779  0.1667  0.1364 214.5892   30.8247  6.0240 10.1544 0.1290 0.1690 1.7362    6.2484   27.9813 -29.8204 1750.1100
 1750.1200 200.0000 196.5730 2427.5239   75.6046  0.1652  0.1348 214.5914   31.2617  6.0320 10.1618 0.1288 0.1688 1.7568    6.2548   28.1746 -29.7848 1750.1200
 1750.1300 200.0000 196.5696 2428.5768   76.5637  0.1646  0.1342 214.5936   31.7437  6.0400 10.1692 0.1285 0.1685 1.7557    6.2612   28.3679 -29.7492 1750.1300
 1750.1400 200.0000 196.5830 2425.6535   77.8629  0.1663  0.1360 214.5958   32.3416  6.0480 10.1766 0.1280 0.1680 1.6986    6.2676   28.5612 -29.7136 1750.1400
 1750.1500 200.0000 196.5963 2422.7303   79.1621  0.1680  0.1377 214.5980   32.9394  6.0560 10.1840 0.1274 0.1674 1.6415    6.2740   28.7545 -29.6780 1750.1500
 1750.1600 200.0000 196.6115 2429.2758   82.9956  0.1641  0.1338 214.6002   32.8705  6.0640 10.1914 0.1272 0.1672 1.6805    6.2804   28.9478 -29.6424 1750.1600
 1750.1700 200.0000 196.6274 2439.1498   87.7200  0.1584  0.1278 214.6024   32.5672  6.0720 10.1988 0.1271 0.1671 1.7532    6.2868   29.1411 -29.6068 1750.1700
 1750.1800 200.0000 196.6451 2446.3618   91.2324  0.1542  0.1234 214.6095   32.1474  6.0816 10.2070 0.1270 0.1670 1.8013    6.2931   29.3321 -29.5717 1750.1800
 1750.1900 200.0000 196.6701 2442.9189   89.8938  0.1562  0.1255 214.6361   31.2617  6.0976 10.2185 0.1272 0.1672 1.7515    6.2990   29.5139 -29.5387 1750.1900
 1750.2000 200.0000 196.6952 2439.4760   88.5553  0.1582  0.1276 214.6627   30.3760  6.1137 10.2301 0.1273 0.1673 1.7017    6.3050   29.6958 -29.5056 1750.2000
 1750.2100 200.0000 196.7294 2437.6191   87.6583  0.1593  0.1287 214.7936   30.4160  6.1638 10.2591 0.1272 0.1672 1.7041    6.3089   29.8290 -29.4836 1750.2100
 1750.2200 200.0000 196.7683 2436.5798   86.9890  0.1599  0.1293 214.9782   30.9332  6.2316 10.2972 0.1268 0.1668 1.7334    6.3118   29.9370 -29.4672 1750.2200
 1750.2300 200.0000 196.8103 2434.3488   85.8147  0.1612  0.1307 215.1627   31.4571  6.2994 10.3353 0.1264 0.1664 1.7498    6.3147   30.0450 -29.4508 1750.2300
 1750.2400 200.0000 196.8750 2423.3705   80.9328  0.1676  0.1374 215.3473   32.0306  6.3672 10.3734 0.1252 0.1652 1.6713    6.3176   30.1530 -29.4344 1750.2400
 1750.2500 200.0000 196.9396 2412.3922   76.0510  0.1740  0.1440 215.5319   32.6041  6.4350 10.4115 0.1241 0.1641 1.5928    6.3205   30.2610 -29.4180 1750.2500
 1750.2600 200.0000 197.0047 2412.1497   75.8264  0.1741  0.1442 215.7165   33.1431  6.5028 10.4496 0.1231 0.1631 1.5659    6.3234   30.3690 -29.4016 1750.2600
 1750.2700 200.0000 197.0701 2419.6851   78.9760  0.1697  0.1396 215.9012   33.6570  6.5706 10.4877 0.1224 0.1624 1.5764    6.3263   30.4770 -29.3852 1750.2700
 1750.2800 200.0000 197.1358 2426.2361   81.8650  0.1659  0.1356 216.0845   34.1366  6.6384 10.5262 0.1216 0.1616 1.5871    6.3292   30.5846 -29.3690 1750.2800
 1750.2900 200.0000 197.2057 2409.0865   78.4792  0.1759  0.1460 216.2372   33.7917  6.7071 10.5734 0.1216 0.1616 1.6022    6.3312   30.6814 -29.3560 1750.2900
 1750.3000 200.0000 197.2756 2391.9370   75.0933  0.1860  0.1564 216.3900   33.4467  6.7758 10.6206 0.1216 0.1616 1.6173    6.3332   30.7782 -29.3431 1750.3000
 1750.3100 200.0000 197.3367 2384.2697   73.3409  0.1905  0.1610 216.4778   32.9301  6.8464 10.6865 0.1218 0.1618 1.7372    6.3333   30.8522 -29.3372 1750.3100
 1750.3200 200.0000 197.3890 2386.0886   73.2228  0.1894  0.1599 216.5006   32.2419  6.9186 10.7710 0.1222 0.1622 1.9618    6.3316   30.9034 -29.3384 1750.3200
 1750.3300 200.0000 197.4413 2387.9075   73.1047  0.1883  0.1588 216.5234   31.5538  6.9909 10.8555 0.1226 0.1626 2.1864    6.3299   30.9546 -29.3396 1750.3300
 1750.3400 200.0000 197.4886 2391.7222   71.7392  0.1861  0.1565 216.5462   30.8388  7.0632 10.9400 0.1230 0.1630 1.9977    6.3282   31.0058 -29.3408 1750.3400
 1750.3500 200.0000 197.5356 2395.6198   70.3219  0.1838  0.1542 216.5690   30.1226  7.1355 11.0245 0.1234 0.1634 1.7919    6.3265   31.0570 -29.3420 1750.3500
 1750.3600 200.0000 197.5798 2408.3052   71.2367  0.1764  0.1465 216.5918   29.6541  7.2078 11.1090 0.1239 0.1639 1.6608    6.3248   31.1082 -29.3432 1750.3600
 1750.3700 200.0000 197.6199 2433.1201   75.3706  0.1619  0.1314 216.6146   29.5273  7.2801 11.1935 0.1244 0.1644 1.6329    6.3231   31.1594 -29.3444 1750.3700
 1750.3800 200.0000 197.6600 2457.9350   79.5044  0.1474  0.1164 216.6374   29.4006  7.3524 11.2780 0.1249 0.1649 1.6050    6.3214   31.2106 -29.3456 1750.3800
 1750.3900 200.0000 197.6867 2459.5379   78.6833  0.1465  0.1154 216.6146   29.1701  7.4275 11.3619 0.1251 0.1651 1.6576    6.3189   31.2412 -29.3495 1750.3900
 1750.4000 200.0000 197.7115 2457.9788   77.1872  0.1474  0.1164 216.5855   28.9254  7.5028 11.4458 0.1252 0.1652 1.7211    6.3162   31.2691 -29.3539 1750.4000
 1750.4100 200.0000 197.7256 2458.0326   75.7581  0.1474  0.1163 216.5063   28.7768  7.5812 11.5290 0.1252 0.1652 1.8274    6.3127   31.2744 -29.3614 1750.4100
 1750.4200 200.0000 197.7190 2461.2156   74.4589  0.1455  0.1144 216.3298   28.8144  7.6654 11.6108 0.1247 0.1647 2.0167    6.3074   31.2358 -29.3748 1750.4200
 1750.4300 200.0000 197.7123 2464.3987   73.1597  0.1437  0.1125 216.1532   28.8521  7.7496 11.6927 0.1243 0.1643 2.2060    6.3021   31.1972 -29.3882 1750.4300
 1750.4400 200.0000 197.7113 2467.6338   72.2700  0.1418  0.1105 215.9766   29.0757  7.8338 11.7746 0.1237 0.1637 2.0942    6.2968   31.1586 -29.4016 1750.4400
 1750.4500 200.0000 197.7116 2470.8818   71.4826  0.1398  0.1086 215.8000   29.3457  7.9180 11.8565 0.1231 0.1631 1.9072    6.2915   31.1200 -29.4150 1750.4500
 1750.4600 200.0000 197.7127 2474.7381   71.0843  0.1376  0.1062 215.6234   29.4334  8.0022 11.9384 0.1226 0.1626 1.7919    6.2862   31.0814 -29.4284 1750.4600
 1750.4700 200.0000 197.7160 2480.3247   71.7930  0.1343  0.1028 215.4468   29.0023  8.0864 12.0203 0.1226 0.1626 1.8806    6.2809   31.0428 -29.4418 1750.4700
 1750.4800 200.0000 197.7193 2485.9113   72.5016  0.1310  0.0994 215.2702   28.5712  8.1706 12.1022 0.1226 0.1626 1.9693    6.2756   31.0042 -29.4552 1750.4800
 1750.4900 200.0000 197.7213 2484.8087   71.7644  0.1317  0.1001 215.1479   28.4762  8.2419 12.1741 0.1229 0.1629 2.0371    6.2695   30.9476 -29.4704 1750.4900
 1750.5000 200.0000 197.7229 2481.1059   70.4652  0.1338  0.1024 215.0467   28.5120  8.3081 12.2421 0.1232 0.1632 2.0968    6.2631   30.8840 -29.4862 1750.5000
