~Version Information Sectionhv
 VERS.      2.0         :CWLS Log ASCII Standard - version 2.0
 WRAP.      NO          :Mulitple lines per depth step
~Well Information Section
#MNEM.UNIT                      VALUE/NAME                 DESCRIPTION
#----.----     ----------------------------------   --------------------
 STRT     .M            1685.0100                         :START DEPTH
 STOP     .M            1879.9700                         :STOP DEPTH
 STEP     .M               0.0100                         :STEP
 NULL     .             -999.2500                         :NULL VALUE
 COMP     .          JORDAN PETROLEUM LIMITED             :COMPANY
 WELL     .          100052506825W500                     :WELL
 FLD      .          UNDEFINED                            :FIELD
 LOC      .                                               :LOCATION
 CNTY     .          UNKNOWN                              :COUNTY
 STAT     .          UNKNOWN                              :STATE
 CTRY     .          UNKNOWN                              :COUNTRY
 SRVC     .          UNKNOWN                              :SERVICE COMPANY
 DATE     .          UNKNOWN                              :LOG DATE
 UWI      .          100052506825W500                  :UNIQUE WELL ID
 XCOORD   .          0                                    :SURFACE X
 YCOORD   .          0                                    :SURFACE Y
 LAT      .          0                                    :LATITUDE
 LON      .          0                                    :LONGITUDE
 ELEV     .M               0.0000                         :SURFACE ELEV
 ELEV_TYPE.          KB                                   :ELEV TYPE
~Curve Information Section
#MNEM .UNIT          API CODE        CURVE DESCRIPTION
#---- .----        LG--CV-CL--M      -------------------------
 DEPTH.M                             :1 Measured Depth
 BIT  .MM               UNKNOWN      :2 BIT SIZE **MERGED**
 CAL  .MM               UNKNOWN      :3 DENSITY CALIPER
 DEN  .UNKNOWN          UNKNOWN      :4 Calculated in RESys
 DENC .UNKNOWN          UNKNOWN      :5 Calculated in RESys
 DPL  .V/V              UNKNOWN      :6 13
 DPS  .V/V              UNKNOWN      :7 11
 DTC  .GAPI             UNKNOWN      :8 3-5 FT COMPENSATED SONIC
 GR   .GAPI             UNKNOWN      :9 PNS GAMMA RAY
 MINV .OHMM             UNKNOWN      :10 MICRO-INVERSE
 MNRL .OHMM             UNKNOWN      :11 MICRO-NORMAL 2"
 NPL  .V/V              UNKNOWN      :12 14
 NPS  .V/V              UNKNOWN      :13 10
 PE   .B/E              UNKNOWN      :14 NEAR PE CURVE
 RD   .OHMM             UNKNOWN      :15 DEEP INDUCTION
 RS   .OHMM             UNKNOWN      :16 SHALLOW FE
 SP   .MV               UNKNOWN      :17 SPONTANEOUS POTENTIAL
 Z    .M                UNKNOWN      :18 DEPTH
~Parameter Information Section
#MNEM.UNIT                      VALUE                       DESCRIPTION
#----.----     ----------------------------------   --------------------
~A  DEPTH    BIT      CAL       DEN      DENC     DPL     DPS      DTC       GR      MINV    MNRL    NPL    NPS    PE       RD        RS        SP       Z     
# ...
 1866.5100 200.0000 200.4264 2542.7500   40.4000  0.0978  0.0650 226.5466  110.1306 11.4403  8.7131 0.1388 0.1788 2.9140    6.7329    8.3200  23.0654 1866.5100
 1866.5200 200.0000 200.4481 2545.6732   41.1087  0.0961  0.0632 226.3962  110.1261 11.4966  8.7382 0.1395 0.1795 2.8506    6.6988    8.3030  22.8858 1866.5200
 1866.5300 200.0000 200.4699 2548.5964   41.8173  0.0944  0.0615 226.2458  110.1216 11.5529  8.7633 0.1401 0.1801 2.7871    6.6647    8.2860  22.7062 1866.5300
 1866.5400 200.0000 200.4863 2550.2945   42.7614  0.0934  0.0604 226.0954  110.1703 11.6092  8.7884 0.1403 0.1803 2.7869    6.6306    8.2690  22.5266 1866.5400
 1866.5500 200.0000 200.4965 2550.5544   43.9819  0.0933  0.0603 225.9450  110.2815 11.6655  8.8135 0.1399 0.1799 2.8610    6.5965    8.2520  22.3470 1866.5500
 1866.5600 200.0000 200.5067 2550.8142   45.2024  0.0931  0.0601 225.7946  110.3927 11.7218  8.8386 0.1394 0.1794 2.9350    6.5624    8.2350  22.1674 1866.5600
 1866.5700 200.0000 200.5081 2549.5800   45.2638  0.0938  0.0609 225.6442  111.0980 11.7781  8.8637 0.1381 0.1781 3.0165    6.5283    8.2180  21.9878 1866.5700
 1866.5800 200.0000 200.5088 2548.2158   45.2244  0.0946  0.0617 225.4938  111.8549 11.8344  8.8888 0.1368 0.1768 3.0986    6.4942    8.2010  21.8082 1866.5800
 1866.5900 200.0000 200.5070 2547.5922   44.7961  0.0950  0.0621 225.3328  111.9750 11.8906  8.9147 0.1353 0.1753 3.1307    6.4606    8.1841  21.6395 1866.5900
 1866.6000 200.0000 200.5011 2548.1768   43.7331  0.0946  0.0617 225.1543  111.0561 11.9465  8.9417 0.1336 0.1736 3.0813    6.4278    8.1674  21.4889 1866.6000
 1866.6100 200.0000 200.4951 2548.7614   42.6701  0.0943  0.0614 224.9758  110.1372 12.0024  8.9688 0.1319 0.1719 3.0318    6.3950    8.1507  21.3382 1866.6100
 1866.6200 200.0000 200.4918 2554.5844   42.5000  0.0909  0.0578 224.7692  108.4661 12.0580  8.9978 0.1308 0.1708 2.9748    6.3636    8.1342  21.2164 1866.6200
 1866.6300 200.0000 200.4890 2561.4052   42.5000  0.0869  0.0537 224.5573  106.6517 12.1135  9.0272 0.1299 0.1699 2.9163    6.3324    8.1178  21.1001 1866.6300
 1866.6400 200.0000 200.4847 2568.3625   42.7362  0.0828  0.0495 224.3454  105.3366 12.1690  9.0566 0.1291 0.1691 2.8746    6.3012    8.1014  20.9838 1866.6400
 1866.6500 200.0000 200.4771 2575.6381   43.5236  0.0786  0.0451 224.1335  105.1867 12.2245  9.0860 0.1288 0.1688 2.8724    6.2700    8.0850  20.8675 1866.6500
 1866.6600 200.0000 200.4694 2582.9136   44.3110  0.0743  0.0407 223.9216  105.0367 12.2800  9.1154 0.1286 0.1686 2.8701    6.2388    8.0686  20.7512 1866.6600
 1866.6700 200.0000 200.4642 2585.9929   44.6496  0.0725  0.0388 223.7097  104.5591 12.3355  9.1448 0.1286 0.1686 2.8417    6.2076    8.0522  20.6349 1866.6700
 1866.6800 200.0000 200.4598 2587.7469   44.8464  0.0715  0.0377 223.4978  103.9780 12.3910  9.1742 0.1286 0.1686 2.8049    6.1764    8.0358  20.5186 1866.6800
 1866.6900 200.0000 200.4572 2587.7575   44.5930  0.0715  0.0377 223.2687  103.5060 12.4523  9.2021 0.1289 0.1689 2.7859    6.1455    8.0186  20.4068 1866.6900
 1866.7000 200.0000 200.4606 2581.5863   42.7426  0.0751  0.0415 222.9787  103.4207 12.5344  9.2246 0.1299 0.1699 2.8298    6.1154    7.9988  20.3109 1866.7000
 1866.7100 200.0000 200.4640 2575.4150   40.8922  0.0787  0.0452 222.6886  103.3353 12.6164  9.2471 0.1308 0.1708 2.8738    6.0852    7.9790  20.2151 1866.7100
 1866.7200 200.0000 200.4680 2569.7738   39.1221  0.0820  0.0486 222.3494  103.1707 12.7152  9.2652 0.1317 0.1717 2.8388    6.0558    7.9570  20.1320 1866.7200
 1866.7300 200.0000 200.4723 2564.3821   37.3898  0.0852  0.0519 221.9871  102.9687 12.8218  9.2813 0.1326 0.1726 2.7667    6.0267    7.9340  20.0550 1866.7300
 1866.7400 200.0000 200.4767 2560.0541   35.8504  0.0877  0.0545 221.6248  102.5999 12.9284  9.2974 0.1334 0.1734 2.6990    5.9976    7.9110  19.9780 1866.7400
 1866.7500 200.0000 200.4818 2562.2628   35.4961  0.0864  0.0532 221.2625  101.2059 13.0350  9.3135 0.1333 0.1733 2.6589    5.9685    7.8880  19.9010 1866.7500
 1866.7600 200.0000 200.4869 2564.4714   35.1418  0.0851  0.0518 220.9002   99.8119 13.1416  9.3296 0.1331 0.1731 2.6187    5.9394    7.8650  19.8240 1866.7600
 1866.7700 200.0000 200.4882 2569.4472   35.9448  0.0822  0.0488 220.5379   99.3389 13.2482  9.3457 0.1324 0.1724 2.6272    5.9103    7.8420  19.7470 1866.7700
 1866.7800 200.0000 200.4869 2576.2680   37.5196  0.0782  0.0447 220.1756   99.4801 13.3548  9.3618 0.1313 0.1713 2.6680    5.8812    7.8190  19.6700 1866.7800
 1866.7900 200.0000 200.4859 2582.6450   39.0566  0.0745  0.0408 219.8142   99.6277 13.4612  9.3793 0.1303 0.1703 2.7061    5.8522    7.7960  19.5942 1866.7900
 1866.8000 200.0000 200.4874 2582.0603   40.0015  0.0748  0.0412 219.4679   99.8752 13.5650  9.4188 0.1305 0.1705 2.7023    5.8248    7.7719  19.5368 1866.8000
 1866.8100 200.0000 200.4889 2581.4757   40.9464  0.0751  0.0415 219.1216  100.1227 13.6687  9.4582 0.1306 0.1706 2.6984    5.7974    7.7479  19.4794 1866.8100
 1866.8200 200.0000 200.4945 2578.4254   41.1953  0.0769  0.0434 218.7812  100.3711 13.7714  9.5064 0.1316 0.1716 2.7454    5.7706    7.7236  19.4294 1866.8200
 1866.8300 200.0000 200.5040 2573.0986   40.8016  0.0800  0.0466 218.4463  100.6203 13.8731  9.5626 0.1333 0.1733 2.8391    5.7444    7.6989  19.3861 1866.8300
 1866.8400 200.0000 200.5134 2567.7719   40.4079  0.0831  0.0498 218.1114  100.8695 13.9748  9.6188 0.1350 0.1750 2.9329    5.7182    7.6742  19.3428 1866.8400
 1866.8500 200.0000 200.5228 2565.2460   40.0142  0.0846  0.0514 217.7765  101.3972 14.0765  9.6750 0.1358 0.1758 2.9980    5.6920    7.6495  19.2995 1866.8500
 1866.8600 200.0000 200.5322 2562.7775   39.6205  0.0861  0.0529 217.4417  101.9306 14.1782  9.7312 0.1366 0.1766 3.0624    5.6658    7.6248  19.2562 1866.8600
 1866.8700 200.0000 200.5363 2562.5953   39.2268  0.0862  0.0530 217.1068  101.7944 14.2799  9.7874 0.1365 0.1765 3.0784    5.6396    7.6001  19.2129 1866.8700
 1866.8800 200.0000 200.5339 2565.3236   38.8331  0.0846  0.0513 216.7718  100.8057 14.3816  9.8436 0.1352 0.1752 3.0327    5.6134    7.5754  19.1696 1866.8800
 1866.8900 200.0000 200.5315 2568.0520   38.4394  0.0831  0.0497 216.4369   99.8170 14.4833  9.8998 0.1340 0.1740 2.9870    5.5872    7.5507  19.1263 1866.8900
 1866.9000 200.0000 200.5265 2568.4419   37.5497  0.0828  0.0494 216.2211   98.8005 14.5522  9.9263 0.1322 0.1722 2.9419    5.5621    7.5367  19.0906 1866.9000
 1866.9100 200.0000 200.5212 2568.5718   36.6048  0.0828  0.0494 216.0186   97.7808 14.6175  9.9496 0.1302 0.1702 2.8969    5.5370    7.5239  19.0558 1866.9100
 1866.9200 200.0000 200.5158 2568.2575   35.9575  0.0829  0.0495 215.8422   97.8382 14.6756  9.9664 0.1287 0.1687 2.8908    5.5122    7.5134  19.0226 1866.9200
 1866.9300 200.0000 200.5102 2567.1532   35.8394  0.0836  0.0502 215.7123   99.8110 14.7209  9.9716 0.1277 0.1677 2.9538    5.4878    7.5071  18.9924 1866.9300
 1866.9400 200.0000 200.5046 2566.0489   35.7213  0.0842  0.0509 215.5824  101.7838 14.7662  9.9768 0.1268 0.1668 3.0168    5.4634    7.5008  18.9622 1866.9400
 1866.9500 200.0000 200.5053 2561.4293   35.5709  0.0869  0.0537 215.4525  101.7906 14.8115  9.9820 0.1261 0.1661 3.0008    5.4390    7.4945  18.9320 1866.9500
 1866.9600 200.0000 200.5075 2556.0375   35.4134  0.0900  0.0569 215.3226  101.3656 14.8568  9.9872 0.1255 0.1655 2.9676    5.4146    7.4882  18.9018 1866.9600
 1866.9700 200.0000 200.5096 2552.4641   35.7298  0.0921  0.0591 215.1927  100.9617 14.9021  9.9924 0.1250 0.1650 2.9278    5.3902    7.4819  18.8716 1866.9700
 1866.9800 200.0000 200.5115 2553.5684   37.2652  0.0915  0.0584 215.0628  100.6121 14.9474  9.9976 0.1244 0.1644 2.8715    5.3658    7.4756  18.8414 1866.9800
 1866.9900 200.0000 200.5135 2554.6728   38.8006  0.0909  0.0578 214.9329  100.2626 14.9927 10.0028 0.1239 0.1639 2.8152    5.3414    7.4693  18.8112 1866.9900
 1867.0000 200.0000 200.5104 2554.5755   39.7243  0.0909  0.0578 214.7815  100.9335 14.9941 10.0186 0.1240 0.1640 2.8273    5.3183    7.4665  18.7625 1867.0000
