~Version Information Sectionhv
 VERS.      2.0         :CWLS Log ASCII Standard - version 2.0
 WRAP.      NO          :Mulitple lines per depth step
~Well Information Section
#MNEM.UNIT                      VALUE/NAME                 DESCRIPTION
#----.----     ----------------------------------   --------------------
 STRT     .M            1685.0100                         :START DEPTH
 STOP     .M            1879.9700                         :STOP DEPTH
 STEP     .M               0.0100                         :STEP
 NULL     .             -999.2500                         :NULL VALUE
 COMP     .          JORDAN PETROLEUM LIMITED             :COMPANY
 WELL     .          100052506825W500                     :WELL
 FLD      .          UNDEFINED                            :FIELD
 LOC      .                                               :LOCATION
 CNTY     .          UNKNOWN                              :COUNTY
 STAT     .          UNKNOWN                              :STATE
 CTRY     .          UNKNOWN                              :COUNTRY
 SRVC     .          UNKNOWN                              :SERVICE COMPANY
 DATE     .          UNKNOWN                              :LOG DATE
 UWI      .          100052506825W500                  :UNIQUE WELL ID
 XCOORD   .          0                                    :SURFACE X
 YCOORD   .          0                                    :SURFACE Y
 LAT      .          0                                    :LATITUDE
 LON      .          0                                    :LONGITUDE
 ELEV     .M               0.0000                         :SURFACE ELEV
 ELEV_TYPE.          KB                                   :ELEV TYPE
~Curve Information Section
#MNEM .UNIT          API CODE        CURVE DESCRIPTION
#---- .----        LG--CV-CL--M      -------------------------
 DEPTH.M                             :1 Measured Depth
 BIT  .MM               UNKNOWN      :2 BIT SIZE **MERGED**
 CAL  .MM               UNKNOWN      :3 DENSITY CALIPER
 DEN  .UNKNOWN          UNKNOWN      :4 Calculated in RESys
 DENC .UNKNOWN          UNKNOWN      :5 Calculated in RESys
 DPL  .V/V              UNKNOWN      :6 13
 DPS  .V/V              UNKNOWN      :7 11
 DTC  .GAPI             UNKNOWN      :8 3-5 FT COMPENSATED SONIC
 GR   .GAPI             UNKNOWN      :9 PNS GAMMA RAY
 MINV .OHMM             UNKNOWN      :10 MICRO-INVERSE
 MNRL .OHMM             UNKNOWN      :11 MICRO-NORMAL 2"
 NPL  .V/V              UNKNOWN      :12 14
 NPS  .V/V              UNKNOWN      :13 10
 PE   .B/E              UNKNOWN      :14 NEAR PE CURVE
 RD   .OHMM             UNKNOWN      :15 DEEP INDUCTION
 RS   .OHMM             UNKNOWN      :16 SHALLOW FE
 SP   .MV               UNKNOWN      :17 SPONTANEOUS POTENTIAL
 Z    .M                UNKNOWN      :18 DEPTH
~Parameter Information Section
#MNEM.UNIT                      VALUE                       DESCRIPTION
#----.----     ----------------------------------   --------------------
~A  DEPTH    BIT      CAL       DEN      DENC     DPL     DPS      DTC       GR      MINV    MNRL    NPL    NPS    PE       RD        RS        SP       Z     
# ...
 1776.0100 200.0000 197.6304 2329.1644   15.3889  0.2227  0.1944 295.5359  311.5440 43.6660 21.0807 0.2693 0.3093 4.6470 1195.8954 1472.8599  70.7845 1776.0100
 1776.0200 200.0000 197.6294 2325.3967   14.8378  0.2249  0.1967 296.1238  313.3316 43.8080 21.0444 0.2709 0.3109 4.7287 1200.3575 1468.3191  70.7040 1776.0200
 1776.0300 200.0000 197.6285 2321.6290   14.2866  0.2272  0.1990 296.7117  315.1192 43.9500 21.0081 0.2725 0.3125 4.8104 1204.8196 1463.7783  70.6235 1776.0300
 1776.0400 200.0000 197.6299 2318.5785   13.6787  0.2289  0.2009 297.2996  316.6403 44.0920 20.9718 0.2747 0.3147 4.8514 1209.2817 1459.2375  70.5430 1776.0400
 1776.0500 200.0000 197.6337 2316.3049   13.0094  0.2302  0.2022 297.8875  317.8729 44.2340 20.9355 0.2777 0.3177 4.8482 1213.7437 1454.6968  70.4625 1776.0500
 1776.0600 200.0000 197.6376 2314.0313   12.3401  0.2315  0.2036 298.4755  319.1054 44.3760 20.8992 0.2807 0.3207 4.8450 1218.2058 1450.1560  70.3820 1776.0600
 1776.0700 200.0000 197.6427 2318.2307   13.5954  0.2291  0.2011 299.0633  319.3159 44.5180 20.8629 0.2828 0.3228 4.7982 1222.6679 1445.6152  70.3015 1776.0700
 1776.0800 200.0000 197.6479 2322.8429   14.9733  0.2264  0.1983 299.6512  319.4612 44.6600 20.8266 0.2848 0.3248 4.7486 1227.1301 1441.0744  70.2210 1776.0800
 1776.0900 200.0000 197.6510 2324.8044   16.0048  0.2253  0.1971 300.1593  319.2646 44.7463 20.7921 0.2857 0.3257 4.7124 1231.4323 1439.6850  70.1379 1776.0900
 1776.1000 200.0000 197.6510 2322.7906   16.5166  0.2265  0.1983 300.5478  318.5554 44.7489 20.7602 0.2848 0.3248 4.6960 1235.4947 1443.0217  70.0509 1776.1000
 1776.1100 200.0000 197.6510 2320.7768   17.0284  0.2276  0.1995 300.9362  317.8461 44.7516 20.7284 0.2840 0.3240 4.6797 1239.5571 1446.3584  69.9640 1776.1100
 1776.1200 200.0000 197.6510 2314.4053   16.4228  0.2314  0.2034 301.1140  316.8164 44.6072 20.7012 0.2821 0.3221 4.7190 1243.1975 1458.0154  69.8702 1776.1200
 1776.1300 200.0000 197.6510 2307.3246   15.6354  0.2355  0.2077 301.2575  315.7345 44.4388 20.6748 0.2799 0.3199 4.7674 1246.7693 1471.0262  69.7753 1776.1300
 1776.1400 200.0000 197.6510 2300.9715   14.8984  0.2392  0.2115 301.4010  314.4978 44.2704 20.6484 0.2781 0.3181 4.7806 1250.3410 1484.0371  69.6804 1776.1400
 1776.1500 200.0000 197.6510 2296.1645   14.2685  0.2420  0.2144 301.5445  312.9322 44.1020 20.6220 0.2768 0.3168 4.7190 1253.9127 1497.0480  69.5855 1776.1500
 1776.1600 200.0000 197.6510 2291.3574   13.6386  0.2448  0.2174 301.6880  311.3666 43.9336 20.5956 0.2755 0.3155 4.6574 1257.4844 1510.0589  69.4906 1776.1600
 1776.1700 200.0000 197.6474 2293.5430   14.1142  0.2435  0.2160 301.8315  308.8369 43.7652 20.5692 0.2758 0.3158 4.6747 1261.0560 1523.0697  69.3957 1776.1700
 1776.1800 200.0000 197.6429 2297.7004   14.9016  0.2411  0.2135 301.9750  306.0353 43.5968 20.5428 0.2765 0.3165 4.7142 1264.6277 1536.0806  69.3008 1776.1800
 1776.1900 200.0000 197.6383 2302.4816   15.5378  0.2383  0.2106 302.0883  303.0605 43.4324 20.5264 0.2772 0.3172 4.7384 1269.0506 1549.2600  69.2059 1776.1900
 1776.2000 200.0000 197.6338 2309.2375   15.6953  0.2344  0.2065 302.1059  299.5374 43.2806 20.5420 0.2778 0.3178 4.7141 1276.1685 1562.9728  69.1111 1776.2000
 1776.2100 200.0000 197.6293 2315.9934   15.8528  0.2304  0.2024 302.1235  296.0143 43.1287 20.5575 0.2784 0.3184 4.6898 1283.2864 1576.6855  69.0163 1776.2100
 1776.2200 200.0000 197.6280 2321.4760   14.7976  0.2272  0.1991 302.0570  291.3089 42.9880 20.6010 0.2763 0.3163 4.6681 1292.7722 1590.8669  68.9216 1776.2200
 1776.2300 200.0000 197.6280 2326.4130   13.2228  0.2243  0.1961 301.9545  286.0970 42.8520 20.6565 0.2730 0.3130 4.6475 1303.2727 1605.2492  68.8269 1776.2300
 1776.2400 200.0000 197.6281 2330.9342   11.6039  0.2217  0.1934 301.8520  280.6965 42.7160 20.7120 0.2693 0.3093 4.6377 1313.7732 1619.6315  68.7322 1776.2400
 1776.2500 200.0000 197.6290 2333.2728    9.7535  0.2203  0.1920 301.7495  274.3064 42.5800 20.7675 0.2630 0.3030 4.6842 1324.2737 1634.0138  68.6375 1776.2500
 1776.2600 200.0000 197.6299 2335.6114    7.9031  0.2189  0.1905 301.6470  267.9162 42.4440 20.8230 0.2568 0.2968 4.7308 1334.7742 1648.3960  68.5428 1776.2600
 1776.2700 200.0000 197.6302 2339.9638    8.3229  0.2164  0.1879 301.5445  261.0793 42.3080 20.8785 0.2528 0.2928 4.7594 1345.2747 1662.7783  68.4481 1776.2700
 1776.2800 200.0000 197.6303 2345.5504   10.1339  0.2131  0.1845 301.4420  253.9687 42.1720 20.9340 0.2502 0.2902 4.7769 1355.7752 1677.1606  68.3534 1776.2800
 1776.2900 200.0000 197.6303 2350.6016   11.9260  0.2102  0.1815 301.3398  246.8888 42.0540 20.9959 0.2481 0.2881 4.7920 1366.3274 1692.4180  68.2587 1776.2900
 1776.3000 200.0000 197.6297 2349.4973   13.5008  0.2108  0.1821 301.2412  240.1620 42.1424 21.1311 0.2518 0.2918 4.7797 1377.4741 1717.7391  68.1632 1776.3000
 1776.3100 200.0000 197.6292 2348.3930   15.0756  0.2115  0.1828 301.1426  233.4353 42.2309 21.2663 0.2555 0.2955 4.7674 1388.6209 1743.0602  68.0677 1776.3100
 1776.3200 200.0000 197.6261 2346.0960   15.8850  0.2128  0.1842 301.0456  228.0892 42.4090 21.4334 0.2600 0.3000 4.7932 1400.0259 1772.7509  67.9720 1776.3200
 1776.3300 200.0000 197.6206 2342.7830   16.0425  0.2148  0.1862 300.9499  223.9193 42.6635 21.6276 0.2653 0.3053 4.8515 1411.6507 1806.1638  67.8760 1776.3300
 1776.3400 200.0000 197.6152 2339.4700   16.2000  0.2167  0.1882 300.8542  219.7494 42.9180 21.8218 0.2705 0.3105 4.9098 1423.2756 1839.5766  67.7800 1776.3400
 1776.3500 200.0000 197.6172 2340.5094   15.0583  0.2161  0.1876 300.7585  217.2351 43.1725 22.0160 0.2716 0.3116 4.8035 1434.9005 1872.9894  67.6840 1776.3500
 1776.3600 200.0000 197.6191 2341.5487   13.9165  0.2154  0.1869 300.6628  214.7208 43.4270 22.2102 0.2728 0.3128 4.6971 1446.5253 1906.4023  67.5880 1776.3600
 1776.3700 200.0000 197.6218 2346.6520   13.2276  0.2125  0.1838 300.5671  212.3703 43.6815 22.4044 0.2723 0.3123 4.6494 1458.1502 1939.8151  67.4920 1776.3700
 1776.3800 200.0000 197.6253 2356.5260   13.0701  0.2067  0.1779 300.4714  210.2119 43.9360 22.5986 0.2700 0.3100 4.6705 1469.7751 1973.2279  67.3960 1776.3800
 1776.3900 200.0000 197.6287 2366.4000   12.9126  0.2010  0.1719 300.3757  208.0535 44.1905 22.7928 0.2677 0.3077 4.6916 1481.4000 2006.6407  67.3000 1776.3900
 1776.4000 200.0000 197.6398 2373.8237   12.8276  0.1966  0.1674 300.3001  208.8083 44.2789 22.9558 0.2651 0.3051 4.6586 1493.6435 2051.2547  67.2025 1776.4000
 1776.4100 200.0000 197.6515 2381.0343   12.7488  0.1924  0.1630 300.2262  209.8164 44.3529 23.1162 0.2624 0.3024 4.6210 1505.9408 2096.8427  67.1048 1776.4100
 1776.4200 200.0000 197.6702 2385.8259   12.4906  0.1896  0.1601 300.1570  211.8294 44.3878 23.2692 0.2596 0.2996 4.6022 1518.3832 2145.0581  67.0068 1776.4200
 1776.4300 200.0000 197.7001 2386.6704   11.9394  0.1891  0.1596 300.0955  215.4819 44.3592 23.4103 0.2563 0.2963 4.6143 1531.0624 2197.5605  66.9082 1776.4300
 1776.4400 200.0000 197.7300 2387.5149   11.3882  0.1886  0.1591 300.0340  219.1344 44.3306 23.5514 0.2530 0.2930 4.6264 1543.7416 2250.0629  66.8096 1776.4400
 1776.4500 200.0000 197.7713 2381.0476   10.7378  0.1924  0.1630 299.9725  224.3830 44.3020 23.6925 0.2495 0.2895 4.6159 1556.4207 2302.5654  66.7110 1776.4500
 1776.4600 200.0000 197.8148 2373.1874   10.0685  0.1970  0.1678 299.9110  229.9355 44.2734 23.8336 0.2458 0.2858 4.6012 1569.0999 2355.0678  66.6124 1776.4600
 1776.4700 200.0000 197.8649 2364.9374    9.4465  0.2018  0.1728 299.8495  235.3454 44.2448 23.9747 0.2425 0.2825 4.6228 1581.7790 2407.5702  66.5138 1776.4700
 1776.4800 200.0000 197.9305 2355.7780    8.9347  0.2072  0.1783 299.7880  240.4222 44.2162 24.1158 0.2397 0.2797 4.7292 1594.4582 2460.0726  66.4152 1776.4800
 1776.4900 200.0000 197.9961 2346.6185    8.4228  0.2125  0.1839 299.7265  245.4990 44.1876 24.2569 0.2370 0.2770 4.8357 1607.1374 2512.5749  66.3166 1776.4900
 1776.5000 200.0000 198.0731 2337.0642    8.0008  0.2181  0.1897 299.7341  250.6739 44.2508 24.3760 0.2364 0.2764 4.8145 1623.4484 2558.9439  66.2054 1776.5000
