~Version Information Sectionhv
 VERS.      2.0         :CWLS Log ASCII Standard - version 2.0
 WRAP.      NO          :Mulitple lines per depth step
~Well Information Section
#MNEM.UNIT                      VALUE/NAME                 DESCRIPTION
#----.----     ----------------------------------   --------------------
 STRT     .M            1685.0100                         :START DEPTH
 STOP     .M            1879.9700                         :STOP DEPTH
 STEP     .M               0.0100                         :STEP
 NULL     .             -999.2500                         :NULL VALUE
 COMP     .          JORDAN PETROLEUM LIMITED             :COMPANY
 WELL     .          100052506825W500                     :WELL
 FLD      .          UNDEFINED                            :FIELD
 LOC      .                                               :LOCATION
 CNTY     .          UNKNOWN                              :COUNTY
 STAT     .          UNKNOWN                              :STATE
 CTRY     .          UNKNOWN                              :COUNTRY
 SRVC     .          UNKNOWN                              :SERVICE COMPANY
 DATE     .          UNKNOWN                              :LOG DATE
 UWI      .          100052506825W500                  :UNIQUE WELL ID
 XCOORD   .          0                                    :SURFACE X
 YCOORD   .          0                                    :SURFACE Y
 LAT      .          0                                    :LATITUDE
 LON      .          0                                    :LONGITUDE
 ELEV     .M               0.0000                         :SURFACE ELEV
 ELEV_TYPE.          KB                                   :ELEV TYPE
~Curve Information Section
#MNEM .UNIT          API CODE        CURVE DESCRIPTION
#---- .----        LG--CV-CL--M      -------------------------
 DEPTH.M                             :1 Measured Depth
 BIT  .MM               UNKNOWN      :2 BIT SIZE **MERGED**
 CAL  .MM               UNKNOWN      :3 DENSITY CALIPER
 DEN  .UNKNOWN          UNKNOWN      :4 Calculated in RESys
 DENC .UNKNOWN          UNKNOWN      :5 Calculated in RESys
 DPL  .V/V              UNKNOWN      :6 13
 DPS  .V/V              UNKNOWN      :7 11
 DTC  .GAPI             UNKNOWN      :8 3-5 FT COMPENSATED SONIC
 GR   .GAPI             UNKNOWN      :9 PNS GAMMA RAY
 MINV .OHMM             UNKNOWN      :10 MICRO-INVERSE
 MNRL .OHMM             UNKNOWN      :11 MICRO-NORMAL 2"
 NPL  .V/V              UNKNOWN      :12 14
 NPS  .V/V              UNKNOWN      :13 10
 PE   .B/E              UNKNOWN      :14 NEAR PE CURVE
 RD   .OHMM             UNKNOWN      :15 DEEP INDUCTION
 RS   .OHMM             UNKNOWN      :16 SHALLOW FE
 SP   .MV               UNKNOWN      :17 SPONTANEOUS POTENTIAL
 Z    .M                UNKNOWN      :18 DEPTH
~Parameter Information Section
#MNEM.UNIT                      VALUE                       DESCRIPTION
#----.----     ----------------------------------   --------------------
~A  DEPTH    BIT      CAL       DEN      DENC     DPL     DPS      DTC       GR      MINV    MNRL    NPL    NPS    PE       RD        RS        SP       Z     
# ...
 1853.5100 200.0000 200.8916 2533.0558   34.6804  0.1035  0.0709 223.6755  108.7297 13.2870 11.0417 0.1272 0.1672 2.6822    6.6998    8.6419  32.7002 1853.5100
 1853.5200 200.0000 200.8860 2541.0459   36.0977  0.0988  0.0660 223.6960  108.4434 13.3200 11.0314 0.1273 0.1673 2.7504    6.6976    8.6458  32.7194 1853.5200
 1853.5300 200.0000 200.8803 2549.0360   37.5150  0.0942  0.0612 223.7165  108.1572 13.3530 11.0211 0.1273 0.1673 2.8186    6.6954    8.6497  32.7386 1853.5300
 1853.5400 200.0000 200.8810 2550.8585   37.7110  0.0931  0.0601 223.7370  108.1753 13.3860 11.0108 0.1270 0.1670 2.8367    6.6932    8.6536  32.7578 1853.5400
 1853.5500 200.0000 200.8820 2552.2876   37.8291  0.0922  0.0592 223.7575  108.2129 13.4190 11.0005 0.1267 0.1667 2.8516    6.6910    8.6575  32.7770 1853.5500
 1853.5600 200.0000 200.8839 2556.5234   38.6560  0.0897  0.0567 223.7780  108.2106 13.4520 10.9902 0.1263 0.1663 2.8453    6.6888    8.6614  32.7962 1853.5600
 1853.5700 200.0000 200.8872 2564.9682   40.5458  0.0848  0.0515 223.7985  108.1485 13.4850 10.9799 0.1258 0.1658 2.8073    6.6866    8.6653  32.8154 1853.5700
 1853.5800 200.0000 200.8905 2573.4131   42.4355  0.0799  0.0464 223.8190  108.0864 13.5180 10.9696 0.1253 0.1653 2.7693    6.6844    8.6692  32.8346 1853.5800
 1853.5900 200.0000 200.8910 2571.5222   41.5488  0.0810  0.0476 223.8395  107.0668 13.5424 10.9608 0.1247 0.1647 2.7740    6.6820    8.6707  32.8586 1853.5900
 1853.6000 200.0000 200.8910 2567.9494   40.2102  0.0831  0.0497 223.8600  105.8914 13.5655 10.9521 0.1242 0.1642 2.7857    6.6795    8.6719  32.8834 1853.6000
 1853.6100 200.0000 200.8910 2564.5429   39.1362  0.0851  0.0518 223.8805  104.7031 13.5799 10.9449 0.1236 0.1636 2.8044    6.6768    8.6707  32.9132 1853.6100
 1853.6200 200.0000 200.8910 2561.4897   38.6244  0.0868  0.0536 223.9010  103.4872 13.5758 10.9408 0.1231 0.1631 2.8381    6.6736    8.6644  32.9534 1853.6200
 1853.6300 200.0000 200.8910 2558.4366   38.1126  0.0886  0.0555 223.9215  102.2713 13.5717 10.9367 0.1225 0.1625 2.8719    6.6704    8.6581  32.9936 1853.6300
 1853.6400 200.0000 200.8946 2553.0019   36.8330  0.0918  0.0588 223.9420  102.7790 13.5676 10.9326 0.1222 0.1622 2.8739    6.6672    8.6518  33.0338 1853.6400
 1853.6500 200.0000 200.8991 2546.8956   35.3370  0.0954  0.0625 223.9625  103.7726 13.5635 10.9285 0.1220 0.1620 2.8669    6.6640    8.6455  33.0740 1853.6500
 1853.6600 200.0000 200.9068 2541.7093   34.4646  0.0984  0.0656 223.9830  104.2928 13.5594 10.9244 0.1219 0.1619 2.8564    6.6608    8.6392  33.1142 1853.6600
 1853.6700 200.0000 200.9241 2539.4356   35.5670  0.0998  0.0670 224.0035  103.3135 13.5553 10.9203 0.1224 0.1624 2.8345    6.6576    8.6329  33.1544 1853.6700
 1853.6800 200.0000 200.9414 2537.1620   36.6693  0.1011  0.0684 224.0240  102.3343 13.5512 10.9162 0.1229 0.1629 2.8127    6.6544    8.6266  33.1946 1853.6800
 1853.6900 200.0000 200.9580 2534.9794   37.0827  0.1024  0.0697 224.0406  101.4402 13.5619 10.9237 0.1236 0.1636 2.8044    6.6511    8.6210  33.2345 1853.6900
 1853.7000 200.0000 200.9743 2532.8357   37.2008  0.1036  0.0710 224.0554  100.5824 13.5788 10.9362 0.1245 0.1645 2.8020    6.6477    8.6157  33.2742 1853.7000
 1853.7100 200.0000 200.9881 2531.1909   37.3441  0.1046  0.0720 224.0684   99.6880 13.6026 10.9541 0.1254 0.1654 2.7951    6.6443    8.6107  33.3137 1853.7100
 1853.7200 200.0000 200.9888 2532.1653   37.6197  0.1040  0.0714 224.0718   98.6009 13.6622 11.0002 0.1260 0.1660 2.7651    6.6406    8.6074  33.3524 1853.7200
 1853.7300 200.0000 200.9894 2533.1397   37.8953  0.1034  0.0708 224.0752   97.5139 13.7218 11.0463 0.1267 0.1667 2.7350    6.6369    8.6041  33.3911 1853.7300
 1853.7400 200.0000 200.9861 2532.9864   37.7315  0.1035  0.0709 224.0786   96.6430 13.7814 11.0924 0.1269 0.1669 2.7452    6.6332    8.6008  33.4298 1853.7400
 1853.7500 200.0000 200.9804 2532.1419   37.2984  0.1040  0.0714 224.0820   95.9046 13.8410 11.1385 0.1270 0.1670 2.7800    6.6295    8.5975  33.4685 1853.7500
 1853.7600 200.0000 200.9750 2531.2091   36.8276  0.1046  0.0720 224.0854   95.3010 13.9006 11.1846 0.1270 0.1670 2.8134    6.6258    8.5942  33.5072 1853.7600
 1853.7700 200.0000 200.9739 2529.2603   35.9220  0.1057  0.0732 224.0888   96.2469 13.9602 11.2307 0.1267 0.1667 2.8290    6.6221    8.5909  33.5459 1853.7700
 1853.7800 200.0000 200.9728 2527.3114   35.0165  0.1069  0.0744 224.0922   97.1929 14.0198 11.2768 0.1263 0.1663 2.8446    6.6184    8.5876  33.5846 1853.7800
 1853.7900 200.0000 200.9731 2524.2752   34.0472  0.1086  0.0762 224.0852   97.6902 14.0711 11.3189 0.1262 0.1662 2.8492    6.6145    8.5838  33.6176 1853.7900
 1853.8000 200.0000 200.9745 2520.3126   33.0236  0.1109  0.0786 224.0693   97.8053 14.1153 11.3575 0.1262 0.1662 2.8445    6.6104    8.5796  33.6456 1853.8000
 1853.8100 200.0000 200.9760 2516.3500   32.0000  0.1132  0.0810 224.0534   97.9204 14.1596 11.3962 0.1262 0.1662 2.8398    6.6063    8.5753  33.6737 1853.8100
 1853.8200 200.0000 200.9794 2516.9996   31.2913  0.1128  0.0806 224.0078   97.5917 14.1802 11.4234 0.1266 0.1666 2.8317    6.6016    8.5696  33.6854 1853.8200
 1853.8300 200.0000 200.9829 2517.6492   30.5827  0.1125  0.0802 223.9622   97.2631 14.2008 11.4506 0.1269 0.1669 2.8235    6.5969    8.5639  33.6971 1853.8300
 1853.8400 200.0000 200.9851 2520.9882   30.5984  0.1105  0.0782 223.9166   96.6831 14.2214 11.4778 0.1272 0.1672 2.7945    6.5922    8.5582  33.7088 1853.8400
 1853.8500 200.0000 200.9861 2527.4842   31.4646  0.1067  0.0743 223.8710   95.8079 14.2420 11.5050 0.1273 0.1673 2.7410    6.5875    8.5525  33.7205 1853.8500
 1853.8600 200.0000 200.9870 2533.9802   32.3307  0.1029  0.0703 223.8254   94.9328 14.2626 11.5322 0.1274 0.1674 2.6875    6.5828    8.5468  33.7322 1853.8600
 1853.8700 200.0000 200.9744 2541.0739   33.4142  0.0988  0.0660 223.7798   94.0879 14.2832 11.5594 0.1272 0.1672 2.6948    6.5781    8.5411  33.7439 1853.8700
 1853.8800 200.0000 200.9606 2548.2196   34.5165  0.0946  0.0617 223.7342   93.2456 14.3038 11.5866 0.1269 0.1669 2.7074    6.5734    8.5354  33.7556 1853.8800
 1853.8900 200.0000 200.9480 2554.0570   35.6189  0.0912  0.0581 223.6864   92.8589 14.3138 11.6059 0.1267 0.1667 2.7191    6.5685    8.5272  33.7651 1853.8900
 1853.9000 200.0000 200.9373 2557.7597   36.7212  0.0890  0.0559 223.6351   93.2156 14.3065 11.6121 0.1264 0.1664 2.7295    6.5634    8.5149  33.7709 1853.9000
 1853.9100 200.0000 200.9267 2561.4625   37.8236  0.0868  0.0537 223.5838   93.5723 14.2992 11.6183 0.1261 0.1661 2.7399    6.5582    8.5026  33.7767 1853.9100
 1853.9200 200.0000 200.9269 2559.9815   38.0000  0.0877  0.0546 223.5268   94.6374 14.2640 11.6036 0.1259 0.1659 2.7554    6.5526    8.4836  33.7766 1853.9200
 1853.9300 200.0000 200.9292 2557.5130   38.0000  0.0892  0.0561 223.4687   95.8375 14.2235 11.5849 0.1257 0.1657 2.7718    6.5469    8.4634  33.7754 1853.9300
 1853.9400 200.0000 200.9315 2554.7717   37.6457  0.0908  0.0577 223.4106   96.7985 14.1830 11.5662 0.1255 0.1655 2.7913    6.5412    8.4432  33.7742 1853.9400
 1853.9500 200.0000 200.9340 2551.3938   36.4646  0.0928  0.0598 223.3525   97.2017 14.1425 11.5475 0.1250 0.1650 2.8181    6.5355    8.4230  33.7730 1853.9500
 1853.9600 200.0000 200.9364 2548.0158   35.2835  0.0947  0.0618 223.2944   97.6048 14.1020 11.5288 0.1245 0.1645 2.8448    6.5298    8.4028  33.7718 1853.9600
 1853.9700 200.0000 200.9339 2546.3164   33.9528  0.0957  0.0628 223.2363   97.8678 14.0615 11.5101 0.1240 0.1640 2.8195    6.5241    8.3826  33.7706 1853.9700
 1853.9800 200.0000 200.9299 2545.1471   32.5748  0.0964  0.0635 223.1782   98.0864 14.0210 11.4914 0.1234 0.1634 2.7778    6.5184    8.3624  33.7694 1853.9800
 1853.9900 200.0000 200.9236 2544.8780   31.5953  0.0965  0.0637 223.1316   98.4207 13.9870 11.4757 0.1228 0.1628 2.7380    6.5127    8.3421  33.7642 1853.9900
 1854.0000 200.0000 200.9092 2547.8012   32.0283  0.0948  0.0619 223.1256   99.1649 13.9762 11.4709 0.1226 0.1626 2.7050    6.5069    8.3218  33.7444 1854.0000
