~VERSION INFORMATION
 VERS.                 2.0:   CWLS LOG ASCII STANDARD - VERSION 2.0
 WRAP.                  NO:   SINGLE LINE PER DEPTH STEP
 CREA.                 01/06/2017 16:04:44
#CREATED USING IP VERSION 4.1.2012.198 BY MINHC ON 01/06/2017 16:04:44
~WELL INFORMATION
#MNEM.UNIT       DATA                          DESCRIPTION MNEMONIC
#---------      ---------------------------   --------------------------
 STRT    .M         2860.0000                 : START DEPTH
 STOP    .M         4644.2993                 : STOP DEPTH
 STEP    .M         0.1524                    : STEP VALUE
 NULL    .      -999.0000                     : NULL VALUE
 SRVC    .      SCH                           : Service Company/Logging company
 DATE    .      01/06/2017                    : LAS file Creation Date
 WELL    .      05-2-HT-9P                    : Well Name
 COMP    .      Bien Dong Petroleum Operating : Company
 FLD     .      Hai Thach                     : Field
 LOC     .      WHP-HT1                       : Location
 LATI    .      0                             : Latitude/Northing
 LONG    .      0                             : Longitude/Easting
 RWS     .      -999                          : Def_Rw
 WST     .      -999                          : Def_Rwt
 PROV    .      Unused                        : Province
 SRVC    .      SCH                           : Contractor
~CURVE INFORMATION
#MNEM              UNIT       API CODE     Description
#----------  --------------- ----------  --------------
 DEPTH      .M                         : 
 ACTECDM    .ppg                       : 
 APRESM     .psi                       : 
 GR1CFM     .API                       : Gamma Ray
 RACEHM     .ohm.m                     : 
 RACELM     .ohm.m                     : 
 RACESHM    .ohm.m                     : 
 RACESLM    .ohm.m                     : 
 ROP_AVG    .m/hr                      : 
 RPCEHM     .ohm.m                     : 
 RPCELM     .ohm.m                     : 
 RPCESHM    .ohm.m                     : 
 RPCESLM    .ohm.m                     : 
 RPTHM      .min                       : 
 TCDM       .degC                      : 
 TVD        .m                         : True vertical thickness
~A  DEPTH  ACTECDM    APRESM    GR1CFM    RACEHM    RACELM   RACESHM   RACESLM   ROP_AVG    RPCEHM    RPCELM   RPCESHM   RPCESLM    RPTHM      TCDM      TVD    
# ...
4094.1352   17.6400 12175.5000   97.3263    4.2944    5.1383    4.2978    5.8070   10.1000    3.9583    4.1144    3.8931    4.0477   47.4000  143.0000 4060.0500 
4094.2876   17.6500 12181.9805   98.7233    4.2517    5.0942    4.2598    5.7415    9.9000    3.7761    4.0067    3.7636    3.9387   47.3000  143.0000 4060.2000 
4094.4400   17.6700 12195.7803  101.1008    4.2431    5.0683    4.2540    5.6366    9.7500    3.8250    4.0225    3.8493    3.9675   47.3000  143.0000 4060.3401 
4094.5924   17.6400 12180.1396   98.7449    4.2427    5.0225    4.2613    5.5919    9.6700    4.0459    4.1204    4.0264    4.0726   47.3000  143.0000 4060.4900 
4094.7448   17.6500 12185.2900   92.7098    4.2676    4.9854    4.3004    5.6133    9.9300    4.3747    4.2868    4.3058    4.2443   47.2000  143.0000 4060.6399 
4094.8972   17.6400 12179.5703   87.1439    4.3157    4.9666    4.3495    5.5883   10.2200    4.6462    4.4361    4.5786    4.4038   47.2000  143.0000 4060.7900 
4095.0496   17.6400 12178.1699   86.1173    4.3658    5.0063    4.4394    5.6716   10.3900    4.6644    4.4758    4.6413    4.4493   47.1000  143.0000 4060.9500 
4095.2020   17.6500 12184.1396   91.7765    4.4764    5.0424    4.5652    5.7798   10.6700    4.4627    4.4170    4.4775    4.4082   47.0000  143.1000 4061.1001 
4095.3544   17.6600 12192.9199   95.0635    4.5626    5.0735    4.6669    5.8394   10.9200    4.3533    4.4132    4.3718    4.3863   47.0000  142.7000 4061.2500 
4095.5068   17.6600 12193.4902   96.7499    4.6364    5.0740    4.7661    5.9254   11.1700    4.3942    4.4497    4.3894    4.4257   46.9000  142.4000 4061.3999 
4095.6592   17.6400 12181.3096   92.5714    4.6773    5.0709    4.8251    5.9765   11.1300    4.6423    4.5908    4.6282    4.5720   35.2000  142.1000 4061.5601 
4095.8116   17.6800 12207.2900   90.8741    4.7189    5.0793    4.8795    5.9508   11.1000    4.8751    4.7292    4.8680    4.7313   35.1000  142.1000 4061.7100 
4095.9640   17.6800 12210.8496   91.4619    4.8003    5.0799    4.9623    6.0236   11.0300    4.9601    4.7858    4.9641    4.8246   35.0000  142.1000 4061.8601 
4096.1164   17.6900 12217.9004   89.9281    4.8547    5.0579    5.0199    5.9736   11.0800    5.0323    4.8301    5.0668    4.8865   35.0000  142.1000 4062.0100 
4096.2688   17.6600 12198.6396   84.8984    4.8310    5.0234    5.0344    5.9318   11.0900    5.2085    4.9030    5.2727    4.9944   35.0000  142.1000 4062.1499 
4096.4212   17.7200 12234.8799   84.1953    4.7685    4.9600    5.0012    5.8481   11.0500    5.3978    4.9622    5.4891    5.0766   34.9000  142.0000 4062.3000 
4096.5736   17.6800 12209.8301   89.1917    4.6719    4.8872    4.9129    5.7619   11.0500    5.4205    4.9086    5.4849    5.0505   34.8000  142.1000 4062.4500 
4096.7260   17.7000 12222.8604   90.8126    4.5924    4.8326    4.8065    5.6785   11.1300    4.9730    4.6341    4.9787    4.7568   34.8000  142.1000 4062.5901 
4096.8784   17.6900 12220.3799   92.2392    4.4969    4.7598    4.6595    5.5240   11.2800    4.5663    4.4190    4.5762    4.4820   34.8000  142.1000 4062.7400 
4097.0308   17.6900 12217.1396   93.5627    4.3321    4.6912    4.4465    5.3515   11.4800    4.3472    4.2715    4.3536    4.2886   34.8000  142.1000 4062.8899 
4097.1832   17.7000 12223.0498   93.7353    4.1723    4.6134    4.2609    5.1934   11.6100    4.1807    4.1330    4.1715    4.1083   34.9000  142.1000 4063.0300 
4097.3356   17.6900 12222.6699   98.9946    4.0285    4.5371    4.0840    5.0292   11.7900    3.9664    3.9634    3.9316    3.9034   34.9000  142.1000 4063.1799 
4097.4880   17.6900 12216.7598   99.2520    3.8887    4.4677    3.8916    4.8917   11.9600    3.8268    3.8241    3.7314    3.7331   35.0000  142.1000 4063.3301 
4097.6404   17.7400 12257.3896  102.9306    3.7896    4.4292    3.7624    4.8038   12.0500    3.5583    3.6473    3.4834    3.5568   35.1000  142.2000 4063.4700 
4097.7928   17.6800 12214.9199  104.7854    3.7231    4.4237    3.6758    4.7529   11.7400    3.3391    3.5329    3.3112    3.4511   34.9000  142.2000 4063.6201 
4097.9452   17.7500 12262.7305  106.5543    3.7024    4.4300    3.6230    4.7357   11.3700    3.2746    3.5011    3.2506    3.4076   34.9000  142.2000 4063.7700 
4098.0976   17.6800 12215.5195  107.6283    3.7421    4.4571    3.6328    4.7677   10.4700    3.3377    3.5447    3.2836    3.4204   34.4000  142.2000 4063.9199 
4098.2500   17.7000 12229.3496  103.5099    3.7623    4.4823    3.6776    4.7988   10.3400    3.6271    3.7009    3.4801    3.5466   34.4000  142.3000 4064.0801 
4098.4024   17.7100 12234.8799   99.2634    3.8690    4.5489    3.7906    4.9605   10.2900    3.7051    3.8003    3.5708    3.6498   34.5000  142.3000 4064.2300 
4098.5548   17.7100 12235.6396  100.9090    4.0157    4.6387    3.9446    5.1176   10.3000    3.6604    3.8447    3.5696    3.7233   34.6000  142.3000 4064.3799 
4098.7072   17.7200 12241.1699  101.6759    4.2033    4.7714    4.1953    5.3682   10.4400    3.6630    3.9315    3.6375    3.8496   34.6000  142.4000 4064.5300 
4098.8596   17.7000 12234.3096  104.3485    4.4854    4.8914    4.5760    5.6218   10.7400    3.9080    4.1701    3.9294    4.1141   34.7000  142.4000 4064.6899 
4099.0120   17.7200 12246.2002   97.3266    4.6780    4.9396    4.8771    5.8035   11.0300    4.8694    4.7566    4.9618    4.7074   34.8000  142.4000 4064.8401 
4099.1644   17.7200 12242.7002   86.8058    4.8709    4.9979    5.1986    6.0221   11.2800    6.1473    5.4001    6.3399    5.4912   34.9000  142.4000 4064.9900 
4099.3168   17.7200 12244.9902   79.4884    5.0761    5.0449    5.4835    6.1803   11.5300    6.8340    5.7174    7.0674    5.9734   35.0000  142.4000 4065.1399 
4099.4692   17.7100 12238.8203   76.5501    5.2037    5.0731    5.6818    6.2847   11.7800    6.9480    5.8137    7.2813    6.1726   35.1000  142.5000 4065.2800 
4099.6216   17.7200 12247.6602   76.3415    5.2314    5.0625    5.7639    6.3500   11.9900    6.5991    5.7059    7.0508    6.0773   35.1000  142.5000 4065.4299 
4099.7740   17.7500 12265.7803   82.9876    5.1622    4.9990    5.6731    6.2765   12.0400    5.9610    5.4010    6.3493    5.6697   35.2000  142.5000 4065.5801 
4099.9264   17.7000 12230.8701   85.8373    5.0044    4.9090    5.3971    6.0321   12.0400    5.4482    5.0525    5.5692    5.1977   35.3000  142.5000 4065.7200 
4100.0788   17.7200 12251.2803   90.1918    4.7829    4.7628    5.0449    5.7678   12.0800    5.0866    4.7844    5.0803    4.8711   35.3000  142.6000 4065.8701 
4100.2312   17.7100 12243.8398   93.5399    4.4992    4.5899    4.6608    5.4734   12.0400    4.6674    4.4624    4.5801    4.5176   35.3000  142.6000 4066.0200 
4100.3836   17.7200 12251.6602   99.1772    4.2035    4.4009    4.2762    5.1418   11.9700    4.1870    4.1235    4.0569    4.1134   35.3000  142.6000 4066.1599 
4100.5360   17.7400 12263.2305  104.7196    3.9485    4.2265    3.9569    4.8317   11.9900    3.7294    3.8157    3.6262    3.7574   35.2000  142.7000 4066.3101 
4100.6884   17.7100 12243.6504  107.6315    3.6964    4.0624    3.6963    4.5020   11.8400    3.4226    3.5635    3.3590    3.4898   35.2000  142.7000 4066.4600 
4100.8408   17.7300 12254.5195  110.5740    3.5003    3.9100    3.5191    4.3099   11.8400    3.2121    3.3740    3.1849    3.2959   35.2000  142.7000 4066.6001 
4100.9932   17.7400 12262.2197  112.9850    3.3175    3.7325    3.3213    4.0476   11.7600    3.0320    3.1837    3.0123    3.1196   35.2000  142.7000 4066.7500 
4101.1456   17.7300 12258.9102  112.7170    3.1865    3.5969    3.1570    3.8683   11.7300    2.9366    3.0522    2.9044    2.9944   35.2000  142.8000 4066.8999 
4101.2980   17.7500 12272.2598  113.8237    3.0686    3.4615    3.0196    3.6997   11.7500    2.8521    2.9452    2.8141    2.8891   35.2000  142.8000 4067.0500 
4101.4504   17.7200 12252.2998  114.9190    2.9637    3.3426    2.9153    3.5628   11.7900    2.7755    2.8519    2.7346    2.8115   35.2000  142.8000 4067.2100 
4101.6028   17.7200 12256.2402  118.6919    2.8744    3.2405    2.8418    3.4756   11.8000    2.6992    2.7693    2.6552    2.7411   35.2000  142.8000 4067.3601 
