~VERSION INFORMATION
 VERS.                 2.0:   CWLS LOG ASCII STANDARD - VERSION 2.0
 WRAP.                  NO:   SINGLE LINE PER DEPTH STEP
 CREA.                 01/06/2017 16:04:44
#CREATED USING IP VERSION 4.1.2012.198 BY MINHC ON 01/06/2017 16:04:44
~WELL INFORMATION
#MNEM.UNIT       DATA                          DESCRIPTION MNEMONIC
#---------      ---------------------------   --------------------------
 STRT    .M         2860.0000                 : START DEPTH
 STOP    .M         4644.2993                 : STOP DEPTH
 STEP    .M         0.1524                    : STEP VALUE
 NULL    .      -999.0000                     : NULL VALUE
 SRVC    .      SCH                           : Service Company/Logging company
 DATE    .      01/06/2017                    : LAS file Creation Date
 WELL    .      05-2-HT-9P                    : Well Name
 COMP    .      Bien Dong Petroleum Operating : Company
 FLD     .      Hai Thach                     : Field
 LOC     .      WHP-HT1                       : Location
 LATI    .      0                             : Latitude/Northing
 LONG    .      0                             : Longitude/Easting
 RWS     .      -999                          : Def_Rw
 WST     .      -999                          : Def_Rwt
 PROV    .      Unused                        : Province
 SRVC    .      SCH                           : Contractor
~CURVE INFORMATION
#MNEM              UNIT       API CODE     Description
#----------  --------------- ----------  --------------
 DEPTH      .M                         : 
 ACTECDM    .ppg                       : 
 APRESM     .psi                       : 
 GR1CFM     .API                       : Gamma Ray
 RACEHM     .ohm.m                     : 
 RACELM     .ohm.m                     : 
 RACESHM    .ohm.m                     : 
 RACESLM    .ohm.m                     : 
 ROP_AVG    .m/hr                      : 
 RPCEHM     .ohm.m                     : 
 RPCELM     .ohm.m                     : 
 RPCESHM    .ohm.m                     : 
 RPCESLM    .ohm.m                     : 
 RPTHM      .min                       : 
 TCDM       .degC                      : 
 TVD        .m                         : True vertical thickness
~A  DEPTH  ACTECDM    APRESM    GR1CFM    RACEHM    RACELM   RACESHM   RACESLM   ROP_AVG    RPCEHM    RPCELM   RPCESHM   RPCESLM    RPTHM      TCDM      TVD    
# ...
3888.3952   17.7600 11648.1797   80.5264    3.8790    4.3555    3.9050    4.8322   11.6800    3.8350    3.8195    3.7937    3.7900  140.8000  135.5000 3858.4700 
3888.5476   17.7100 11615.7500   84.3841    3.8145    4.3295    3.8069    4.7739   11.8000    3.6640    3.7125    3.6245    3.6779  142.4000  135.6000 3858.6201 
3888.7000   17.7700 11653.1396   87.2747    3.8361    4.3352    3.7889    4.7577   11.9100    3.3890    3.5754    3.3971    3.5394  144.2000  135.6000 3858.7700 
3888.8524   17.7500 11644.3604   83.6884    3.8038    4.3157    3.7637    4.7412   12.0300    3.4606    3.5981    3.4619    3.5666  147.6000  135.6000 3858.9199 
3889.0048   17.7500 11641.3096   81.8742    3.7537    4.2856    3.7646    4.7154   12.2300    3.7119    3.7134    3.6558    3.6690  148.5000  135.6000 3859.0801 
3889.1572   17.7500 11642.2695   79.8421    3.7849    4.2993    3.8041    4.7375   12.3100    3.7538    3.7423    3.7121    3.7085  149.4000  135.6000 3859.2300 
3889.3096   17.7500 11642.2695   79.0070    3.8500    4.3332    3.8608    4.7775   12.3800    3.7248    3.7461    3.7433    3.7348  151.3000  135.6000 3859.3799 
3889.4620   17.7400 11636.5400   79.6419    3.9097    4.3550    3.9073    4.8085   12.4600    3.7732    3.7801    3.8168    3.7991  152.7000  135.6000 3859.5300 
3889.6144   17.7600 11648.8096   78.2451    3.9105    4.3628    3.9711    4.8598   12.4800    3.9987    3.9035    3.9850    3.9099  153.6000  135.7000 3859.6899 
3889.7668   17.7300 11635.4600   75.0623    3.9357    4.3867    4.0103    4.8992   12.1600    4.1321    3.9904    4.1277    4.0003  154.2000  135.7000 3859.8401 
3889.9192   17.7300 11634.6396   76.9599    3.9777    4.4223    4.0622    4.9516   11.4900    4.1663    4.0237    4.1398    4.0243  154.3000  135.7000 3859.9900 
3890.0716   17.7600 11652.7598   76.9017    4.0831    4.5052    4.1492    5.0781   11.3700    4.0332    3.9935    4.0439    4.0070  154.6000  135.7000 3860.1399 
3890.2240   17.7300 11635.2100   76.3360    4.1093    4.5480    4.1774    5.0989   11.3100    4.0925    4.0505    4.1069    4.0582  154.8000  135.7000 3860.2800 
3890.3764   17.7500 11644.3604   76.2440    4.1325    4.5814    4.2015    5.1840   11.5200    4.1944    4.1166    4.2055    4.1267  154.9000  135.7000 3860.4299 
3890.5288   17.7400 11641.5000   77.2664    4.1795    4.6186    4.2423    5.2362   11.7400    4.2451    4.1720    4.2454    4.1655  155.0000  135.7000 3860.5801 
3890.6812   17.7600 11654.7900   81.4737    4.2373    4.6952    4.2942    5.2968   11.9400    4.2058    4.1780    4.2171    4.1762  155.3000  135.7000 3860.7300 
3890.8336   17.7600 11652.5703   79.8567    4.2727    4.7364    4.3158    5.3359   12.1300    4.2744    4.2394    4.3034    4.2325  155.5000  135.8000 3860.8701 
3890.9860   17.7500 11650.8496   77.3526    4.3062    4.8009    4.3656    5.4346   12.0200    4.4220    4.3380    4.4388    4.3261  156.3000  135.8000 3861.0200 
3891.1384   17.7400 11643.0303   76.2377    4.3456    4.8425    4.4016    5.5065   12.1800    4.4636    4.3714    4.4755    4.3660  157.1000  135.8000 3861.1699 
3891.2908   17.7400 11644.1104   76.2931    4.4064    4.8958    4.4462    5.5843   12.3100    4.4713    4.4199    4.4819    4.3928  157.1000  135.8000 3861.3201 
3891.4432   17.7600 11655.4297   81.1284    4.4827    4.9664    4.5217    5.6920   12.3900    4.3342    4.3736    4.3538    4.3447  157.2000  135.8000 3861.4700 
3891.5956   17.7700 11661.5303   80.7288    4.5266    5.0281    4.5880    5.7520   12.4900    4.4080    4.4413    4.3886    4.3987  157.2000  135.8000 3861.6201 
3891.7480   17.7500 11651.2305   79.6959    4.5581    5.0542    4.6167    5.7885   12.5500    4.5152    4.5073    4.4941    4.4606  157.3000  135.8000 3861.7800 
3891.9004   17.7400 11647.6104   77.9215    4.5810    5.0848    4.6519    5.8431   12.6500    4.5657    4.5351    4.5295    4.4893  157.3000  135.8000 3861.9299 
3892.0528   17.7400 11648.1797   77.1123    4.6273    5.1086    4.6921    5.8670   12.6900    4.6198    4.5725    4.5983    4.5356  157.4000  135.8000 3862.0801 
3892.2052   17.7500 11654.1504   75.0683    4.6434    5.1335    4.7096    5.8962   12.5400    4.7192    4.6274    4.7005    4.5992  157.6000  135.9000 3862.2300 
3892.3576   17.7800 11673.2305   74.0987    4.6382    5.1466    4.7348    5.9605   12.2600    4.8351    4.6932    4.8263    4.6729  158.1000  135.9000 3862.3899 
3892.5100   17.7500 11656.0000   74.3329    4.6603    5.1855    4.7530    5.9715   11.9800    4.7832    4.6753    4.7874    4.6581  158.4000  135.9000 3862.5400 
3892.6624   17.7500 11653.2998   77.2825    4.6720    5.2066    4.7736    6.0186   11.6500    4.7268    4.6445    4.7229    4.6255  158.5000  135.9000 3862.6899 
3892.8148   17.7300 11642.2695   78.8486    4.6818    5.2314    4.7636    5.9810    9.5900    4.6570    4.6155    4.6967    4.6125  156.8000  135.9000 3862.8401 
3892.9672   17.7400 11648.3096   76.3817    4.6588    5.2421    4.7305    6.0319    8.3900    4.6983    4.6365    4.7165    4.6187  156.7000  135.9000 3862.9900 
3893.1196   17.7600 11662.2900   73.7220    4.6336    5.2525    4.7246    6.0257    8.0700    4.6685    4.6163    4.6553    4.5871  157.5000  136.0000 3863.1399 
3893.2720   17.7500 11655.8096   71.0779    4.6139    5.2847    4.6716    6.0464    8.2600    4.7462    4.6465    4.7049    4.6098  157.7000  136.0000 3863.2900 
3893.4244   17.7400 11652.2305   72.4790    4.5946    5.3004    4.6244    6.0483    7.8700    4.8057    4.6795    4.7244    4.5985  156.7000  136.0000 3863.4399 
3893.5768   17.7300 11646.4600   78.2361    4.6421    5.3599    4.6391    6.1045    6.6200    4.5664    4.5671    4.4941    4.4735  154.7000  136.0000 3863.5901 
3893.7292   17.7500 11660.5098   79.0785    4.6640    5.4097    4.6443    6.1349    6.4700    4.3955    4.5075    4.3369    4.4090  154.5000  135.1000 3863.7300 
3893.8816   17.7400 11649.1504   80.8093    4.6487    5.4405    4.6291    6.1908    4.6700    4.4383    4.5513    4.3299    4.4164   76.0000  134.1000 3863.8601 
3894.0340   17.7300 11647.1299   81.3321    4.7535    5.5486    4.6921    6.2851    1.8200    4.1765    4.4374    4.1312    4.3238   59.2000  133.2000 3864.0200 
3894.1864   17.7700 11669.0303   79.2978    4.7639    5.5873    4.7263    6.3644    3.2200    4.2453    4.4848    4.1954    4.3750   60.2000  132.3000 3864.1699 
3894.3388   17.7500 11658.0000   76.0298    4.7446    5.6081    4.7487    6.4091    4.2200    4.6130    4.6942    4.5447    4.5827   60.2000  132.4000 3864.3201 
3894.4912   17.7500 11658.2197   71.8416    4.8063    5.6642    4.8357    6.5131    5.5600    4.8288    4.8397    4.8064    4.7257   60.3000  132.6000 3864.4700 
3894.6436   17.7400 11651.2305   70.9358    4.8956    5.7235    4.9410    6.6185    7.5800    5.0044    4.9494    5.0325    4.8855   60.3000  132.7000 3864.6299 
3894.7960   17.7400 11651.2305   70.4428    5.0466    5.8623    5.1032    6.8053    7.4500    5.1280    5.0495    5.2646    5.0729   60.1000  132.9000 3864.7800 
3894.9484   17.7300 11648.5596   69.8647    5.0696    5.9005    5.1470    6.8467    7.6400    5.2970    5.1584    5.4176    5.1861   59.9000  133.1000 3864.9299 
3895.1008   17.7000 11631.5000   69.1297    5.1297    5.9553    5.2330    6.9580    7.9400    5.4128    5.2490    5.5181    5.2549   60.2000  133.2000 3865.0801 
3895.2532   17.6900 11623.9199   66.7253    5.2284    6.0529    5.3529    7.0841    6.6500    5.4962    5.3422    5.5582    5.3157   58.5000  133.5000 3865.2300 
3895.4056   17.6800 11616.5898   65.6815    5.2884    6.1225    5.4144    7.2001    6.1700    5.6166    5.4510    5.6602    5.4155   57.3000  133.7000 3865.3899 
3895.5580   17.6500 11594.9697   67.4782    5.3750    6.2437    5.5012    7.3271    5.1700    5.4707    5.4244    5.4617    5.3598   54.6000  134.1000 3865.5400 
3895.7104   17.6300 11585.7402   69.9422    5.5429    6.3955    5.5775    7.5451    4.3800    5.1180    5.2552    5.1273    5.1977   52.4000  134.3000 3865.6899 
3895.8628   17.6400 11591.0801   72.6577    5.5506    6.4453    5.6220    7.6123    4.4900    5.3774    5.4176    5.2826    5.3038   52.3000  134.5000 3865.8401 
