~VERSION INFORMATION
 VERS.                 2.0:   CWLS LOG ASCII STANDARD - VERSION 2.0
 WRAP.                  NO:   SINGLE LINE PER DEPTH STEP
 CREA.                 01/06/2017 16:04:44
#CREATED USING IP VERSION 4.1.2012.198 BY MINHC ON 01/06/2017 16:04:44
~WELL INFORMATION
#MNEM.UNIT       DATA                          DESCRIPTION MNEMONIC
#---------      ---------------------------   --------------------------
 STRT    .M         2860.0000                 : START DEPTH
 STOP    .M         4644.2993                 : STOP DEPTH
 STEP    .M         0.1524                    : STEP VALUE
 NULL    .      -999.0000                     : NULL VALUE
 SRVC    .      SCH                           : Service Company/Logging company
 DATE    .      01/06/2017                    : LAS file Creation Date
 WELL    .      05-2-HT-9P                    : Well Name
 COMP    .      Bien Dong Petroleum Operating : Company
 FLD     .      Hai Thach                     : Field
 LOC     .      WHP-HT1                       : Location
 LATI    .      0                             : Latitude/Northing
 LONG    .      0                             : Longitude/Easting
 RWS     .      -999                          : Def_Rw
 WST     .      -999                          : Def_Rwt
 PROV    .      Unused                        : Province
 SRVC    .      SCH                           : Contractor
~CURVE INFORMATION
#MNEM              UNIT       API CODE     Description
#----------  --------------- ----------  --------------
 DEPTH      .M                         : 
 ACTECDM    .ppg                       : 
 APRESM     .psi                       : 
 GR1CFM     .API                       : Gamma Ray
 RACEHM     .ohm.m                     : 
 RACELM     .ohm.m                     : 
 RACESHM    .ohm.m                     : 
 RACESLM    .ohm.m                     : 
 ROP_AVG    .m/hr                      : 
 RPCEHM     .ohm.m                     : 
 RPCELM     .ohm.m                     : 
 RPCESHM    .ohm.m                     : 
 RPCESLM    .ohm.m                     : 
 RPTHM      .min                       : 
 TCDM       .degC                      : 
 TVD        .m                         : True vertical thickness
~A  DEPTH  ACTECDM    APRESM    GR1CFM    RACEHM    RACELM   RACESHM   RACESLM   ROP_AVG    RPCEHM    RPCELM   RPCESHM   RPCESLM    RPTHM      TCDM      TVD    
# ...
4490.3752   17.8800 13524.6299  108.4123 -999.0000 -999.0000 -999.0000 -999.0000    7.2700 -999.0000 -999.0000    2.5877    2.3938   68.7000  155.1000 4448.3501 
4490.5276   17.9100 13548.0195  113.2960 -999.0000 -999.0000 -999.0000 -999.0000    7.3700 -999.0000 -999.0000    2.4719    2.2447   68.2000  155.1000 4448.4902 
4490.6800   17.9200 13553.4297  110.7053 -999.0000 -999.0000 -999.0000 -999.0000    8.2800 -999.0000 -999.0000    2.4261    2.2116   68.1000  155.1000 4448.6401 
4490.8324   17.9100 13550.8203  111.8593 -999.0000 -999.0000 -999.0000 -999.0000    9.1900 -999.0000 -999.0000    2.4118    2.1924   68.0000  155.1000 4448.7900 
4490.9848   17.9600 13585.2803  113.5394 -999.0000 -999.0000 -999.0000 -999.0000   10.0200 -999.0000 -999.0000    2.4343    2.1953   68.0000  155.1000 4448.9399 
4491.1372   17.9100 13551.7100  111.0600 -999.0000 -999.0000 -999.0000 -999.0000   10.4700 -999.0000 -999.0000    2.2301    2.1897   67.9000  155.1000 4449.0801 
4491.2896   17.9100 13547.7695  112.3917 -999.0000 -999.0000 -999.0000 -999.0000   10.7100 -999.0000 -999.0000    1.9935    2.0978   67.9000  155.1000 4449.2300 
4491.4420   17.9200 13561.2500  112.0781 -999.0000 -999.0000 -999.0000 -999.0000   10.9600 -999.0000 -999.0000    1.8894    2.1458   67.9000  155.1000 4449.3799 
4491.5944   17.9900 13610.8398  113.9698 -999.0000 -999.0000 -999.0000 -999.0000   11.2800 -999.0000 -999.0000    2.2495    2.1005   68.0000  155.1000 4449.5200 
4491.7468   17.9700 13599.1396  115.9186 -999.0000 -999.0000 -999.0000 -999.0000   11.4500 -999.0000 -999.0000    2.1309    2.1710   68.2000  155.1000 4449.6802 
4491.8992   17.9500 13583.1797  119.5943 -999.0000 -999.0000 -999.0000 -999.0000   11.4400 -999.0000 -999.0000    2.1943    2.2317   68.3000  155.1000 4449.8301 
4492.0516   17.9200 13561.3799  120.9000 -999.0000 -999.0000 -999.0000 -999.0000   11.5100 -999.0000 -999.0000    2.2119    2.1805   68.3000  155.2000 4449.9800 
4492.2040   17.9200 13563.7305  114.5267 -999.0000 -999.0000 -999.0000 -999.0000   11.4200 -999.0000 -999.0000    1.9601    2.1660   68.2000  155.2000 4450.1299 
4492.3564   17.9200 13558.0703  114.1253 -999.0000 -999.0000 -999.0000 -999.0000   11.3900 -999.0000 -999.0000    1.9124    2.0083   68.1000  155.2000 4450.2900 
4492.5088   17.9000 13543.1299  114.3568 -999.0000 -999.0000 -999.0000 -999.0000   11.3800 -999.0000 -999.0000    1.9264    2.0725   68.1000  155.2000 4450.4399 
4492.6612   17.9100 13554.5098  115.8092 -999.0000 -999.0000 -999.0000 -999.0000   11.3300 -999.0000 -999.0000    1.5975    1.9938   68.0000  155.2000 4450.5898 
4492.8136   17.9300 13571.3604  115.1013 -999.0000 -999.0000 -999.0000 -999.0000   11.2700 -999.0000 -999.0000    1.5449    1.8774   68.1000  155.2000 4450.7402 
4492.9660   17.9300 13571.6797  119.4034 -999.0000 -999.0000 -999.0000 -999.0000   11.1600 -999.0000 -999.0000    1.5099    1.8865   68.8000  155.2000 4450.8999 
4493.1184   17.9300 13573.8398  118.7901 -999.0000 -999.0000 -999.0000 -999.0000   11.1000 -999.0000 -999.0000    1.4901    1.7837   68.7000  155.2000 4451.0400 
4493.2708   17.9400 13581.2100  119.8995 -999.0000 -999.0000 -999.0000 -999.0000   11.0600 -999.0000 -999.0000    1.5338    1.8435   68.6000  155.2000 4451.1899 
4493.4232   17.9400 13577.5195  119.1210 -999.0000 -999.0000 -999.0000 -999.0000   11.0100 -999.0000 -999.0000    1.4674    1.8224   68.4000  155.3000 4451.3398 
4493.5756   17.9500 13586.1699  113.1915 -999.0000 -999.0000 -999.0000 -999.0000   10.4900 -999.0000 -999.0000    1.5439    1.8547   68.1000  155.3000 4451.4800 
4493.7280   17.9400 13579.6904  110.7971 -999.0000 -999.0000 -999.0000 -999.0000    9.8800 -999.0000 -999.0000    1.6362    1.9184   67.7000  155.3000 4451.6299 
4493.8804   17.8900 13545.6104  109.4146 -999.0000 -999.0000 -999.0000 -999.0000    9.3900 -999.0000 -999.0000    2.0085    2.0673   67.3000  155.3000 4451.7798 
4494.0328   17.7600 13441.7100  109.0986 -999.0000 -999.0000 -999.0000 -999.0000   10.8100 -999.0000 -999.0000    2.0009    2.1130   45.5000  154.9000 4451.9199 
4494.1852   17.8200 13494.1104  108.9502 -999.0000 -999.0000 -999.0000 -999.0000    9.8500 -999.0000 -999.0000    1.8856    2.1066   37.5000  154.4000 4452.0698 
4494.3376   17.8500 13510.1299  107.9760 -999.0000 -999.0000 -999.0000 -999.0000   10.2200 -999.0000 -999.0000    1.9555    2.0871   37.4000  154.0000 4452.2202 
4494.4900   17.8600 13521.5801  105.9797 -999.0000 -999.0000 -999.0000 -999.0000   10.5800 -999.0000 -999.0000    2.0797    2.2148   37.4000  153.5000 4452.3599 
4494.6424   17.8500 13516.4902  105.3570 -999.0000 -999.0000 -999.0000 -999.0000   10.9200 -999.0000 -999.0000    2.2322    2.2749   37.3000  153.6000 4452.5098 
4494.7948   17.8500 13511.6602  106.8649 -999.0000 -999.0000 -999.0000 -999.0000   11.3700 -999.0000 -999.0000    2.2645    2.3160   37.2000  153.6000 4452.6602 
4494.9472   17.8400 13504.7900  103.1508 -999.0000 -999.0000 -999.0000 -999.0000   11.7900 -999.0000 -999.0000    2.3021    2.3610   37.2000  153.6000 4452.8101 
4495.0996   17.8400 13506.4404  103.9452 -999.0000 -999.0000 -999.0000 -999.0000   11.8600 -999.0000 -999.0000    2.3856    2.3977   37.8000  153.7000 4452.9600 
4495.2520   17.8500 13514.5195  103.3858 -999.0000 -999.0000 -999.0000 -999.0000   11.8000 -999.0000 -999.0000    2.4392    2.4118  151.6000  153.7000 4453.1201 
4495.4044   17.8500 13515.9805   98.4208 -999.0000 -999.0000 -999.0000 -999.0000   11.7400 -999.0000 -999.0000    2.5026    2.4480  151.8000  153.8000 4453.2700 
4495.5568   17.8600 13528.0596   93.5280 -999.0000 -999.0000 -999.0000 -999.0000   11.7000 -999.0000 -999.0000    2.6958    2.5911  152.2000  153.8000 4453.4199 
4495.7092   17.8400 13511.4697   88.7196 -999.0000 -999.0000 -999.0000 -999.0000   11.6100 -999.0000 -999.0000    2.8993    2.7220  152.1000  153.9000 4453.5698 
4495.8616   17.8200 13497.7305   90.8503 -999.0000 -999.0000 -999.0000 -999.0000   11.2200 -999.0000 -999.0000    3.1832    2.9019  152.1000  153.9000 4453.7300 
4496.0140   17.8300 13504.9805   91.3293 -999.0000 -999.0000 -999.0000 -999.0000    9.8400 -999.0000 -999.0000    3.2038    2.8902  151.4000  154.0000 4453.8799 
4496.1664   17.8400 13511.6602   96.2800 -999.0000 -999.0000 -999.0000 -999.0000   10.1100 -999.0000 -999.0000    3.1812    2.8986  151.2000  154.0000 4454.0298 
4496.3188   17.8300 13508.2197   95.2029 -999.0000 -999.0000 -999.0000 -999.0000   10.3400 -999.0000 -999.0000    3.1125    2.8733  151.3000  154.1000 4454.1802 
4496.4712   17.8500 13517.1904   96.4332 -999.0000 -999.0000 -999.0000 -999.0000   10.6200 -999.0000 -999.0000    2.9655    2.8064  151.3000  154.1000 4454.3198 
4496.6236   17.8400 13510.5098   97.5629 -999.0000 -999.0000 -999.0000 -999.0000   10.9900 -999.0000 -999.0000    2.8761    2.7315  151.4000  154.2000 4454.4702 
4496.7760   17.8300 13504.4102   94.8351 -999.0000 -999.0000 -999.0000 -999.0000   11.3000 -999.0000 -999.0000    3.0204    2.8171  151.5000  154.2000 4454.6201 
4496.9284   17.8700 13538.7402   92.8836 -999.0000 -999.0000 -999.0000 -999.0000   10.6200 -999.0000 -999.0000    2.9913    2.7191  151.1000  154.3000 4454.7700 
4497.0808   17.8500 13519.7998   96.4338 -999.0000 -999.0000 -999.0000 -999.0000   10.4300 -999.0000 -999.0000    2.7739    2.6541  150.8000  154.3000 4454.9102 
4497.2332   17.8500 13521.3896   96.4508 -999.0000 -999.0000 -999.0000 -999.0000   10.3400 -999.0000 -999.0000    2.7218    2.5819  151.0000  154.4000 4455.0601 
4497.3856   17.8700 13539.1201   97.6823 -999.0000 -999.0000 -999.0000 -999.0000   10.5100 -999.0000 -999.0000    2.5717    2.5403  151.5000  154.4000 4455.2100 
4497.5380   17.8600 13533.2100   99.2757 -999.0000 -999.0000 -999.0000 -999.0000   10.6900 -999.0000 -999.0000    2.4869    2.4525  151.6000  154.4000 4455.3501 
4497.6904   17.8400 13518.2695  103.1866 -999.0000 -999.0000 -999.0000 -999.0000   10.9700 -999.0000 -999.0000    2.3846    2.3906  151.6000  154.5000 4455.5000 
4497.8428   17.8400 13517.0000  102.4695 -999.0000 -999.0000 -999.0000 -999.0000   11.2400 -999.0000 -999.0000    2.3551    2.3691  151.7000  154.5000 4455.6499 
