~VERSION INFORMATION
 VERS.                 2.0:   CWLS LOG ASCII STANDARD - VERSION 2.0
 WRAP.                  NO:   SINGLE LINE PER DEPTH STEP
 CREA.                 01/06/2017 16:04:44
#CREATED USING IP VERSION 4.1.2012.198 BY MINHC ON 01/06/2017 16:04:44
~WELL INFORMATION
#MNEM.UNIT       DATA                          DESCRIPTION MNEMONIC
#---------      ---------------------------   --------------------------
 STRT    .M         2860.0000                 : START DEPTH
 STOP    .M         4644.2993                 : STOP DEPTH
 STEP    .M         0.1524                    : STEP VALUE
 NULL    .      -999.0000                     : NULL VALUE
 SRVC    .      SCH                           : Service Company/Logging company
 DATE    .      01/06/2017                    : LAS file Creation Date
 WELL    .      05-2-HT-9P                    : Well Name
 COMP    .      Bien Dong Petroleum Operating : Company
 FLD     .      Hai Thach                     : Field
 LOC     .      WHP-HT1                       : Location
 LATI    .      0                             : Latitude/Northing
 LONG    .      0                             : Longitude/Easting
 RWS     .      -999                          : Def_Rw
 WST     .      -999                          : Def_Rwt
 PROV    .      Unused                        : Province
 SRVC    .      SCH                           : Contractor
~CURVE INFORMATION
#MNEM              UNIT       API CODE     Description
#----------  --------------- ----------  --------------
 DEPTH      .M                         : 
 ACTECDM    .ppg                       : 
 APRESM     .psi                       : 
 GR1CFM     .API                       : Gamma Ray
 RACEHM     .ohm.m                     : 
 RACELM     .ohm.m                     : 
 RACESHM    .ohm.m                     : 
 RACESLM    .ohm.m                     : 
 ROP_AVG    .m/hr                      : 
 RPCEHM     .ohm.m                     : 
 RPCELM     .ohm.m                     : 
 RPCESHM    .ohm.m                     : 
 RPCESLM    .ohm.m                     : 
 RPTHM      .min                       : 
 TCDM       .degC                      : 
 TVD        .m                         : True vertical thickness
~A  DEPTH  ACTECDM    APRESM    GR1CFM    RACEHM    RACELM   RACESHM   RACESLM   ROP_AVG    RPCEHM    RPCELM   RPCESHM   RPCESLM    RPTHM      TCDM      TVD    
# ...
4292.2552   17.6800 12788.7695  115.5881 -999.0000 -999.0000    2.9189    3.2624   12.1100 -999.0000 -999.0000    2.7899    2.7606   45.5000  148.8000 4253.8799 
4292.4076   17.6900 12798.5596  114.1291 -999.0000 -999.0000    2.9276    3.2763   12.1000 -999.0000 -999.0000    2.8105    2.7767   45.8000  148.9000 4254.0298 
4292.5600   17.7100 12807.8496  117.0622 -999.0000 -999.0000    2.9284    3.2728   12.1000 -999.0000 -999.0000    2.8336    2.7770   45.9000  148.9000 4254.1802 
4292.7124   17.7100 12811.6602  117.7099 -999.0000 -999.0000    2.9290    3.2864   12.1200 -999.0000 -999.0000    2.9138    2.8355   46.2000  148.9000 4254.3398 
4292.8648   17.7400 12829.8398  119.8891 -999.0000 -999.0000    2.9429    3.2908   12.0900 -999.0000 -999.0000    3.0146    2.8865   46.3000  148.9000 4254.4902 
4293.0172   17.7300 12827.4902  120.6949 -999.0000 -999.0000    2.9882    3.3075   11.9800 -999.0000 -999.0000    2.9969    2.8814   46.5000  148.9000 4254.6299 
4293.1696   17.7300 12823.2998  120.2874 -999.0000 -999.0000    3.0185    3.3312   11.9100 -999.0000 -999.0000    2.9699    2.8645   46.7000  148.9000 4254.7798 
4293.3220   17.7500 12843.3203  118.6107 -999.0000 -999.0000    3.0294    3.3114   11.8100 -999.0000 -999.0000    2.9957    2.8815   47.0000  148.9000 4254.9302 
4293.4744   17.7800 12865.0703  118.3414 -999.0000 -999.0000    3.0061    3.3226   11.2600 -999.0000 -999.0000    3.0655    2.9239   47.0000  148.9000 4255.0698 
4293.6268   17.7700 12855.5303  117.7648 -999.0000 -999.0000    2.9930    3.3328   10.3400 -999.0000 -999.0000    3.1123    2.9359   46.7000  148.9000 4255.2202 
4293.7792   17.7400 12833.8799  117.6539 -999.0000 -999.0000    2.9663    3.3256    9.6100 -999.0000 -999.0000    3.0930    2.9262   46.2000  148.9000 4255.3701 
4293.9316   17.7500 12844.4697  117.3350 -999.0000 -999.0000    2.9578    3.3261    9.2600 -999.0000 -999.0000    3.0638    2.9088   45.9000  149.0000 4255.5098 
4294.0840   17.7400 12832.6396  118.5063 -999.0000 -999.0000    2.9435    3.3422    9.0700 -999.0000 -999.0000    3.0200    2.8908   45.8000  149.0000 4255.6602 
4294.2364   17.7300 12826.7900  118.7863 -999.0000 -999.0000    2.9348    3.3408    9.0100 -999.0000 -999.0000    2.9867    2.8763   46.0000  149.0000 4255.8101 
4294.3888   17.7600 12849.6201  117.3377 -999.0000 -999.0000    2.9509    3.3342    9.1300 -999.0000 -999.0000    2.9862    2.8798   46.0000  149.0000 4255.9502 
4294.5412   17.7300 12832.3896  118.8383 -999.0000 -999.0000    2.9517    3.3874    9.2300 -999.0000 -999.0000    2.9891    2.8771   45.8000  149.0000 4256.1001 
4294.6936   17.7600 12849.6797  121.2663 -999.0000 -999.0000    2.9702    3.3758    9.2500 -999.0000 -999.0000    3.0015    2.8840   45.8000  149.0000 4256.2500 
4294.8460   17.7500 12845.0996  121.9379 -999.0000 -999.0000    2.9925    3.3949    9.1700 -999.0000 -999.0000    3.0229    2.9105   45.6000  149.0000 4256.3999 
4294.9984   17.7500 12843.9902  120.9300 -999.0000 -999.0000    2.9981    3.4098    8.9700 -999.0000 -999.0000    3.0645    2.9275   45.3000  149.0000 4256.5498 
4295.1508   17.7700 12864.0498  120.4545 -999.0000 -999.0000    3.0007    3.4112    8.8800 -999.0000 -999.0000    3.0929    2.9412   44.9000  149.0000 4256.7002 
4295.3032   17.7400 12838.3604  120.3519 -999.0000 -999.0000    3.0056    3.4206    8.5700 -999.0000 -999.0000    3.1076    2.9528   45.2000  149.0000 4256.8599 
4295.4556   17.7400 12841.1299  121.6423 -999.0000 -999.0000    3.0296    3.4326    8.5300 -999.0000 -999.0000    3.1154    2.9626   45.6000  149.0000 4257.0098 
4295.6080   17.7500 12845.7402  120.9454 -999.0000 -999.0000    3.0587    3.4841    8.3200 -999.0000 -999.0000    3.1037    2.9691   45.2000  149.0000 4257.1602 
4295.7604   17.7400 12841.5098  120.8350 -999.0000 -999.0000    3.0911    3.4968    8.0900 -999.0000 -999.0000    3.0809    2.9652   45.0000  149.0000 4257.3101 
4295.9128   17.7400 12840.3701  123.5603 -999.0000 -999.0000    3.0991    3.5034    7.9900 -999.0000 -999.0000    3.0962    2.9834   44.7000  149.0000 4257.4702 
4296.0652   17.7300 12833.5898  123.0756 -999.0000 -999.0000    3.1156    3.5479    7.7000 -999.0000 -999.0000    3.1378    3.0141   44.1000  149.0000 4257.6201 
4296.2176   17.7600 12854.1299  122.1333 -999.0000 -999.0000    3.1235    3.5497    7.6200 -999.0000 -999.0000    3.1742    3.0248   43.7000  149.0000 4257.7598 
4296.3700   17.7300 12837.8896  124.6564 -999.0000 -999.0000    3.1310    3.5477    7.4900 -999.0000 -999.0000    3.1831    3.0336   43.2000  149.0000 4257.9102 
4296.5224   17.7300 12835.2197  130.7303 -999.0000 -999.0000    3.1365    3.5427    7.4800 -999.0000 -999.0000    3.1620    3.0289   42.9000  149.0000 4258.0601 
4296.6748   17.7800 12870.4102  136.3196 -999.0000 -999.0000    3.1272    3.5340    7.4700 -999.0000 -999.0000    3.1186    3.0016   42.5000  149.0000 4258.2002 
4296.8272   17.7300 12838.4297  126.0643 -999.0000 -999.0000    3.1324    3.5341    7.4900 -999.0000 -999.0000    3.1074    2.9993   42.0000  149.0000 4258.3501 
4296.9796   17.7500 12854.5098  126.4093 -999.0000 -999.0000    3.1364    3.5871    7.2400 -999.0000 -999.0000    3.0534    3.0006   41.5000  149.0000 4258.5000 
4297.1320   17.7600 12861.1201  126.6371 -999.0000 -999.0000    3.1390    3.5446    7.2800 -999.0000 -999.0000    3.0087    2.9580   41.2000  149.0000 4258.6401 
4297.2844   17.7800 12875.7500  126.7394 -999.0000 -999.0000    3.1116    3.5594    7.5700 -999.0000 -999.0000    3.0494    2.9974   41.0000  149.0000 4258.7900 
4297.4368   17.8000 12888.8096  130.5786 -999.0000 -999.0000    3.1199    3.5646    7.6000 -999.0000 -999.0000    3.0613    2.9992   40.6000  149.0000 4258.9399 
4297.5892   17.7800 12877.1797  128.8081 -999.0000 -999.0000    3.1111    3.5655    7.3700 -999.0000 -999.0000    3.1208    3.0139   39.9000  149.0000 4259.0801 
4297.7416   17.7500 12853.6201  127.0356 -999.0000 -999.0000    3.1040    3.5245    7.6100 -999.0000 -999.0000    3.1816    3.0411   39.8000  149.0000 4259.2300 
4297.8940   17.7200 12833.7900  125.3180 -999.0000 -999.0000    3.1359    3.5754    8.1400 -999.0000 -999.0000    3.2038    3.0546   39.8000  149.0000 4259.3799 
4298.0464   17.7500 12858.7695  122.1501 -999.0000 -999.0000    3.1221    3.5041    9.0300 -999.0000 -999.0000    3.2345    3.0416   39.9000  149.0000 4259.5298 
4298.1988   17.7600 12866.2100  122.9711 -999.0000 -999.0000    3.1367    3.5418    9.7000 -999.0000 -999.0000    3.2747    3.0771   40.1000  149.0000 4259.6802 
4298.3512   17.7900 12884.3301  124.1936 -999.0000 -999.0000    3.1394    3.5473   10.3900 -999.0000 -999.0000    3.3326    3.0796   40.2000  149.0000 4259.8301 
4298.5036   17.8100 12899.1396  123.3775 -999.0000 -999.0000    3.1413    3.5625   10.8900 -999.0000 -999.0000    3.4024    3.1078   40.4000  149.0000 4259.9902 
4298.6560   17.7600 12863.9199  126.2058 -999.0000 -999.0000    3.1413    3.5703   10.9500 -999.0000 -999.0000    3.4853    3.1714   40.6000  149.0000 4260.1401 
4298.8084   17.7300 12843.4502  124.9961 -999.0000 -999.0000    3.0993    3.5283   10.8900 -999.0000 -999.0000    3.5821    3.2009   40.7000  149.1000 4260.2900 
4298.9608   17.7900 12884.3896  124.1499 -999.0000 -999.0000    3.1131    3.6092   10.9300 -999.0000 -999.0000    3.5845    3.2230   41.0000  149.1000 4260.4399 
4299.1132   17.8000 12892.1504  124.0616 -999.0000 -999.0000    3.1066    3.6290   10.5900 -999.0000 -999.0000    3.4994    3.1812   41.3000  149.1000 4260.6001 
4299.2656   17.7900 12889.2900  124.4125 -999.0000 -999.0000    3.0881    3.7105   10.3800 -999.0000 -999.0000    3.3713    3.1566   41.2000  149.1000 4260.7500 
4299.4180   17.8100 12903.8496  123.5267 -999.0000 -999.0000    3.1046    3.6857   10.4400 -999.0000 -999.0000    3.2434    3.0697   41.3000  149.1000 4260.8901 
4299.5704   17.8100 12899.6504  123.1382 -999.0000 -999.0000    3.0872    3.8089    9.9800 -999.0000 -999.0000    3.2200    3.0937   41.3000  149.1000 4261.0400 
4299.7228   17.8000 12892.7900  122.5976 -999.0000 -999.0000    3.0827    3.8056   10.0300 -999.0000 -999.0000    3.1889    3.0707   41.4000  149.1000 4261.1899 
