~VERSION INFORMATION
 VERS.                 2.0:   CWLS LOG ASCII STANDARD - VERSION 2.0
 WRAP.                  NO:   SINGLE LINE PER DEPTH STEP
 CREA.                 01/06/2017 16:04:44
#CREATED USING IP VERSION 4.1.2012.198 BY MINHC ON 01/06/2017 16:04:44
~WELL INFORMATION
#MNEM.UNIT       DATA                          DESCRIPTION MNEMONIC
#---------      ---------------------------   --------------------------
 STRT    .M         2860.0000                 : START DEPTH
 STOP    .M         4644.2993                 : STOP DEPTH
 STEP    .M         0.1524                    : STEP VALUE
 NULL    .      -999.0000                     : NULL VALUE
 SRVC    .      SCH                           : Service Company/Logging company
 DATE    .      01/06/2017                    : LAS file Creation Date
 WELL    .      05-2-HT-9P                    : Well Name
 COMP    .      Bien Dong Petroleum Operating : Company
 FLD     .      Hai Thach                     : Field
 LOC     .      WHP-HT1                       : Location
 LATI    .      0                             : Latitude/Northing
 LONG    .      0                             : Longitude/Easting
 RWS     .      -999                          : Def_Rw
 WST     .      -999                          : Def_Rwt
 PROV    .      Unused                        : Province
 SRVC    .      SCH                           : Contractor
~CURVE INFORMATION
#MNEM              UNIT       API CODE     Description
#----------  --------------- ----------  --------------
 DEPTH      .M                         : 
 ACTECDM    .ppg                       : 
 APRESM     .psi                       : 
 GR1CFM     .API                       : Gamma Ray
 RACEHM     .ohm.m                     : 
 RACELM     .ohm.m                     : 
 RACESHM    .ohm.m                     : 
 RACESLM    .ohm.m                     : 
 ROP_AVG    .m/hr                      : 
 RPCEHM     .ohm.m                     : 
 RPCELM     .ohm.m                     : 
 RPCESHM    .ohm.m                     : 
 RPCESLM    .ohm.m                     : 
 RPTHM      .min                       : 
 TCDM       .degC                      : 
 TVD        .m                         : True vertical thickness
~A  DEPTH  ACTECDM    APRESM    GR1CFM    RACEHM    RACELM   RACESHM   RACESLM   ROP_AVG    RPCEHM    RPCELM   RPCESHM   RPCESLM    RPTHM      TCDM      TVD    
# ...
3758.8552   17.6200 11167.9102  102.4566    2.3752    2.5755    2.3499    2.7082   12.0400    2.1129    2.2402    2.1124    2.2263   35.2000  130.4000 3730.1399 
3759.0076   17.6300 11176.2998  101.0310    2.3018    2.5142    2.2718    2.6405   12.0400    2.1113    2.2107    2.0925    2.1904   35.4000  130.4000 3730.2900 
3759.1600   17.6300 11177.8301  103.1092    2.2781    2.4688    2.2403    2.5896   12.0900    2.1194    2.1922    2.0834    2.1651   35.5000  130.4000 3730.4399 
3759.3124   17.6200 11175.1602   99.5559    2.2607    2.4386    2.2193    2.5536   12.1300    2.1752    2.2074    2.1336    2.1748   35.5000  130.4000 3730.6001 
3759.4648   17.6400 11185.0703   98.3839    2.2562    2.4172    2.2229    2.5330   12.1500    2.2032    2.2144    2.1660    2.1929   35.5000  130.4000 3730.7500 
3759.6172   17.6400 11188.5098   99.9901    2.2747    2.4055    2.2477    2.5366   12.1400    2.1672    2.2014    2.1465    2.1892   35.6000  130.4000 3730.8999 
3759.7696   17.6400 11189.1396   99.2776    2.2921    2.3970    2.2866    2.5425   12.1400    2.1770    2.2085    2.1579    2.2127   35.7000  130.4000 3731.0500 
3759.9220   17.6400 11186.5996   97.2640    2.3012    2.3959    2.3192    2.5534   12.1500    2.2524    2.2493    2.2357    2.2654   35.7000  130.5000 3731.2100 
3760.0744   17.6400 11189.8398   96.2039    2.3310    2.3992    2.3617    2.5742   12.1400    2.2997    2.2811    2.2888    2.3059   35.7000  130.5000 3731.3601 
3760.2268   17.6600 11197.6602   96.3408    2.3568    2.4093    2.3860    2.5859   12.1700    2.3714    2.3213    2.3524    2.3420   35.7000  130.5000 3731.5100 
3760.3792   17.6500 11193.4697   94.4509    2.3789    2.4233    2.4022    2.6011   12.1500    2.4110    2.3456    2.3833    2.3613   35.7000  130.5000 3731.6599 
3760.5316   17.6500 11195.7598   97.1840    2.3962    2.4380    2.4155    2.6158   12.1600    2.4078    2.3500    2.3806    2.3667   35.7000  130.5000 3731.8101 
3760.6840   17.6600 11199.9502   96.8046    2.3841    2.4540    2.3959    2.6318   12.1500    2.4320    2.3678    2.3997    2.3767   35.7000  130.5000 3731.9600 
3760.8364   17.6400 11188.7598   94.7422    2.3887    2.4795    2.3819    2.6468   12.1500    2.3479    2.3484    2.3354    2.3428   35.7000  130.5000 3732.1101 
3760.9888   17.6500 11195.1797   95.1031    2.4092    2.5148    2.3806    2.6747   12.1300    2.2145    2.2966    2.2067    2.2812   35.7000  130.5000 3732.2500 
3761.1412   17.6400 11191.7500   96.4339    2.3991    2.5471    2.3675    2.7008   12.1500    2.2349    2.3140    2.1980    2.2927   35.7000  130.5000 3732.3999 
3761.2936   17.6900 11220.3604   97.3763    2.3993    2.5792    2.3699    2.7377   12.1400    2.2853    2.3527    2.2425    2.3210   35.7000  130.5000 3732.5500 
3761.4460   17.6900 11220.6797   96.7777    2.4568    2.6205    2.4197    2.7794   12.1500    2.2594    2.3651    2.2221    2.3289   35.7000  130.6000 3732.7000 
3761.5984   17.6800 11214.8301   93.7565    2.5253    2.6692    2.4824    2.8323   12.1400    2.2990    2.4154    2.2679    2.3738   35.8000  130.6000 3732.8601 
3761.7508   17.7100 11234.2803   94.1431    2.5849    2.7030    2.5579    2.8874   12.1100    2.4388    2.5053    2.4108    2.4657   35.8000  130.6000 3733.0100 
3761.9032   17.7000 11229.9004   93.9046    2.6713    2.7484    2.6770    2.9702   12.0900    2.6306    2.6217    2.5957    2.6067   35.8000  130.6000 3733.1599 
3762.0556   17.6900 11225.3799   90.5492    2.7434    2.7836    2.7667    3.0259   12.1000    2.7698    2.7084    2.7176    2.7126   35.9000  130.6000 3733.3101 
3762.2080   17.6800 11222.0801   89.7899    2.8529    2.8370    2.9090    3.1358   12.0900    2.9559    2.8367    2.9077    2.8736   35.9000  130.6000 3733.4700 
3762.3604   17.6600 11207.0098   90.0428    2.9205    2.8737    3.0106    3.1981   12.1100    3.0361    2.9107    3.0287    2.9665   35.9000  130.6000 3733.6201 
3762.5128   17.6800 11220.5498   88.3485    2.9585    2.9053    3.0640    3.2360   12.0800    3.1415    2.9772    3.1349    3.0389   35.9000  130.6000 3733.7700 
3762.6652   17.6800 11219.7900   88.4626    2.9749    2.9105    3.0741    3.2482   11.9800    3.2017    3.0074    3.1846    3.0610   36.0000  130.6000 3733.9199 
3762.8176   17.6700 11216.4805   89.4475    2.9611    2.9106    3.0451    3.2516   11.8100    3.2350    3.0192    3.1982    3.0639   36.3000  130.6000 3734.0801 
3762.9700   17.6600 11208.9199   89.6442    2.9256    2.9064    2.9973    3.2289   11.3500    3.1928    2.9958    3.1531    3.0244   37.6000  130.6000 3734.2300 
3763.1224   17.6700 11213.8096   94.1010    2.8675    2.8912    2.9062    3.1865   11.1800    2.8410    2.8240    2.8165    2.8146   38.3000  130.7000 3734.3799 
3763.2748   17.6400 11198.4297   96.8324    2.8132    2.8613    2.8165    3.1378   10.9700    2.6497    2.7041    2.6001    2.6833   38.2000  130.7000 3734.5300 
3763.4272   17.6700 11213.6797   97.3199    2.7401    2.8169    2.7374    3.0838   10.8800    2.5252    2.6207    2.4829    2.6014   38.2000  130.7000 3734.6799 
3763.5796   17.6500 11206.0498   95.5174    2.6896    2.7634    2.6809    3.0192   10.8500    2.4634    2.5683    2.4294    2.5510   38.1000  130.7000 3734.8301 
3763.7320   17.6800 11226.5303   99.0393    2.6327    2.7148    2.6302    2.9664   10.9000    2.5118    2.5643    2.4626    2.5446   38.1000  130.7000 3734.9800 
3763.8844   17.6800 11222.4600   97.8926    2.5929    2.6531    2.5936    2.8851   10.9800    2.5324    2.5387    2.4874    2.5294   38.0000  130.7000 3735.1299 
3764.0368   17.6800 11225.3799   94.9212    2.5387    2.5885    2.5609    2.7979   11.0100    2.5626    2.5189    2.5245    2.5215   37.9000  130.7000 3735.2800 
3764.1892   17.6800 11221.8896   93.9857    2.4917    2.5201    2.5208    2.7391   11.1000    2.5290    2.4727    2.5131    2.4874   37.9000  130.7000 3735.4299 
3764.3416   17.6900 11228.6904   96.8338    2.4420    2.4553    2.4713    2.6589   11.1200    2.4742    2.4143    2.4709    2.4351   37.8000  130.7000 3735.5801 
3764.4940   17.6900 11229.3203   97.1019    2.3899    2.3988    2.4147    2.5864   11.1800    2.4094    2.3484    2.3998    2.3699   37.8000  130.8000 3735.7300 
3764.6464   17.7100 11246.4902  100.4401    2.2941    2.3252    2.3194    2.5011   11.2100    2.3866    2.2915    2.3614    2.3166   37.7000  130.8000 3735.8799 
3764.7988   17.6900 11230.8496  101.8458    2.2268    2.2795    2.2489    2.4515   11.1900    2.3133    2.2267    2.2767    2.2573   37.7000  130.8000 3736.0300 
3764.9512   17.7000 11236.9502  104.4204    2.1737    2.2313    2.1662    2.3857   11.1800    2.0502    2.0783    2.0286    2.1029   37.7000  130.8000 3736.1799 
3765.1036   17.7200 11250.1797  107.0368    2.1079    2.1872    2.0790    2.3140   11.2000    1.9310    2.0048    1.9235    2.0041   37.6000  130.8000 3736.3401 
3765.2560   17.6800 11228.1797  110.8220    2.0431    2.1426    2.0143    2.2541   11.2200    1.9342    1.9823    1.9135    1.9687   37.5000  130.8000 3736.4900 
3765.4084   17.7100 11247.1299  107.8437    2.0030    2.1022    1.9774    2.2097   11.2100    1.9116    1.9502    1.8822    1.9289   37.5000  130.8000 3736.6399 
3765.5608   17.7200 11255.4600  109.5425    1.9822    2.0774    1.9545    2.1840   11.2500    1.8662    1.9154    1.8305    1.8934   37.5000  130.8000 3736.7900 
3765.7132   17.7400 11265.5596  110.6650    1.9656    2.0610    1.9461    2.1659   10.8500    1.8334    1.8911    1.8055    1.8768   37.3000  130.8000 3736.9500 
3765.8656   17.7500 11272.2998  111.3677    1.9592    2.0499    1.9574    2.1576   10.6800    1.8085    1.8772    1.8073    1.8800   38.4000  130.9000 3737.1001 
3766.0180   17.7100 11251.6396  110.2367    1.9703    2.0504    1.9707    2.1583   10.7400    1.8381    1.8920    1.8399    1.8995   41.1000  130.9000 3737.2500 
3766.1704   17.7300 11263.6602  108.3074    2.0072    2.0612    1.9988    2.1663   10.8200    1.9183    1.9410    1.9191    1.9492   42.0000  130.9000 3737.3999 
3766.3228   17.7700 11286.4199  106.9061    2.0187    2.0741    2.0066    2.1824   10.8200    2.1089    2.0274    2.0683    2.0212   42.0000  130.9000 3737.5500 
