~VERSION INFORMATION
 VERS.                 2.0:   CWLS LOG ASCII STANDARD - VERSION 2.0
 WRAP.                  NO:   SINGLE LINE PER DEPTH STEP
 CREA.                 01/06/2017 16:04:44
#CREATED USING IP VERSION 4.1.2012.198 BY MINHC ON 01/06/2017 16:04:44
~WELL INFORMATION
#MNEM.UNIT       DATA                          DESCRIPTION MNEMONIC
#---------      ---------------------------   --------------------------
 STRT    .M         2860.0000                 : START DEPTH
 STOP    .M         4644.2993                 : STOP DEPTH
 STEP    .M         0.1524                    : STEP VALUE
 NULL    .      -999.0000                     : NULL VALUE
 SRVC    .      SCH                           : Service Company/Logging company
 DATE    .      01/06/2017                    : LAS file Creation Date
 WELL    .      05-2-HT-9P                    : Well Name
 COMP    .      Bien Dong Petroleum Operating : Company
 FLD     .      Hai Thach                     : Field
 LOC     .      WHP-HT1                       : Location
 LATI    .      0                             : Latitude/Northing
 LONG    .      0                             : Longitude/Easting
 RWS     .      -999                          : Def_Rw
 WST     .      -999                          : Def_Rwt
 PROV    .      Unused                        : Province
 SRVC    .      SCH                           : Contractor
~CURVE INFORMATION
#MNEM              UNIT       API CODE     Description
#----------  --------------- ----------  --------------
 DEPTH      .M                         : 
 ACTECDM    .ppg                       : 
 APRESM     .psi                       : 
 GR1CFM     .API                       : Gamma Ray
 RACEHM     .ohm.m                     : 
 RACELM     .ohm.m                     : 
 RACESHM    .ohm.m                     : 
 RACESLM    .ohm.m                     : 
 ROP_AVG    .m/hr                      : 
 RPCEHM     .ohm.m                     : 
 RPCELM     .ohm.m                     : 
 RPCESHM    .ohm.m                     : 
 RPCESLM    .ohm.m                     : 
 RPTHM      .min                       : 
 TCDM       .degC                      : 
 TVD        .m                         : True vertical thickness
~A  DEPTH  ACTECDM    APRESM    GR1CFM    RACEHM    RACELM   RACESHM   RACESLM   ROP_AVG    RPCEHM    RPCELM   RPCESHM   RPCESLM    RPTHM      TCDM      TVD    
# ...
4558.9552   17.9500 13782.3096  110.8594 -999.0000 -999.0000 -999.0000 -999.0000   11.9500 -999.0000 -999.0000    2.0186    1.9630   41.8000  155.7000 4515.4502 
4559.1076   17.9500 13781.8701  111.4615 -999.0000 -999.0000 -999.0000 -999.0000   11.9500 -999.0000 -999.0000    2.1798    2.0677   42.1000  155.7000 4515.6001 
4559.2600   17.9700 13798.7100  113.1412 -999.0000 -999.0000 -999.0000 -999.0000   11.6100 -999.0000 -999.0000    2.1912    2.1034   42.1000  155.7000 4515.7500 
4559.4124   17.9700 13796.4902  112.8101 -999.0000 -999.0000 -999.0000 -999.0000   11.6400 -999.0000 -999.0000    2.0865    2.0766   42.3000  155.7000 4515.8999 
4559.5648   17.9800 13808.0596  110.0083 -999.0000 -999.0000 -999.0000 -999.0000   11.6100 -999.0000 -999.0000    2.0556    2.0692   42.6000  155.7000 4516.0498 
4559.7172   17.9900 13812.4502  111.5348 -999.0000 -999.0000 -999.0000 -999.0000   11.6300 -999.0000 -999.0000    2.0356    2.0514   43.1000  155.8000 4516.2002 
4559.8696   17.9700 13799.5400  114.4971 -999.0000 -999.0000 -999.0000 -999.0000   11.6500 -999.0000 -999.0000    1.9456    1.9952   43.5000  155.8000 4516.3501 
4560.0220   18.0000 13823.8896  116.1937 -999.0000 -999.0000 -999.0000 -999.0000   11.6900 -999.0000 -999.0000    1.9256    1.9566   44.0000  155.8000 4516.4902 
4560.1744   17.9800 13810.0898  115.4817 -999.0000 -999.0000 -999.0000 -999.0000   11.6400 -999.0000 -999.0000    1.8850    1.8987   44.4000  155.8000 4516.6401 
4560.3268   18.0200 13840.8701  119.7389 -999.0000 -999.0000 -999.0000 -999.0000   11.0100 -999.0000 -999.0000    1.7872    1.8170   44.5000  155.8000 4516.7900 
4560.4792   18.0200 13844.4902  120.4565 -999.0000 -999.0000 -999.0000 -999.0000   10.7900 -999.0000 -999.0000    1.7216    1.7633   44.6000  155.8000 4516.9399 
4560.6316   18.0100 13834.0898  120.1338 -999.0000 -999.0000 -999.0000 -999.0000   10.2600 -999.0000 -999.0000    1.6538    1.7307   44.2000  155.8000 4517.0801 
4560.7840   18.0100 13831.3301  127.0923 -999.0000 -999.0000 -999.0000 -999.0000    9.8100 -999.0000 -999.0000    1.5211    1.6671   44.0000  155.8000 4517.2300 
4560.9364   18.0300 13846.7197  129.2874 -999.0000 -999.0000 -999.0000 -999.0000    9.7900 -999.0000 -999.0000    1.5656    1.7024   44.0000  155.9000 4517.3799 
4561.0888   18.0500 13862.7998  124.3474 -999.0000 -999.0000 -999.0000 -999.0000    9.4900 -999.0000 -999.0000    1.6599    1.7863   43.5000  155.9000 4517.5200 
4561.2412   18.0200 13843.0000  120.5980 -999.0000 -999.0000 -999.0000 -999.0000    8.8500 -999.0000 -999.0000    1.8652    1.9550   71.8000  155.9000 4517.6699 
4561.3936   18.0200 13840.4805  114.2606 -999.0000 -999.0000 -999.0000 -999.0000    8.3000 -999.0000 -999.0000    2.1082    2.1369   80.8000  155.9000 4517.8101 
4561.5460   18.0300 13855.9297  108.2559 -999.0000 -999.0000 -999.0000 -999.0000    7.9300 -999.0000 -999.0000    2.3996    2.3247   80.4000  155.9000 4517.9702 
4561.6984   18.0000 13829.0400  106.7679 -999.0000 -999.0000 -999.0000 -999.0000    7.4500 -999.0000 -999.0000    2.5554    2.4225   79.7000  155.9000 4518.1201 
4561.8508   17.9700 13805.3896  106.5866 -999.0000 -999.0000 -999.0000 -999.0000    6.9200 -999.0000 -999.0000    2.5923    2.4505   79.1000  155.9000 4518.2700 
4562.0032   17.9800 13817.8496  109.4735 -999.0000 -999.0000 -999.0000 -999.0000    7.1600 -999.0000 -999.0000    2.4213    2.3845   78.9000  156.0000 4518.4199 
4562.1556   17.9800 13813.6504  114.1645 -999.0000 -999.0000 -999.0000 -999.0000    7.5600 -999.0000 -999.0000    2.1155    2.2225   78.7000  156.0000 4518.5801 
4562.3080   18.0000 13831.4600  117.5631 -999.0000 -999.0000 -999.0000 -999.0000    7.8000 -999.0000 -999.0000    2.0132    2.1323   78.4000  156.0000 4518.7300 
4562.4604   18.0100 13838.8301  116.6677 -999.0000 -999.0000 -999.0000 -999.0000    8.2700 -999.0000 -999.0000    2.0303    2.1092   78.3000  156.0000 4518.8799 
4562.6128   17.9800 13819.3799  115.8712 -999.0000 -999.0000 -999.0000 -999.0000    8.6900 -999.0000 -999.0000    2.0215    2.0714   78.1000  156.0000 4519.0298 
4562.7652   18.0100 13837.4297  117.4104 -999.0000 -999.0000 -999.0000 -999.0000    9.1600 -999.0000 -999.0000    1.9402    1.9011   78.0000  156.0000 4519.1802 
4562.9176   17.9900 13823.8896  119.3618 -999.0000 -999.0000 -999.0000 -999.0000    9.6200 -999.0000 -999.0000    1.9422    1.8745   78.0000  156.0000 4519.3301 
4563.0700   17.9900 13823.8896  119.0292 -999.0000 -999.0000 -999.0000 -999.0000    9.9100 -999.0000 -999.0000    1.9856    1.8724   78.1000  156.0000 4519.4800 
4563.2224   17.9800 13822.1699  120.5909 -999.0000 -999.0000 -999.0000 -999.0000   10.2300 -999.0000 -999.0000    1.9289    1.8591   78.1000  156.0000 4519.6201 
4563.3748   18.0200 13849.8301  121.8978 -999.0000 -999.0000 -999.0000 -999.0000   10.5900 -999.0000 -999.0000    1.8325    1.8188   78.1000  156.0000 4519.7700 
4563.5272   17.9900 13824.4600  120.8785 -999.0000 -999.0000 -999.0000 -999.0000   10.9500 -999.0000 -999.0000    1.7671    1.7646   78.2000  156.0000 4519.9199 
4563.6796   17.9700 13812.6396  122.3467 -999.0000 -999.0000 -999.0000 -999.0000   11.0500 -999.0000 -999.0000    1.6825    1.6565   78.2000  156.1000 4520.0601 
4563.8320   17.9700 13812.0703  125.3792 -999.0000 -999.0000 -999.0000 -999.0000   11.4000 -999.0000 -999.0000    1.6001    1.5982   78.2000  156.1000 4520.2100 
4563.9844   17.9700 13809.7100  122.2166 -999.0000 -999.0000 -999.0000 -999.0000   11.5700 -999.0000 -999.0000    1.5829    1.5503   78.3000  156.1000 4520.3599 
4564.1368   17.9900 13829.9902  121.9988 -999.0000 -999.0000 -999.0000 -999.0000   11.5700 -999.0000 -999.0000    1.5378    1.5395   78.3000  156.1000 4520.5000 
4564.2892   17.9900 13826.9404  123.9207 -999.0000 -999.0000 -999.0000 -999.0000   11.6000 -999.0000 -999.0000    1.4909    1.5558   78.4000  156.1000 4520.6499 
4564.4416   17.9900 13829.1699  127.4720 -999.0000 -999.0000 -999.0000 -999.0000   11.6500 -999.0000 -999.0000    1.4727    1.5331   78.7000  156.1000 4520.7998 
4564.5940   18.0000 13834.5703  126.0345 -999.0000 -999.0000 -999.0000 -999.0000   11.6700 -999.0000 -999.0000    1.4780    1.5195   79.0000  156.1000 4520.9399 
4564.7464   18.0000 13836.6699  123.9591 -999.0000 -999.0000 -999.0000 -999.0000   11.7400 -999.0000 -999.0000    1.4928    1.4773   79.4000  156.1000 4521.1001 
4564.8988   17.9900 13835.1396  121.4184 -999.0000 -999.0000 -999.0000 -999.0000   11.7800 -999.0000 -999.0000    1.4832    1.4632   79.6000  156.2000 4521.2500 
4565.0512   17.9300 13784.7900  122.6933 -999.0000 -999.0000 -999.0000 -999.0000   11.7500 -999.0000 -999.0000    1.4738    1.4463   79.6000  156.2000 4521.3999 
4565.2036   17.9300 13789.4902  126.6381 -999.0000 -999.0000 -999.0000 -999.0000   11.6700 -999.0000 -999.0000    1.4509    1.4456   79.5000  156.2000 4521.5498 
4565.3560   17.9600 13813.4004  127.2859 -999.0000 -999.0000 -999.0000 -999.0000   11.4500 -999.0000 -999.0000    1.4434    1.4446   79.5000  156.2000 4521.7100 
4565.5084   17.9800 13824.2695  126.9311 -999.0000 -999.0000 -999.0000 -999.0000   11.3900 -999.0000 -999.0000    1.4446    1.4568   79.3000  156.2000 4521.8599 
4565.6608   18.0100 13848.8799  125.1465 -999.0000 -999.0000 -999.0000 -999.0000    9.9500 -999.0000 -999.0000    1.4844    1.4953   78.7000  156.2000 4522.0098 
4565.8132   17.9600 13812.8896  125.2009 -999.0000 -999.0000 -999.0000 -999.0000    9.2800 -999.0000 -999.0000    1.5807    1.5600   78.3000  156.2000 4522.1602 
4565.9656   17.9600 13809.0098  124.9683 -999.0000 -999.0000 -999.0000 -999.0000    9.4600 -999.0000 -999.0000    1.5999    1.5971   78.1000  156.2000 4522.3101 
4566.1180   18.0100 13848.5000  121.6468 -999.0000 -999.0000 -999.0000 -999.0000    9.4000 -999.0000 -999.0000    1.6022    1.6352   77.9000  156.2000 4522.4600 
4566.2704   18.0100 13850.1504  116.2544 -999.0000 -999.0000 -999.0000 -999.0000    9.4600 -999.0000 -999.0000    1.7074    1.7277   77.7000  156.2000 4522.6099 
4566.4228   18.0000 13842.7695  109.0728 -999.0000 -999.0000 -999.0000 -999.0000    9.1700 -999.0000 -999.0000    1.9784    1.9041   77.2000  156.3000 4522.7500 
