~VERSION INFORMATION
 VERS.                 2.0:   CWLS LOG ASCII STANDARD - VERSION 2.0
 WRAP.                  NO:   SINGLE LINE PER DEPTH STEP
 CREA.                 01/06/2017 16:04:44
#CREATED USING IP VERSION 4.1.2012.198 BY MINHC ON 01/06/2017 16:04:44
~WELL INFORMATION
#MNEM.UNIT       DATA                          DESCRIPTION MNEMONIC
#---------      ---------------------------   --------------------------
 STRT    .M         2860.0000                 : START DEPTH
 STOP    .M         4644.2993                 : STOP DEPTH
 STEP    .M         0.1524                    : STEP VALUE
 NULL    .      -999.0000                     : NULL VALUE
 SRVC    .      SCH                           : Service Company/Logging company
 DATE    .      01/06/2017                    : LAS file Creation Date
 WELL    .      05-2-HT-9P                    : Well Name
 COMP    .      Bien Dong Petroleum Operating : Company
 FLD     .      Hai Thach                     : Field
 LOC     .      WHP-HT1                       : Location
 LATI    .      0                             : Latitude/Northing
 LONG    .      0                             : Longitude/Easting
 RWS     .      -999                          : Def_Rw
 WST     .      -999                          : Def_Rwt
 PROV    .      Unused                        : Province
 SRVC    .      SCH                           : Contractor
~CURVE INFORMATION
#MNEM              UNIT       API CODE     Description
#----------  --------------- ----------  --------------
 DEPTH      .M                         : 
 ACTECDM    .ppg                       : 
 APRESM     .psi                       : 
 GR1CFM     .API                       : Gamma Ray
 RACEHM     .ohm.m                     : 
 RACELM     .ohm.m                     : 
 RACESHM    .ohm.m                     : 
 RACESLM    .ohm.m                     : 
 ROP_AVG    .m/hr                      : 
 RPCEHM     .ohm.m                     : 
 RPCELM     .ohm.m                     : 
 RPCESHM    .ohm.m                     : 
 RPCESLM    .ohm.m                     : 
 RPTHM      .min                       : 
 TCDM       .degC                      : 
 TVD        .m                         : True vertical thickness
~A  DEPTH  ACTECDM    APRESM    GR1CFM    RACEHM    RACELM   RACESHM   RACESLM   ROP_AVG    RPCEHM    RPCELM   RPCESHM   RPCESLM    RPTHM      TCDM      TVD    
# ...
4360.8352   17.8200 13094.5195   95.4509 -999.0000 -999.0000 -999.0000 -999.0000   11.0200 -999.0000 -999.0000    5.4190    4.9748   48.8000  149.7000 4320.9600 
4360.9876   17.8300 13102.0898   96.6090 -999.0000 -999.0000 -999.0000 -999.0000   11.0400 -999.0000 -999.0000    5.6044    5.0931   49.3000  149.7000 4321.1099 
4361.1400   17.8400 13110.7305   98.5943 -999.0000 -999.0000 -999.0000 -999.0000   10.5600 -999.0000 -999.0000    5.5165    5.0470   49.4000  149.8000 4321.2500 
4361.2924   17.8500 13112.1299  100.6883 -999.0000 -999.0000 -999.0000 -999.0000   10.3000 -999.0000 -999.0000    5.7838    5.7301   50.0000  149.8000 4321.3999 
4361.4448   17.8300 13103.6104   95.6933 -999.0000 -999.0000 -999.0000 -999.0000   10.0100 -999.0000 -999.0000    5.9507    5.9576   50.7000  149.8000 4321.5498 
4361.5972   17.8400 13108.0596   89.4550 -999.0000 -999.0000 -999.0000 -999.0000    9.9800 -999.0000 -999.0000    6.0241    5.8805   50.6000  149.8000 4321.7100 
4361.7496   17.8300 13105.0098   83.0524 -999.0000 -999.0000 -999.0000 -999.0000    9.9900 -999.0000 -999.0000    6.2985    5.4417   50.6000  149.8000 4321.8599 
4361.9020   17.8500 13115.5000   81.4496 -999.0000 -999.0000 -999.0000 -999.0000   10.0600 -999.0000 -999.0000    6.4752    5.6490   50.6000  149.8000 4322.0098 
4362.0544   17.8300 13103.2900   84.2812 -999.0000 -999.0000 -999.0000 -999.0000   10.2500 -999.0000 -999.0000    6.6496    5.8994   51.0000  149.9000 4322.1602 
4362.2068   17.8400 13109.5898   85.5673 -999.0000 -999.0000 -999.0000 -999.0000   10.4900 -999.0000 -999.0000    6.7084    5.8778   51.5000  149.9000 4322.3198 
4362.3592   17.8200 13096.8096   87.5124 -999.0000 -999.0000 -999.0000 -999.0000   10.6500 -999.0000 -999.0000    6.5063    5.9229   51.7000  149.9000 4322.4702 
4362.5116   17.8200 13096.1104   88.2348 -999.0000 -999.0000 -999.0000 -999.0000   10.8400 -999.0000 -999.0000    6.5829    5.8697   52.0000  149.9000 4322.6201 
4362.6640   17.7900 13079.0703   90.0100 -999.0000 -999.0000 -999.0000 -999.0000   10.8900 -999.0000 -999.0000    6.1729    5.7040   52.2000  150.0000 4322.7700 
4362.8164   17.8500 13120.1699   91.0966 -999.0000 -999.0000 -999.0000 -999.0000   10.3500 -999.0000 -999.0000    5.9125    5.3276   51.9000  150.0000 4322.9199 
4362.9688   17.8300 13109.2100   89.9696 -999.0000 -999.0000 -999.0000 -999.0000   10.4500 -999.0000 -999.0000    6.0130    5.6392   52.2000  150.0000 4323.0698 
4363.1212   17.8200 13100.9102   90.0679 -999.0000 -999.0000 -999.0000 -999.0000    9.8800 -999.0000 -999.0000    6.2231    5.9305   53.0000  150.0000 4323.2100 
4363.2736   17.8300 13107.6797   91.7515 -999.0000 -999.0000 -999.0000 -999.0000    9.5800 -999.0000 -999.0000    5.7521    5.2292   53.2000  150.0000 4323.3599 
4363.4260   17.8300 13109.7197   93.5290 -999.0000 -999.0000 -999.0000 -999.0000    9.6200 -999.0000 -999.0000    5.8835    5.6858   54.3000  150.0000 4323.5098 
4363.5784   17.8400 13113.9102   92.2324 -999.0000 -999.0000 -999.0000 -999.0000    9.2400 -999.0000 -999.0000    5.9784    5.5006   54.6000  150.1000 4323.6499 
4363.7308   17.8400 13114.1699   94.0757 -999.0000 -999.0000 -999.0000 -999.0000    8.9200 -999.0000 -999.0000    5.7952    5.2638   54.9000  150.1000 4323.7998 
4363.8832   17.8400 13115.1201   96.6210 -999.0000 -999.0000 -999.0000 -999.0000    8.9400 -999.0000 -999.0000    5.6501    5.1455   55.5000  150.1000 4323.9502 
4364.0356   17.8300 13110.7305   95.0995 -999.0000 -999.0000 -999.0000 -999.0000    9.3700 -999.0000 -999.0000    5.7854    5.2474   56.6000  150.1000 4324.0898 
4364.1880   17.8400 13115.4102   92.3049 -999.0000 -999.0000 -999.0000 -999.0000    9.7200 -999.0000 -999.0000    6.0300    5.2238   57.2000  150.1000 4324.2402 
4364.3404   17.8300 13110.0303   90.6908 -999.0000 -999.0000 -999.0000 -999.0000    8.4200 -999.0000 -999.0000    5.9069    5.1239   56.4000  150.2000 4324.3901 
4364.4928   17.8300 13107.5898   93.6456 -999.0000 -999.0000 -999.0000 -999.0000    7.9200 -999.0000 -999.0000    5.5511    5.0166   55.9000  150.2000 4324.5400 
4364.6452   17.8400 13118.7402   94.2113 -999.0000 -999.0000 -999.0000 -999.0000    8.0200 -999.0000 -999.0000    5.6061    5.0805   56.2000  150.2000 4324.6899 
4364.7976   17.8400 13120.1396   95.5497 -999.0000 -999.0000 -999.0000 -999.0000    8.2600 -999.0000 -999.0000    5.7017    5.0476   56.6000  150.2000 4324.8398 
4364.9500   17.8400 13116.2598   99.7171 -999.0000 -999.0000 -999.0000 -999.0000    7.9100 -999.0000 -999.0000    5.1128    4.6912   56.2000  150.2000 4324.9902 
4365.1024   17.8800 13145.7002  103.1295 -999.0000 -999.0000 -999.0000 -999.0000    7.4700 -999.0000 -999.0000    4.9141    4.5949   56.0000  150.2000 4325.1499 
4365.2548   17.8600 13133.2402  101.1972 -999.0000 -999.0000 -999.0000 -999.0000    7.6400 -999.0000 -999.0000    5.2256    5.0865   56.7000  150.3000 4325.2998 
4365.4072   17.8400 13118.4902   98.7879 -999.0000 -999.0000 -999.0000 -999.0000    7.9200 -999.0000 -999.0000    5.1895    4.7202   57.0000  150.3000 4325.4502 
4365.5596   17.8400 13120.9199  103.0927 -999.0000 -999.0000 -999.0000 -999.0000    7.3200 -999.0000 -999.0000    4.6831    4.4410   57.3000  150.3000 4325.6001 
4365.7120   17.8500 13126.1201  107.7164 -999.0000 -999.0000 -999.0000 -999.0000    6.7200 -999.0000 -999.0000    4.4397    4.3143   56.2000  150.3000 4325.7500 
4365.8644   17.8400 13123.4502  105.2118 -999.0000 -999.0000 -999.0000 -999.0000    7.0000 -999.0000 -999.0000    4.8636    4.6042   56.3000  150.3000 4325.9102 
4366.0168   17.8500 13127.7100  102.1243 -999.0000 -999.0000 -999.0000 -999.0000    7.6700 -999.0000 -999.0000    5.1781    4.6613   56.9000  150.3000 4326.0498 
4366.1692   17.8400 13122.7900  104.4551 -999.0000 -999.0000 -999.0000 -999.0000    8.2100 -999.0000 -999.0000    4.8272    4.5186   58.3000  150.3000 4326.2002 
4366.3216   17.8500 13132.5996  105.8278 -999.0000 -999.0000 -999.0000 -999.0000    7.3500 -999.0000 -999.0000    4.7900    4.5675   57.7000  150.4000 4326.3501 
4366.4740   17.9000 13167.1904  101.7771 -999.0000 -999.0000 -999.0000 -999.0000    7.8800 -999.0000 -999.0000    5.1158    4.7413   58.2000  150.4000 4326.4902 
4366.6264   17.8700 13143.5400   93.7976 -999.0000 -999.0000 -999.0000 -999.0000    8.4500 -999.0000 -999.0000    5.3848    4.8358   59.1000  150.4000 4326.6401 
4366.7788   17.8500 13129.3301   95.3271 -999.0000 -999.0000 -999.0000 -999.0000    8.6700 -999.0000 -999.0000    5.1971    4.7065   59.6000  150.4000 4326.7900 
4366.9312   17.8400 13128.2002   99.7742 -999.0000 -999.0000 -999.0000 -999.0000    8.2000 -999.0000 -999.0000    5.0658    4.7088   59.1000  150.4000 4326.9302 
4367.0836   17.8600 13143.6699   98.4274 -999.0000 -999.0000 -999.0000 -999.0000    8.0600 -999.0000 -999.0000    5.2524    5.1901   59.1000  150.4000 4327.0801 
4367.2360   17.8500 13130.0000   97.3485 -999.0000 -999.0000 -999.0000 -999.0000    8.3900 -999.0000 -999.0000    5.4446    5.2652   59.9000  150.4000 4327.2300 
4367.3884   17.8500 13134.6396   99.3894 -999.0000 -999.0000 -999.0000 -999.0000    8.8200 -999.0000 -999.0000    5.2569    4.8400   60.6000  150.4000 4327.3799 
4367.5408   17.8400 13130.4199   99.8901 -999.0000 -999.0000 -999.0000 -999.0000    8.0000 -999.0000 -999.0000    5.0977    4.8010   59.7000  150.4000 4327.5200 
4367.6932   17.7800 13085.8096  100.4134 -999.0000 -999.0000 -999.0000 -999.0000    6.7800 -999.0000 -999.0000    5.3488    5.2081   59.3000  150.5000 4327.6699 
4367.8456   17.8500 13135.0498   97.4502 -999.0000 -999.0000 -999.0000 -999.0000    6.6700 -999.0000 -999.0000    5.4618    5.1175   60.8000  150.5000 4327.8198 
4367.9980   17.8500 13135.7197   97.6475 -999.0000 -999.0000 -999.0000 -999.0000    6.7300 -999.0000 -999.0000    5.2184    4.9011   62.2000  150.5000 4327.9702 
4368.1504   17.8500 13135.9902   98.6552 -999.0000 -999.0000 -999.0000 -999.0000    6.3800 -999.0000 -999.0000    5.0444    4.7448   62.0000  150.5000 4328.1299 
4368.3028   17.8500 13136.0400   99.5888 -999.0000 -999.0000 -999.0000 -999.0000    6.5400 -999.0000 -999.0000    5.1886    5.1002   62.1000  150.5000 4328.2798 
