~VERSION INFORMATION
 VERS.                 2.0:   CWLS LOG ASCII STANDARD - VERSION 2.0
 WRAP.                  NO:   SINGLE LINE PER DEPTH STEP
 CREA.                 01/06/2017 16:04:44
#CREATED USING IP VERSION 4.1.2012.198 BY MINHC ON 01/06/2017 16:04:44
~WELL INFORMATION
#MNEM.UNIT       DATA                          DESCRIPTION MNEMONIC
#---------      ---------------------------   --------------------------
 STRT    .M         2860.0000                 : START DEPTH
 STOP    .M         4644.2993                 : STOP DEPTH
 STEP    .M         0.1524                    : STEP VALUE
 NULL    .      -999.0000                     : NULL VALUE
 SRVC    .      SCH                           : Service Company/Logging company
 DATE    .      01/06/2017                    : LAS file Creation Date
 WELL    .      05-2-HT-9P                    : Well Name
 COMP    .      Bien Dong Petroleum Operating : Company
 FLD     .      Hai Thach                     : Field
 LOC     .      WHP-HT1                       : Location
 LATI    .      0                             : Latitude/Northing
 LONG    .      0                             : Longitude/Easting
 RWS     .      -999                          : Def_Rw
 WST     .      -999                          : Def_Rwt
 PROV    .      Unused                        : Province
 SRVC    .      SCH                           : Contractor
~CURVE INFORMATION
#MNEM              UNIT       API CODE     Description
#----------  --------------- ----------  --------------
 DEPTH      .M                         : 
 ACTECDM    .ppg                       : 
 APRESM     .psi                       : 
 GR1CFM     .API                       : Gamma Ray
 RACEHM     .ohm.m                     : 
 RACELM     .ohm.m                     : 
 RACESHM    .ohm.m                     : 
 RACESLM    .ohm.m                     : 
 ROP_AVG    .m/hr                      : 
 RPCEHM     .ohm.m                     : 
 RPCELM     .ohm.m                     : 
 RPCESHM    .ohm.m                     : 
 RPCESLM    .ohm.m                     : 
 RPTHM      .min                       : 
 TCDM       .degC                      : 
 TVD        .m                         : True vertical thickness
~A  DEPTH  ACTECDM    APRESM    GR1CFM    RACEHM    RACELM   RACESHM   RACESLM   ROP_AVG    RPCEHM    RPCELM   RPCESHM   RPCESLM    RPTHM      TCDM      TVD    
# ...
4025.5552   17.7800 12070.2695  109.7732    2.8514    2.9487    2.9007    3.2250   11.5600    2.8541    2.8047    2.8326    2.8246   36.0000  140.7000 3992.9700 
4025.7076   17.7600 12056.2197  108.7413    2.8455    2.9406    2.8948    3.2160   11.5400    2.8519    2.8018    2.8378    2.8250   36.0000  140.7000 3993.1201 
4025.8600   17.7600 12054.2500  110.5973    2.8463    2.9318    2.8831    3.2106   11.6300    2.7835    2.7693    2.7865    2.7871   36.0000  140.7000 3993.2700 
4026.0124   17.7800 12070.6602  108.0919    2.8302    2.9216    2.8629    3.1868   11.6900    2.7669    2.7461    2.7538    2.7688   36.0000  140.7000 3993.4299 
4026.1648   17.7700 12066.7803  108.1334    2.7741    2.9055    2.8139    3.1609   11.7600    2.8582    2.7788    2.8086    2.7813   36.0000  140.8000 3993.5801 
4026.3172   17.7600 12060.9297  111.7317    2.7646    2.9029    2.7959    3.1534   11.8000    2.7786    2.7279    2.7217    2.7316   36.0000  140.8000 3993.7200 
4026.4696   17.7900 12081.1504  113.3527    2.7707    2.9084    2.7847    3.1492   11.7200    2.6135    2.6536    2.5887    2.6593   36.0000  140.8000 3993.8701 
4026.6220   17.7800 12074.9199  113.4408    2.7421    2.9033    2.7409    3.1371   11.7400    2.5880    2.6415    2.5801    2.6403   36.0000  140.8000 3994.0200 
4026.7744   17.7700 12068.7500  116.0632    2.7399    2.9103    2.7331    3.1257   11.8100    2.5887    2.6415    2.5687    2.6321   36.0000  140.8000 3994.1599 
4026.9268   17.7900 12080.7695  113.0552    2.7378    2.9148    2.7346    3.1366   11.8300    2.6302    2.6572    2.5800    2.6328   36.0000  140.8000 3994.3101 
4027.0792   17.7800 12075.5498  110.8203    2.7466    2.9250    2.7303    3.1505   11.8200    2.6680    2.6805    2.6060    2.6520   36.0000  140.8000 3994.4600 
4027.2316   17.7800 12073.1396  110.6076    2.7562    2.9449    2.7399    3.1611   11.8900    2.6657    2.6903    2.6067    2.6563   36.0000  140.8000 3994.6001 
4027.3840   17.7800 12077.5195  115.5736    2.7994    2.9774    2.7911    3.2098   11.8700    2.5650    2.6614    2.5418    2.6451   36.0000  140.9000 3994.7500 
4027.5364   17.7900 12084.8301  112.1675    2.8203    2.9996    2.8264    3.2433   11.8800    2.6134    2.7074    2.5989    2.6953   36.0000  140.9000 3994.8999 
4027.6888   17.8000 12091.0596  111.1917    2.8619    3.0324    2.8861    3.2838   11.8100    2.6991    2.7635    2.6853    2.7549   35.9000  140.9000 3995.0500 
4027.8412   17.7900 12085.2197  109.9521    2.9254    3.0597    2.9621    3.3404   11.7200    2.8438    2.8550    2.8298    2.8429   35.9000  140.9000 3995.1899 
4027.9936   17.7800 12078.2900  104.9025    2.9771    3.0916    3.0168    3.3862   11.5100    3.0458    2.9574    3.0160    2.9614   35.8000  140.9000 3995.3401 
4028.1460   17.8000 12091.9502   99.8076    3.0404    3.1319    3.0817    3.4330   11.3400    3.1797    3.0413    3.1291    3.0526   35.7000  140.9000 3995.4900 
4028.2984   17.8100 12094.8799  100.9020    3.0804    3.1657    3.1250    3.4992   11.2000    3.2267    3.0834    3.1690    3.0970   35.6000  140.9000 3995.6399 
4028.4508   17.7800 12081.0195  102.3585    3.1054    3.1964    3.1549    3.5359   11.0300    3.1792    3.0872    3.1477    3.0984   35.5000  140.9000 3995.8000 
4028.6032   17.7900 12083.6299  104.5467    3.1229    3.2348    3.1866    3.5791   10.9200    3.0645    3.0490    3.0459    3.0604   35.5000  141.0000 3995.9500 
4028.7556   17.7900 12084.2002  107.4550    3.1278    3.2631    3.1942    3.6115   10.9400    3.0081    3.0324    2.9827    3.0438   35.4000  141.0000 3996.1001 
4028.9080   17.8100 12099.0801  108.3948    3.1478    3.2903    3.2015    3.6319   10.9100    2.9843    3.0368    2.9628    3.0387   35.3000  141.0000 3996.2500 
4029.0604   17.8100 12098.6904  107.0122    3.1682    3.3077    3.2098    3.6524   10.9700    3.0300    3.0674    3.0027    3.0557   35.3000  141.0000 3996.4099 
4029.2128   17.7900 12085.1504  102.4338    3.1762    3.3213    3.2048    3.6532   11.0400    3.1778    3.1322    3.1314    3.1159   35.2000  141.0000 3996.5601 
4029.3652   17.8000 12096.5303   98.7286    3.1711    3.3355    3.1995    3.6469   10.9900    3.3044    3.1838    3.2342    3.1717   35.1000  141.0000 3996.7100 
4029.5176   17.7900 12085.9102  102.0350    3.1783    3.3476    3.2051    3.6595   11.0700    3.2389    3.1713    3.1899    3.1494   35.1000  141.0000 3996.8601 
4029.6700   17.8200 12106.9600  103.0859    3.1843    3.3676    3.2045    3.6898   11.0600    3.0778    3.1022    3.0627    3.0807   35.0000  141.0000 3997.0000 
4029.8224   17.8000 12096.2100  105.2267    3.1745    3.3859    3.2036    3.7058   11.0600    2.9798    3.0543    2.9697    3.0420   35.0000  141.1000 3997.1499 
4029.9748   17.7900 12089.7900  105.7437    3.1705    3.4033    3.1989    3.7145   11.1100    2.9670    3.0495    2.9499    3.0393   34.9000  141.1000 3997.3000 
4030.1272   17.7700 12079.0498  109.3547    3.1779    3.4188    3.1997    3.7316   10.9600    3.0091    3.0752    2.9694    3.0511   34.7000  141.1000 3997.4399 
4030.2796   17.7900 12087.7598  105.2474    3.2095    3.4414    3.2196    3.7484   10.8100    3.0661    3.1148    3.0212    3.0802   34.6000  141.1000 3997.5901 
4030.4320   17.8100 12101.1104  103.8337    3.2251    3.4597    3.2258    3.7677   10.6500    3.1858    3.1822    3.1405    3.1426   34.5000  141.1000 3997.7400 
4030.5844   17.7700 12076.9502  104.4486    3.2574    3.4842    3.2587    3.7922   10.6300    3.2228    3.2095    3.1629    3.1747   34.5000  141.1000 3997.8799 
4030.7368   17.8100 12101.7500  105.2496    3.2942    3.5163    3.3034    3.8336   10.6800    3.1911    3.2031    3.1324    3.1735   34.4000  141.1000 3998.0300 
4030.8892   17.8100 12102.8896  101.4895    3.3112    3.5499    3.3334    3.8945   10.6100    3.2301    3.2413    3.1833    3.2200   34.4000  141.1000 3998.1799 
4031.0416   17.8000 12096.7900  101.9668    3.3392    3.5769    3.3789    3.9382   10.7700    3.2226    3.2543    3.1961    3.2467   34.4000  141.2000 3998.3201 
4031.1940   17.7800 12084.3896  103.8054    3.3999    3.6247    3.4501    4.0020   10.9600    3.2193    3.2789    3.2046    3.2755   34.4000  141.2000 3998.4700 
4031.3464   17.8000 12096.5996   99.6944    3.4412    3.6612    3.5014    4.0453   11.1600    3.4022    3.3901    3.3814    3.3844   34.5000  141.2000 3998.6201 
4031.4988   17.8100 12107.0898   96.6943    3.4753    3.6914    3.5612    4.0894   11.3700    3.6065    3.4920    3.5821    3.4996   34.5000  141.2000 3998.7800 
4031.6512   17.8000 12100.4102   96.7301    3.5208    3.7207    3.6125    4.1413   11.4700    3.6920    3.5482    3.6711    3.5588   34.6000  141.2000 3998.9299 
4031.8036   17.8100 12110.1396   97.2145    3.5767    3.7581    3.6638    4.1768   11.5900    3.6932    3.5697    3.6670    3.5818   34.6000  141.2000 3999.0801 
4031.9560   17.8000 12102.8896   97.3229    3.6151    3.8003    3.6897    4.2330   11.6600    3.6440    3.5533    3.6189    3.5730   34.7000  141.2000 3999.2300 
4032.1084   17.8400 12128.7002   96.9501    3.6129    3.8311    3.6986    4.2852   11.7200    3.6578    3.5821    3.6314    3.5838   34.7000  141.2000 3999.3899 
4032.2608   17.8400 12129.7803  101.0700    3.6092    3.8631    3.6967    4.3297   11.7600    3.6232    3.5719    3.5869    3.5694   34.8000  141.2000 3999.5400 
4032.4132   17.8100 12110.7100  103.3886    3.6321    3.9103    3.7002    4.3664   11.7700    3.5475    3.5505    3.5032    3.5333   34.8000  141.2000 3999.6899 
4032.5656   17.8200 12115.2197  105.5654    3.6856    3.9567    3.7200    4.4109   11.8800    3.4742    3.5484    3.4261    3.5076   34.8000  141.2000 3999.8401 
4032.7180   17.8100 12111.2803  103.1115    3.7075    3.9767    3.7451    4.4436   11.9400    3.5480    3.5965    3.4949    3.5522   34.9000  141.2000 3999.9900 
4032.8704   17.8000 12107.4697  100.5146    3.7129    3.9901    3.7613    4.4670   11.8700    3.6943    3.6755    3.6386    3.6369   34.9000  141.3000 4000.1299 
4033.0228   17.8100 12114.0801  100.5456    3.7379    4.0132    3.7839    4.4808   11.8400    3.7132    3.6928    3.6597    3.6622   35.0000  141.3000 4000.2800 
