~VERSION INFORMATION
 VERS.                 2.0:   CWLS LOG ASCII STANDARD - VERSION 2.0
 WRAP.                  NO:   SINGLE LINE PER DEPTH STEP
 CREA.                 01/06/2017 16:04:44
#CREATED USING IP VERSION 4.1.2012.198 BY MINHC ON 01/06/2017 16:04:44
~WELL INFORMATION
#MNEM.UNIT       DATA                          DESCRIPTION MNEMONIC
#---------      ---------------------------   --------------------------
 STRT    .M         2860.0000                 : START DEPTH
 STOP    .M         4644.2993                 : STOP DEPTH
 STEP    .M         0.1524                    : STEP VALUE
 NULL    .      -999.0000                     : NULL VALUE
 SRVC    .      SCH                           : Service Company/Logging company
 DATE    .      01/06/2017                    : LAS file Creation Date
 WELL    .      05-2-HT-9P                    : Well Name
 COMP    .      Bien Dong Petroleum Operating : Company
 FLD     .      Hai Thach                     : Field
 LOC     .      WHP-HT1                       : Location
 LATI    .      0                             : Latitude/Northing
 LONG    .      0                             : Longitude/Easting
 RWS     .      -999                          : Def_Rw
 WST     .      -999                          : Def_Rwt
 PROV    .      Unused                        : Province
 SRVC    .      SCH                           : Contractor
~CURVE INFORMATION
#MNEM              UNIT       API CODE     Description
#----------  --------------- ----------  --------------
 DEPTH      .M                         : 
 ACTECDM    .ppg                       : 
 APRESM     .psi                       : 
 GR1CFM     .API                       : Gamma Ray
 RACEHM     .ohm.m                     : 
 RACELM     .ohm.m                     : 
 RACESHM    .ohm.m                     : 
 RACESLM    .ohm.m                     : 
 ROP_AVG    .m/hr                      : 
 RPCEHM     .ohm.m                     : 
 RPCELM     .ohm.m                     : 
 RPCESHM    .ohm.m                     : 
 RPCESLM    .ohm.m                     : 
 RPTHM      .min                       : 
 TCDM       .degC                      : 
 TVD        .m                         : True vertical thickness
~A  DEPTH  ACTECDM    APRESM    GR1CFM    RACEHM    RACELM   RACESHM   RACESLM   ROP_AVG    RPCEHM    RPCELM   RPCESHM   RPCESLM    RPTHM      TCDM      TVD    
# ...
3622.0000 -999.0000 -999.0000   44.6870    0.1109   -0.0154    0.1802    0.0389 -999.0000 60467.7578  498.6374 25521.5664   64.8923 16403.9004 -999.0000 -999.0000 
3622.1524 -999.0000 -999.0000   46.7405    0.1118   -0.0037    0.1776    0.0384 -999.0000 60467.7578  620.6760 25521.5664 20227.5762 16403.0000 -999.0000 -999.0000 
3622.3048 -999.0000 -999.0000   51.3256    0.0996    0.0019    0.1777    0.0419 -999.0000 60467.7578  742.7146 25521.5664    4.2171 16402.1992 -999.0000 -999.0000 
3622.4572 -999.0000 -999.0000   53.2215    0.1049    0.0083    0.1767    0.0375 -999.0000 60467.7578  864.7532 25521.5664 20227.5762 16401.3008 -999.0000 -999.0000 
3622.6096 -999.0000 -999.0000   55.7709    0.1037   -0.0094    0.1751    0.0371 -999.0000 60467.7578  579.4259 25521.5664 20227.5762 16400.4004 -999.0000 -999.0000 
3622.7620 -999.0000 -999.0000   56.1048    0.1308    0.0003    0.1724    0.0400 -999.0000 60467.7578  294.0985 25521.5664   11.7162 16399.5996 -999.0000 -999.0000 
3622.9144 -999.0000 -999.0000   50.5755    0.1029   -0.0001    0.1721    0.0404 -999.0000 60467.7578    8.7711 25521.5664    3.1918 16399.5996 -999.0000 -999.0000 
3623.0668 -999.0000 -999.0000   52.1788    0.1055   -0.0002    0.1776    0.0417 -999.0000 60467.7578   13.6660 23257.0332    3.4472 16400.4004 -999.0000 -999.0000 
3623.2192 -999.0000 -999.0000   50.6897    0.1015   -0.0044    0.1750    0.0398 -999.0000 60467.7578   56.9830 25521.5664 5397.5015 16403.0996 -999.0000 -999.0000 
3623.3716 -999.0000 -999.0000   45.4725    0.1171   -0.0072    0.1767    0.0388 -999.0000 60467.7578  228.3272 25521.5664   41.7511 16406.1992 -999.0000 -999.0000 
3623.5240 -999.0000 -999.0000   42.6435    0.1353   -0.0006    0.1673    0.0382 -999.0000 60467.7578  482.5806 25521.5664 5214.5815 16407.8008 -999.0000 -999.0000 
3623.6764 -999.0000 -999.0000   47.1409    0.1108   -0.0063    0.1723    0.0391 -999.0000 60467.7578  736.8340 25521.5664   16.1344 16407.4004 -999.0000 -999.0000 
3623.8288 -999.0000 -999.0000   46.5547    0.1118   -0.0115    0.1763    0.0387 -999.0000 60467.7578  991.0873 25521.5664 10122.8076 16406.3008 -999.0000 -999.0000 
3623.9812 -999.0000 -999.0000   45.3743    0.1162   -0.0029    0.1751    0.0387 -999.0000 60467.7578 1245.3407 25521.5664 10129.6260 16405.9004 -999.0000 -999.0000 
3624.1336 -999.0000 -999.0000   44.0008    0.1357    0.0017    0.1715    0.0400 -999.0000 60467.7578  167.6750 25521.5664    5.1768 16406.4004  112.6000 -999.0000 
3624.2860   17.2300 10534.1602   45.6709    0.1551    0.0173    0.1614    0.0385 -999.0000 60467.7578   11.8312 25521.5664 2256.9851 16413.5996  112.9000 -999.0000 
3624.4384   17.2200 10523.6104   46.3477    0.1278    0.0029    0.1644    0.0366 -999.0000 60467.7578   12.0016 25521.5664 10119.1973 16417.5000  113.1000 -999.0000 
3624.5908   17.2600 10550.8799   48.1923    0.1055    0.0007    0.1699    0.0407 -999.0000 60467.7578   12.1720 25521.5664    6.0707 16416.8008  113.4000 -999.0000 
3624.7432   17.2100 10522.0801   50.1258    0.1099   -0.0024    0.1638    0.0365 -999.0000 60467.7578   12.3424 25521.5664 10138.9980 16415.9004  113.7000 -999.0000 
3624.8956   17.2800 10561.3701   50.0414    0.1033    0.0075    0.1713    0.0418 -999.0000 60467.7578   12.5128 25521.5664    6.1629 16414.9004  114.0000 -999.0000 
3625.0480   17.2400 10539.8203   50.3081    0.1171   -0.0027    0.1735    0.0408 -999.0000 60467.7578   12.6832 25521.5664    5.7162 16413.8008  114.1000 -999.0000 
3625.2004   17.2400 10543.8203   51.8423    0.1089    0.0129    0.1760    0.0397 -999.0000 60467.7578   12.8537 20723.4668    6.5242 16413.0996  114.1000 -999.0000 
3625.3528   17.2500 10545.5400   50.2783    0.1097   -0.0135    0.1744    0.0385 -999.0000 60467.7578    8.4052 25521.5664 13492.4346 16413.0000  114.2000 -999.0000 
3625.5052   17.2500 10547.2598   49.1665    0.1205    0.0214    0.1698    0.0413 -999.0000 60467.7578    3.9567 25521.5664    4.1538 16412.0000  114.3000 -999.0000 
3625.6576   17.2900 10571.2900   49.3875    0.0911    0.0055    0.1710    0.0399 -999.0000 60467.7578    5.1281 25521.5664 10117.4131 16411.3008  114.4000 -999.0000 
3625.8100   17.2400 10541.1504   51.8997    0.1004   -0.0236    0.1751    0.0389 -999.0000 60467.7578    6.0623 25521.5664 10128.3896 16410.5000  114.5000 -999.0000 
3625.9624   17.2400 10543.1904   46.1709    0.1192    0.0628    0.1644    0.0414 -999.0000 60467.7578    6.9964 12927.4980    2.9981 16409.4004  114.6000 -999.0000 
3626.1148   17.2400 10545.2197   47.0227    0.0890   -0.0097    0.1691    0.0375 -999.0000 60467.7578    7.9306 25521.5664 20227.5762 16408.5996  114.7000 -999.0000 
3626.2672   17.2500 10547.2598   49.1547    0.1126   -0.0134    0.1691    0.0380 -999.0000 60467.7578    8.8647 25521.5664 10119.9844 16407.5000  114.8000 -999.0000 
3626.4196   17.2400 10546.1104   47.6995    0.1123   -0.0059    0.1741    0.0412 -999.0000 60467.7578    9.7989  801.0958    3.7547 16406.8008  114.8000 -999.0000 
3626.5720   17.2400 10544.9697   50.3411    0.1256    0.0030    0.1658    0.0398 -999.0000 60467.7578   10.7330 25521.5664 10115.6465 16406.1992  114.9000 -999.0000 
3626.7244   17.2400 10543.8203   49.8533    0.6547    0.0249    0.1315    0.0343 -999.0000 60467.7578   11.6672 25521.5664 20227.5762 16405.5000  115.0000 -999.0000 
3626.8768   17.2400 10546.8799   47.3049    0.1918    0.0161    0.1587    0.0377 -999.0000 60467.7578   12.6013 25521.5664 10121.1387 16404.6992  115.1000 -999.0000 
3627.0292   17.2600 10560.2305   47.0770    0.1040    0.0028    0.1708    0.0388 -999.0000 60467.7578   13.5355 25521.5664 10132.2432 16403.3008  115.2000 -999.0000 
3627.1816   17.2600 10557.7500   49.7291    0.1056   -0.0130    0.1751    0.0374 -999.0000 60467.7578   14.4697 25521.5664 20227.5762 16402.5996  115.3000 -999.0000 
3627.3340   17.2500 10555.2695   51.3215    0.1463   -0.0123    0.1776    0.0430 -999.0000 60467.7578   15.4038 25521.5664    4.2575 16401.8008  115.3000 -999.0000 
3627.4864   17.2600 10559.8398   48.8930    0.1785    0.0020    0.1653    0.0414 -999.0000 60467.7578   16.3380 25521.5664    5.8954 16400.6992  115.4000 -999.0000 
3627.6388   17.2600 10562.5195   48.0717    0.2936   -0.0095    0.1698    0.0342 -999.0000 60467.7578   19.7624 25521.5664 20227.5762 16399.1992  115.5000 -999.0000 
3627.7912   17.2700 10565.1904   47.6925    0.2291   -0.0017    0.1742    0.0384 -999.0000 60467.7578   23.1868 25521.5664 10116.5068 16397.5000  115.5000 -999.0000 
3627.9436   17.2600 10559.0801   47.3421    0.2178    0.0008    0.1643    0.0392 -999.0000 60467.7578   10.5803 25521.5664    6.2328 16393.5000  115.6000 -999.0000 
3628.0960   17.2500 10552.9805   50.1411    0.1564   -0.0080    0.1585    0.0352 -999.0000 60467.7578   10.5195 25521.5664 20227.5762 16391.1992  115.7000 -999.0000 
3628.2484   17.2600 10562.5195   51.1488    0.1223    0.0050    0.1675    0.0373 -999.0000 60467.7578   10.4586 25521.5664   12.8174 16390.5996  115.7000 -999.0000 
3628.4008   17.2800 10572.0498   51.7264    0.2061   -0.0038    0.1536    0.0405 -999.0000 60467.7578   10.3977 25521.5664    4.2500 16390.0000  115.8000 -999.0000 
3628.5532   17.2700 10568.0498   48.1807    0.1408    0.0014    0.1675    0.0364 -999.0000 60467.7578   10.3368 25521.5664 20227.5762 16389.1992  115.8000 -999.0000 
3628.7056   17.2600 10564.0400   47.9881    0.2120   -0.0132    0.1718    0.0390 -999.0000 60467.7578   10.2760 12871.0811    7.5138 16388.4004  115.9000 -999.0000 
3628.8580   17.2700 10568.8096   43.0368    0.1142   -0.0158    0.1683    0.0366 -999.0000 60467.7578   10.2151 12886.8135   22.7330 16387.6992  116.0000 -999.0000 
3629.0104   17.2800 10573.5801   38.9155    0.1135   -0.0085    0.1872    0.0381 -999.0000 60467.7578   18.8859 25521.5664    6.2599 16387.0996  116.0000 -999.0000 
3629.1628   17.2700 10571.4199   36.4882    0.1004   -0.0082    0.1773    0.0404 -999.0000 60467.7578   46.9982 25521.5664 6755.2954 16386.1992  116.1000 -999.0000 
3629.3152   17.2700 10569.2500   35.5874    0.2089   -0.0087    0.1660    0.0370 -999.0000 60467.7578   75.1105 25521.5664 18215.1719 16386.1992  116.2000 -999.0000 
