~VERSION INFORMATION
 VERS.                 2.0:   CWLS LOG ASCII STANDARD - VERSION 2.0
 WRAP.                  NO:   SINGLE LINE PER DEPTH STEP
 CREA.                 01/06/2017 16:04:44
#CREATED USING IP VERSION 4.1.2012.198 BY MINHC ON 01/06/2017 16:04:44
~WELL INFORMATION
#MNEM.UNIT       DATA                          DESCRIPTION MNEMONIC
#---------      ---------------------------   --------------------------
 STRT    .M         2860.0000                 : START DEPTH
 STOP    .M         4644.2993                 : STOP DEPTH
 STEP    .M         0.1524                    : STEP VALUE
 NULL    .      -999.0000                     : NULL VALUE
 SRVC    .      SCH                           : Service Company/Logging company
 DATE    .      01/06/2017                    : LAS file Creation Date
 WELL    .      05-2-HT-9P                    : Well Name
 COMP    .      Bien Dong Petroleum Operating : Company
 FLD     .      Hai Thach                     : Field
 LOC     .      WHP-HT1                       : Location
 LATI    .      0                             : Latitude/Northing
 LONG    .      0                             : Longitude/Easting
 RWS     .      -999                          : Def_Rw
 WST     .      -999                          : Def_Rwt
 PROV    .      Unused                        : Province
 SRVC    .      SCH                           : Contractor
~CURVE INFORMATION
#MNEM              UNIT       API CODE     Description
#----------  --------------- ----------  --------------
 DEPTH      .M                         : 
 ACTECDM    .ppg                       : 
 APRESM     .psi                       : 
 GR1CFM     .API                       : Gamma Ray
 RACEHM     .ohm.m                     : 
 RACELM     .ohm.m                     : 
 RACESHM    .ohm.m                     : 
 RACESLM    .ohm.m                     : 
 ROP_AVG    .m/hr                      : 
 RPCEHM     .ohm.m                     : 
 RPCELM     .ohm.m                     : 
 RPCESHM    .ohm.m                     : 
 RPCESLM    .ohm.m                     : 
 RPTHM      .min                       : 
 TCDM       .degC                      : 
 TVD        .m                         : True vertical thickness
~A  DEPTH  ACTECDM    APRESM    GR1CFM    RACEHM    RACELM   RACESHM   RACESLM   ROP_AVG    RPCEHM    RPCELM   RPCESHM   RPCESLM    RPTHM      TCDM      TVD    
# ...
3956.9752   17.7500 11846.7305  108.6843    2.9362    3.1111    2.9605    3.3786   12.0100    2.8821    2.9132    2.8822    2.9000   46.5000  139.5000 3925.8501 
3957.1276   17.7500 11849.2100  107.0569    2.9859    3.1323    2.9940    3.4058   12.0100    3.0193    2.9954    2.9734    2.9577   46.6000  139.5000 3925.9900 
3957.2800   17.7400 11838.2803  101.9534    2.9910    3.1404    2.9887    3.4137   12.0300    3.1813    3.0649    3.0827    3.0172   46.7000  139.5000 3926.1399 
3957.4324   17.7200 11824.7998   95.1754    2.9894    3.1466    2.9811    3.4366   11.9900    3.1323    3.0487    3.0208    3.0039   46.8000  139.5000 3926.2900 
3957.5848   17.7400 11840.6299  102.3499    3.0011    3.1659    2.9913    3.4559   12.0300    2.8723    2.9423    2.7967    2.9008   46.8000  139.5000 3926.4399 
3957.7372   17.7000 11817.6504  108.1006    2.9995    3.1677    2.9906    3.4594   11.9900    2.6997    2.8642    2.6763    2.8368   45.6000  139.5000 3926.5801 
3957.8896   17.7200 11827.6602  107.2806    3.0327    3.1707    3.0291    3.4747   11.6200    2.6861    2.8543    2.6569    2.8351   43.8000  139.5000 3926.7300 
3958.0420   17.7200 11830.5195  100.9487    3.0547    3.1493    3.0556    3.4513   11.6700    2.8877    2.9406    2.8182    2.9355   43.7000  139.5000 3926.8799 
3958.1944   17.7600 11857.2197   90.4707    3.0692    3.1310    3.0633    3.4152   11.7500    3.2133    3.0881    3.1404    3.0871   43.7000  139.5000 3927.0200 
3958.3468   17.7500 11848.9600   82.9436    3.0875    3.1056    3.0750    3.4014   11.7700    3.4632    3.1854    3.3773    3.1852   43.7000  139.5000 3927.1699 
3958.4992   17.7100 11820.2197   84.1270    3.0558    3.0946    3.0559    3.3752   11.8300    3.4986    3.1713    3.4161    3.1947   43.7000  139.5000 3927.3301 
3958.6516   17.7000 11820.4102   98.5010    3.0043    3.0832    3.0191    3.3699   11.9400    3.2695    3.0570    3.1928    3.0869   43.7000  139.5000 3927.4800 
3958.8040   17.6800 11807.1201  107.7666    2.9871    3.0824    2.9964    3.3626   11.9500    2.8838    2.8882    2.8414    2.9041   43.7000  139.5000 3927.6299 
3958.9564   17.7000 11816.2197  113.0134    2.9425    3.0798    2.9537    3.3479   11.9600    2.6765    2.7896    2.6726    2.7911   43.7000  139.5000 3927.7800 
3959.1088   17.7100 11822.7002  113.9719    2.9112    3.0748    2.9014    3.3259   11.9900    2.6632    2.7599    2.6563    2.7629   43.7000  139.5000 3927.9399 
3959.2612   17.7000 11816.0195  110.6620    2.9131    3.0731    2.8805    3.3167   11.9400    2.7290    2.7824    2.6736    2.7617   43.7000  139.5000 3928.0901 
3959.4136   17.5400 11715.7002  109.3060    2.8997    3.0700    2.8750    3.3021   11.9500    2.8901    2.8505    2.7678    2.8064   43.6000  139.5000 3928.2400 
3959.5660   17.5200 11699.2900  106.7226    2.8831    3.0744    2.8670    3.2993   11.9500    3.0141    2.9060    2.9091    2.8637   43.6000  139.5000 3928.3899 
3959.7184   17.5800 11742.5898  113.8202    2.8898    3.0877    2.8849    3.3143   11.9500    2.9349    2.8727    2.8607    2.8453   43.6000  139.5000 3928.5400 
3959.8708   17.5700 11731.8496  116.2705    2.9344    3.1244    2.9299    3.3373   11.9500    2.6884    2.7648    2.6590    2.7628   43.6000  139.5000 3928.6899 
3960.0232   17.6100 11763.3799  115.9345    2.9846    3.1572    2.9641    3.3891   11.9500    2.5678    2.7290    2.5995    2.7285   43.6000  139.5000 3928.8301 
3960.1756   17.7000 11822.3203  110.0165    2.9091    3.1435    2.9473    3.3982   11.9400    2.9123    2.8780    2.8865    2.8721   43.6000  139.5000 3928.9800 
3960.3280   17.7200 11838.7197  108.1654    2.9168    3.1575    2.9743    3.4236   11.9600    3.2158    3.0298    3.1404    3.0201   43.5000  139.5000 3929.1299 
3960.4804   17.7400 11846.9199  108.2465    3.0307    3.2062    3.0734    3.4958   11.9200    3.1697    3.0515    3.1158    3.0438   43.5000  139.5000 3929.2700 
3960.6328   17.7300 11843.8701  111.5064    3.1026    3.2484    3.1375    3.5484   11.9300    3.1214    3.0608    3.0922    3.0668   43.5000  139.5000 3929.4199 
3960.7852   17.7100 11828.2305  110.4746    3.1695    3.2986    3.2192    3.6159   11.8700    3.0744    3.0666    3.0935    3.0956   43.5000  139.5000 3929.5701 
3960.9376   17.7100 11827.7197  108.5876    3.2151    3.3282    3.3117    3.6668   11.8300    3.1254    3.1244    3.1263    3.1385   43.5000  139.5000 3929.7100 
3961.0900   17.7000 11826.1299  103.7425    3.2208    3.3542    3.3198    3.6914   11.7800    3.3655    3.2505    3.3394    3.2575   43.4000  139.5000 3929.8601 
3961.2424   17.7200 11838.4004  100.3751    3.2509    3.3845    3.3388    3.7338   11.7000    3.5024    3.3125    3.4563    3.3324   43.4000  139.5000 3930.0100 
3961.3948   17.7200 11839.8701  101.8203    3.2836    3.4087    3.3532    3.7613   11.6900    3.4871    3.3231    3.4324    3.3333   43.3000  139.5000 3930.1499 
3961.5472   17.7000 11822.7002  101.9766    3.2932    3.4341    3.3477    3.7833   11.6800    3.3951    3.2968    3.3558    3.3013   43.3000  139.6000 3930.3101 
3961.6996   17.7000 11827.5996  105.5143    3.2933    3.4596    3.3273    3.8149   11.4800    3.2884    3.2611    3.2719    3.2564   43.2000  139.6000 3930.4600 
3961.8520   17.7100 11830.1396  106.3469    3.3201    3.4787    3.3235    3.8368   11.4800    3.1393    3.2047    3.1435    3.1846   43.1000  139.6000 3930.6101 
3962.0044   17.7300 11845.5195  108.6854    3.3100    3.4937    3.3348    3.8530   11.4200    3.0991    3.1838    3.0614    3.1571   43.1000  139.6000 3930.7600 
3962.1568   17.7000 11824.7998  104.9261    3.2881    3.4960    3.3173    3.8323   11.3700    3.2133    3.2364    3.1530    3.2091   43.0000  139.6000 3930.9199 
3962.3092   17.6900 11823.0195  105.2529    3.2775    3.4898    3.3157    3.8408   11.3200    3.2609    3.2497    3.1937    3.2274   42.9000  139.6000 3931.0701 
3962.4616   17.6900 11823.4600  105.9146    3.3429    3.5058    3.3676    3.8517   11.2800    3.1084    3.1786    3.0793    3.1716   42.8000  139.6000 3931.2200 
3962.6140   17.7000 11830.6504  107.2650    3.3623    3.5055    3.3774    3.8612   11.2500    3.1147    3.1876    3.1246    3.1816   42.8000  139.6000 3931.3701 
3962.7664   17.6900 11825.1797  100.1041    3.3083    3.4793    3.3553    3.8238   11.2800    3.3889    3.2968    3.3841    3.3080   42.8000  139.6000 3931.5200 
3962.9188   17.7000 11829.9502   98.1490    3.2782    3.4494    3.3481    3.7986   11.2800    3.5326    3.3535    3.5144    3.3720   58.6000  139.6000 3931.6699 
3963.0712   17.7000 11827.3398   95.6055    3.2981    3.4273    3.3335    3.7652   11.3600    3.3352    3.2614    3.3403    3.2669  135.9000  139.7000 3931.8201 
3963.2236   17.6900 11826.1299  101.7251    3.2732    3.4164    3.3079    3.7410   11.3800    3.2163    3.1941    3.2081    3.2025  135.9000  139.7000 3931.9600 
3963.3760   17.6800 11817.5498  102.0090    3.2062    3.3849    3.2385    3.7075   11.4000    3.1911    3.1639    3.1626    3.1658  135.9000  139.7000 3932.1101 
3963.5284   17.6800 11821.3701  102.6330    3.1899    3.3710    3.2134    3.6773   10.6600    3.0283    3.0721    2.9985    3.0750  131.0000  139.7000 3932.2600 
3963.6808   17.6600 11805.9805  107.5085    3.1823    3.3513    3.1758    3.6618   10.6500    2.9110    3.0079    2.8834    2.9985  127.1000  139.5000 3932.3999 
3963.8332   17.6800 11818.0596  107.2380    3.1388    3.3225    3.1302    3.6151   10.6600    2.9834    3.0268    2.9393    3.0016  127.1000  139.3000 3932.5500 
3963.9856   17.6800 11819.2695  105.4956    3.0815    3.2866    3.1006    3.5668   10.6700    3.1013    3.0612    3.0511    3.0473  127.0000  139.3000 3932.7000 
3964.1380   17.6600 11808.2002  104.7404    3.0598    3.2552    3.0881    3.5448   10.7300    3.0704    3.0454    3.0524    3.0360  127.0000  139.3000 3932.8501 
3964.2904   17.6600 11806.4902  104.9239    3.0886    3.2389    3.0981    3.5204   10.8000    2.9025    2.9620    2.9286    2.9653  127.0000  139.3000 3932.9900 
3964.4428   17.6700 11813.3496  108.1317    3.0778    3.2268    3.0906    3.4985   11.0400    2.9209    2.9615    2.9416    2.9751  127.0000  139.3000 3933.1399 
