~VERSION INFORMATION
 VERS.                 2.0:   CWLS LOG ASCII STANDARD - VERSION 2.0
 WRAP.                  NO:   SINGLE LINE PER DEPTH STEP
 CREA.                 01/06/2017 16:04:44
#CREATED USING IP VERSION 4.1.2012.198 BY MINHC ON 01/06/2017 16:04:44
~WELL INFORMATION
#MNEM.UNIT       DATA                          DESCRIPTION MNEMONIC
#---------      ---------------------------   --------------------------
 STRT    .M         2860.0000                 : START DEPTH
 STOP    .M         4644.2993                 : STOP DEPTH
 STEP    .M         0.1524                    : STEP VALUE
 NULL    .      -999.0000                     : NULL VALUE
 SRVC    .      SCH                           : Service Company/Logging company
 DATE    .      01/06/2017                    : LAS file Creation Date
 WELL    .      05-2-HT-9P                    : Well Name
 COMP    .      Bien Dong Petroleum Operating : Company
 FLD     .      Hai Thach                     : Field
 LOC     .      WHP-HT1                       : Location
 LATI    .      0                             : Latitude/Northing
 LONG    .      0                             : Longitude/Easting
 RWS     .      -999                          : Def_Rw
 WST     .      -999                          : Def_Rwt
 PROV    .      Unused                        : Province
 SRVC    .      SCH                           : Contractor
~CURVE INFORMATION
#MNEM              UNIT       API CODE     Description
#----------  --------------- ----------  --------------
 DEPTH      .M                         : 
 ACTECDM    .ppg                       : 
 APRESM     .psi                       : 
 GR1CFM     .API                       : Gamma Ray
 RACEHM     .ohm.m                     : 
 RACELM     .ohm.m                     : 
 RACESHM    .ohm.m                     : 
 RACESLM    .ohm.m                     : 
 ROP_AVG    .m/hr                      : 
 RPCEHM     .ohm.m                     : 
 RPCELM     .ohm.m                     : 
 RPCESHM    .ohm.m                     : 
 RPCESLM    .ohm.m                     : 
 RPTHM      .min                       : 
 TCDM       .degC                      : 
 TVD        .m                         : True vertical thickness
~A  DEPTH  ACTECDM    APRESM    GR1CFM    RACEHM    RACELM   RACESHM   RACESLM   ROP_AVG    RPCEHM    RPCELM   RPCESHM   RPCESLM    RPTHM      TCDM      TVD    
# ...
3819.8152   17.6500 11370.9805  126.6358    1.9200    2.0645    1.8879    2.1676   11.5300    1.7037    1.8218    1.6807    1.8016   35.4000  129.9000 3790.6101 
3819.9676   17.6600 11381.1504  123.1897    1.9045    2.0483    1.8663    2.1431   11.4200    1.6755    1.8005    1.6502    1.7731   36.0000  130.0000 3790.7600 
3820.1200   17.6600 11380.1299  124.0791    1.8864    2.0296    1.8530    2.1280   11.4000    1.7370    1.8192    1.6900    1.7890   36.4000  130.1000 3790.9199 
3820.2724   17.6600 11380.5801  128.3654    1.8886    2.0099    1.8552    2.1131   11.2800    1.8111    1.8457    1.7603    1.8221   36.5000  130.2000 3791.0701 
3820.4248   17.6700 11387.5098  127.1094    1.9084    1.9956    1.8896    2.1093   11.2700    1.8267    1.8548    1.7970    1.8461   36.5000  130.3000 3791.2200 
3820.5772   17.6700 11386.1104  123.0038    1.9114    1.9871    1.9084    2.1204   11.3800    1.8332    1.8609    1.8064    1.8604   36.7000  130.4000 3791.3701 
3820.7296   17.6800 11394.1201  125.0835    1.9142    1.9833    1.9272    2.1282   11.4600    1.8226    1.8580    1.8047    1.8648   36.8000  130.5000 3791.5200 
3820.8820   17.6700 11387.2500  125.5257    1.9178    1.9792    1.9306    2.1322   11.5700    1.8042    1.8517    1.7877    1.8598   36.8000  130.6000 3791.6699 
3821.0344   17.6700 11387.5098  123.3590    1.9144    1.9779    1.9218    2.1312   11.6600    1.8091    1.8548    1.7847    1.8588   36.9000  130.6000 3791.8101 
3821.1868   17.6900 11398.7002  122.5771    1.9058    1.9685    1.9099    2.1222   11.7300    1.8045    1.8500    1.7751    1.8490   36.9000  130.7000 3791.9600 
3821.3392   17.6800 11394.3096  123.5070    1.8862    1.9603    1.8918    2.1114   11.8300    1.7925    1.8402    1.7671    1.8381   36.9000  130.8000 3792.1101 
3821.4916   17.6800 11395.6504  126.4864    1.8753    1.9522    1.8751    2.0988   11.8200    1.7489    1.8155    1.7337    1.8117   36.9000  130.9000 3792.2600 
3821.6440   17.6900 11405.3701  122.2510    1.8528    1.9388    1.8451    2.0734   11.8500    1.7289    1.7968    1.7129    1.7914   36.9000  130.9000 3792.4099 
3821.7964   17.6700 11393.5498  120.0342    1.8291    1.9231    1.8249    2.0529   11.8400    1.7286    1.7870    1.7005    1.7746   36.9000  131.0000 3792.5701 
3821.9488   17.6900 11401.8799  121.0775    1.8159    1.9068    1.8058    2.0320   11.8400    1.7091    1.7661    1.6861    1.7571   36.9000  131.0000 3792.7200 
3822.1012   17.7000 11408.4199  119.9519    1.7827    1.8876    1.7659    2.0022   11.8400    1.6958    1.7511    1.6724    1.7350   36.9000  131.1000 3792.8701 
3822.2536   17.7100 11417.7695  122.8146    1.7655    1.8740    1.7368    1.9748   11.8700    1.6128    1.7047    1.5930    1.6832   36.9000  131.2000 3793.0200 
3822.4060   17.7000 11411.1602  124.3205    1.7305    1.8565    1.7063    1.9481   11.8600    1.5698    1.6689    1.5500    1.6447   37.0000  131.2000 3793.1799 
3822.5584   17.6900 11408.8096  123.2733    1.6954    1.8347    1.6779    1.9241   11.8800    1.5626    1.6515    1.5428    1.6265   37.0000  131.3000 3793.3301 
3822.7108   17.7000 11412.4297  125.4168    1.6762    1.8177    1.6592    1.9031   11.8800    1.5534    1.6343    1.5337    1.6120   37.0000  131.3000 3793.4800 
3822.8632   17.6900 11404.9297  125.8103    1.6762    1.8084    1.6548    1.8914   11.8700    1.5280    1.6162    1.5123    1.5974   37.1000  131.4000 3793.6299 
3823.0156   17.6800 11399.8398  123.0821    1.6854    1.8024    1.6596    1.8844   11.8900    1.5367    1.6224    1.5232    1.6016   37.2000  131.4000 3793.7800 
3823.1680   17.6900 11407.6602  120.8848    1.6965    1.7991    1.6768    1.8846   11.8800    1.5930    1.6495    1.5737    1.6292   37.4000  131.5000 3793.9399 
3823.3204   17.7000 11416.2402  118.8346    1.7112    1.7965    1.6987    1.8865   11.8700    1.6353    1.6684    1.6124    1.6541   37.5000  131.5000 3794.0901 
3823.4728   17.6900 11406.0703  117.4257    1.7188    1.7999    1.7180    1.8962   11.8800    1.6562    1.6791    1.6321    1.6732   37.5000  131.5000 3794.2400 
3823.6252   17.7000 11413.9600  117.4247    1.7312    1.8130    1.7377    1.9182   11.8700    1.6360    1.6780    1.6247    1.6810   37.6000  131.6000 3794.3899 
3823.7776   17.6900 11410.9004  119.9789    1.7415    1.8324    1.7525    1.9407   11.8800    1.6326    1.6832    1.6325    1.6924   37.6000  131.6000 3794.5400 
3823.9300   17.7100 11423.1104  118.0054    1.7653    1.8597    1.7665    1.9605   11.8700    1.6560    1.7057    1.6535    1.7089   37.6000  131.7000 3794.6899 
3824.0824   17.7800 11468.3096  115.8209    1.7892    1.8883    1.7756    1.9866   11.8600    1.7166    1.7444    1.6963    1.7355   37.6000  131.7000 3794.8401 
3824.2348   17.7200 11431.6904  118.7351    1.8119    1.9323    1.7822    2.0173   11.8900    1.7551    1.7717    1.7164    1.7537   37.7000  131.7000 3794.9900 
3824.3872   17.7400 11445.2402  120.9640    1.8266    1.9784    1.7901    2.0588   11.8600    1.7051    1.7667    1.6688    1.7434   37.7000  131.8000 3795.1399 
3824.5396   17.7800 11469.4600  122.3467    1.8598    2.0288    1.8182    2.1182   11.8500    1.6139    1.7534    1.5924    1.7238   37.6000  131.8000 3795.2900 
3824.6920   17.7900 11474.0400  122.7071    1.9192    2.1057    1.8723    2.2055   11.8600    1.5795    1.7720    1.5675    1.7399   37.6000  131.8000 3795.4299 
3824.8444   17.7700 11463.4199  115.9724    1.9883    2.1758    1.9310    2.2852   11.8400    1.6460    1.8410    1.6361    1.8109   37.6000  131.9000 3795.5901 
3824.9968   17.8000 11486.4404  112.2328    2.0947    2.2482    2.0284    2.3798   11.8500    1.8309    1.9604    1.7830    1.9469   37.6000  131.9000 3795.7400 
3825.1492   17.7800 11469.2695  102.5126    2.2144    2.3304    2.1634    2.4919   11.4400    2.1641    2.1813    2.0937    2.1702   37.5000  131.9000 3795.8899 
3825.3016   17.7600 11456.8701  100.9370    2.3777    2.4369    2.3572    2.6368   11.4100    2.3648    2.3594    2.3193    2.3538   37.4000  132.0000 3796.0400 
3825.4540   17.8100 11490.4404  100.3532    2.5539    2.5428    2.5645    2.7826   11.4900    2.5641    2.5376    2.5353    2.5264   37.4000  132.0000 3796.2000 
3825.6064   17.8300 11504.9404   99.6055    2.6900    2.6242    2.7443    2.9023   11.1800    2.7796    2.6926    2.7740    2.7067   37.2000  132.1000 3796.3501 
3825.7588   17.8300 11503.2197  102.7518    2.7885    2.6782    2.8830    3.0058   10.9200    2.9276    2.7913    2.9427    2.8555   37.6000  132.1000 3796.5000 
3825.9112   17.8600 11526.7402  103.3606    2.9454    2.7663    3.0991    3.1745   10.8200    3.1594    2.9478    3.1791    3.0648   37.9000  132.2000 3796.6499 
3826.0636   17.7300 11443.1396  108.9117    3.0487    2.8323    3.2326    3.2904   10.6500    3.2503    3.0465    3.2755    3.1846   37.8000  132.2000 3796.8101 
3826.2160   17.7100 11431.5000  107.7522    3.0736    2.8613    3.2888    3.3224   10.6800    3.2864    3.0864    3.3579    3.2417   37.7000  132.2000 3796.9600 
3826.3684   17.6800 11408.0400  103.1020    3.0574    2.8651    3.2662    3.3042   10.8000    3.3792    3.1136    3.4801    3.2868   37.7000  132.3000 3797.1101 
3826.5208   17.6800 11412.2402   93.4666    2.9714    2.8229    3.1660    3.2464   11.0200    3.4876    3.1169    3.6212    3.3071   37.7000  132.3000 3797.2600 
3826.6732   17.6700 11405.2598   90.5810    2.8326    2.7677    3.0170    3.1543   10.2900    3.5638    3.0732    3.6792    3.2688   37.2000  132.4000 3797.4099 
3826.8256   17.6500 11392.9697   97.6626    2.7208    2.7155    2.8617    3.0488    9.5000    3.4095    2.9571    3.4761    3.1093   36.6000  132.4000 3797.5701 
3826.9780   17.6500 11391.0703  107.2790    2.6743    2.6806    2.7311    2.9554    9.2500    3.0677    2.7999    3.0933    2.8783   36.4000  132.4000 3797.7100 
3827.1304   17.6800 11414.0801  117.8372    2.5490    2.6200    2.5705    2.8400    9.2500    2.6767    2.5807    2.6798    2.6070   36.4000  132.5000 3797.8601 
3827.2828   17.7300 11445.1104  130.7782    2.3783    2.5468    2.4015    2.7350    9.1900    2.3651    2.3867    2.3953    2.3815   36.3000  132.5000 3798.0100 
