~VERSION INFORMATION
 VERS.                 2.0:   CWLS LOG ASCII STANDARD - VERSION 2.0
 WRAP.                  NO:   SINGLE LINE PER DEPTH STEP
 CREA.                 01/06/2017 16:04:44
#CREATED USING IP VERSION 4.1.2012.198 BY MINHC ON 01/06/2017 16:04:44
~WELL INFORMATION
#MNEM.UNIT       DATA                          DESCRIPTION MNEMONIC
#---------      ---------------------------   --------------------------
 STRT    .M         2860.0000                 : START DEPTH
 STOP    .M         4644.2993                 : STOP DEPTH
 STEP    .M         0.1524                    : STEP VALUE
 NULL    .      -999.0000                     : NULL VALUE
 SRVC    .      SCH                           : Service Company/Logging company
 DATE    .      01/06/2017                    : LAS file Creation Date
 WELL    .      05-2-HT-9P                    : Well Name
 COMP    .      Bien Dong Petroleum Operating : Company
 FLD     .      Hai Thach                     : Field
 LOC     .      WHP-HT1                       : Location
 LATI    .      0                             : Latitude/Northing
 LONG    .      0                             : Longitude/Easting
 RWS     .      -999                          : Def_Rw
 WST     .      -999                          : Def_Rwt
 PROV    .      Unused                        : Province
 SRVC    .      SCH                           : Contractor
~CURVE INFORMATION
#MNEM              UNIT       API CODE     Description
#----------  --------------- ----------  --------------
 DEPTH      .M                         : 
 ACTECDM    .ppg                       : 
 APRESM     .psi                       : 
 GR1CFM     .API                       : Gamma Ray
 RACEHM     .ohm.m                     : 
 RACELM     .ohm.m                     : 
 RACESHM    .ohm.m                     : 
 RACESLM    .ohm.m                     : 
 ROP_AVG    .m/hr                      : 
 RPCEHM     .ohm.m                     : 
 RPCELM     .ohm.m                     : 
 RPCESHM    .ohm.m                     : 
 RPCESLM    .ohm.m                     : 
 RPTHM      .min                       : 
 TCDM       .degC                      : 
 TVD        .m                         : True vertical thickness
~A  DEPTH  ACTECDM    APRESM    GR1CFM    RACEHM    RACELM   RACESHM   RACESLM   ROP_AVG    RPCEHM    RPCELM   RPCESHM   RPCESLM    RPTHM      TCDM      TVD    
# ...
4627.5352   17.9800 14014.8203   92.3515 -999.0000 -999.0000 -999.0000 -999.0000   11.3800 -999.0000 -999.0000    3.0976    3.7580   38.3000  155.8000 4582.5098 
4627.6876   17.9900 14017.2305  104.3302 -999.0000 -999.0000 -999.0000 -999.0000   11.3400 -999.0000 -999.0000    3.3188    3.4976   38.2000  155.8000 4582.6499 
4627.8400   17.9800 14013.8604  103.7393 -999.0000 -999.0000 -999.0000 -999.0000   11.3100 -999.0000 -999.0000    3.2289    3.7886   38.2000  155.8000 4582.7998 
4627.9924   17.9900 14019.9697   87.1370 -999.0000 -999.0000 -999.0000 -999.0000   11.3300 -999.0000 -999.0000    3.5486    3.9605   38.3000  155.8000 4582.9502 
4628.1448   17.9700 14005.2803   76.9653 -999.0000 -999.0000 -999.0000 -999.0000   11.3400 -999.0000 -999.0000    3.8729    4.2408   38.3000  155.8000 4583.1001 
4628.2972   17.9800 14013.6699   77.8628 -999.0000 -999.0000 -999.0000 -999.0000   11.3400 -999.0000 -999.0000    4.4595    4.3952   38.6000  155.8000 4583.2500 
4628.4496   17.9800 14013.0400   85.9461 -999.0000 -999.0000 -999.0000 -999.0000   11.3500 -999.0000 -999.0000    4.1826    3.8318   39.6000  155.8000 4583.3999 
4628.6020   17.9900 14023.0195   88.9263 -999.0000 -999.0000 -999.0000 -999.0000   11.3700 -999.0000 -999.0000    3.9232    4.1626   40.4000  155.9000 4583.5498 
4628.7544   17.9600 14002.2305   86.7302 -999.0000 -999.0000 -999.0000 -999.0000   11.3700 -999.0000 -999.0000    3.5178    4.0352   41.0000  155.9000 4583.7100 
4628.9068   17.9800 14016.4697   84.1989 -999.0000 -999.0000 -999.0000 -999.0000   11.3600 -999.0000 -999.0000    3.4936    3.8575   41.3000  155.9000 4583.8599 
4629.0592   17.9700 14008.7100   86.4981 -999.0000 -999.0000 -999.0000 -999.0000   11.3500 -999.0000 -999.0000    3.5844    4.0161   41.3000  155.9000 4584.0098 
4629.2116   17.9700 14008.3301   89.3166 -999.0000 -999.0000 -999.0000 -999.0000   11.4100 -999.0000 -999.0000    3.4608    3.7754   41.2000  155.9000 4584.1602 
4629.3640   17.9600 14000.5703   85.8121 -999.0000 -999.0000 -999.0000 -999.0000   11.5100 -999.0000 -999.0000    3.4159    3.8242   41.3000  155.9000 4584.3101 
4629.5164   17.9500 13996.5098   86.5353 -999.0000 -999.0000 -999.0000 -999.0000   10.6100 -999.0000 -999.0000    3.1629    3.5806   40.9000  155.9000 4584.4600 
4629.6688   17.9700 14012.7197   91.5774 -999.0000 -999.0000 -999.0000 -999.0000    9.9500 -999.0000 -999.0000    3.4711    3.7743   40.4000  155.9000 4584.6099 
4629.8212   17.9800 14018.8203   94.6475 -999.0000 -999.0000 -999.0000 -999.0000    9.7000 -999.0000 -999.0000    3.2208    3.6793   40.3000  155.9000 4584.7500 
4629.9736   17.9700 14011.1904   95.7427 -999.0000 -999.0000 -999.0000 -999.0000   10.0300 -999.0000 -999.0000    3.0184    3.6091   40.9000  155.9000 4584.8999 
4630.1260   17.9800 14017.6104   95.1972 -999.0000 -999.0000 -999.0000 -999.0000   10.3700 -999.0000 -999.0000    3.4503    3.7655   41.3000  155.9000 4585.0498 
4630.2784   17.9600 14003.5596   89.8815 -999.0000 -999.0000 -999.0000 -999.0000   10.7200 -999.0000 -999.0000    3.5677    3.9275   41.7000  155.9000 4585.1899 
4630.4308   17.9800 14017.8701   84.8915 -999.0000 -999.0000 -999.0000 -999.0000   11.0800 -999.0000 -999.0000    3.5594    4.2381   41.8000  155.9000 4585.3398 
4630.5832   17.9800 14019.9004   83.2441 -999.0000 -999.0000 -999.0000 -999.0000   11.2200 -999.0000 -999.0000    3.6798    4.2693   41.8000  155.9000 4585.4902 
4630.7356   17.9800 14017.8701   85.7903 -999.0000 -999.0000 -999.0000 -999.0000   11.5200 -999.0000 -999.0000    3.6690    4.3247   42.2000  155.9000 4585.6299 
4630.8880   17.9800 14022.4502   87.9655 -999.0000 -999.0000 -999.0000 -999.0000   11.7800 -999.0000 -999.0000    3.3638    4.2181   43.0000  155.9000 4585.7798 
4631.0404   17.9800 14019.6504   92.8124 -999.0000 -999.0000 -999.0000 -999.0000   11.7100 -999.0000 -999.0000    3.3881    4.1277   43.5000  155.9000 4585.9302 
4631.1928   17.9600 14009.3203   88.0316 -999.0000 -999.0000 -999.0000 -999.0000   11.7800 -999.0000 -999.0000    3.8885    4.6404   43.8000  155.9000 4586.0801 
4631.3452   17.9600 14005.0898   74.7302 -999.0000 -999.0000 -999.0000 -999.0000   10.0900 -999.0000 -999.0000    4.6061    4.9887   43.0000  155.9000 4586.2300 
4631.4976   17.9600 14005.2803   69.0699 -999.0000 -999.0000 -999.0000 -999.0000    9.5200 -999.0000 -999.0000    5.3702    5.0480   42.7000  155.9000 4586.3799 
4631.6500   17.9600 14011.1904   70.4350 -999.0000 -999.0000 -999.0000 -999.0000    8.4900 -999.0000 -999.0000    3.4254    4.1240   42.0000  155.9000 4586.5298 
4631.8024   17.9600 14012.1504   73.7338 -999.0000 -999.0000 -999.0000 -999.0000    8.0200 -999.0000 -999.0000    3.0288    3.4652   41.7000  155.9000 4586.6802 
4631.9548   17.9700 14020.2803   76.8187 -999.0000 -999.0000 -999.0000 -999.0000    8.4500 -999.0000 -999.0000    4.6652    4.4549   41.7000  155.9000 4586.8398 
4632.1072   17.9700 14017.6797   80.3224 -999.0000 -999.0000 -999.0000 -999.0000    8.9200 -999.0000 -999.0000    3.8999    3.9300   41.7000  155.9000 4586.9902 
4632.2596   17.9800 14025.1201   89.9555 -999.0000 -999.0000 -999.0000 -999.0000    9.5400 -999.0000 -999.0000    2.5809    3.2543   41.8000  156.0000 4587.1401 
4632.4120   17.9700 14021.4902   98.8262 -999.0000 -999.0000 -999.0000 -999.0000   10.1300 -999.0000 -999.0000    2.9945    3.2478   41.8000  156.0000 4587.2900 
4632.5644   17.9700 14016.5303  103.2110 -999.0000 -999.0000 -999.0000 -999.0000   10.6800 -999.0000 -999.0000    2.8800    2.8957   41.8000  156.0000 4587.4399 
4632.7168   17.9800 14030.8398  105.1483 -999.0000 -999.0000 -999.0000 -999.0000   11.3500 -999.0000 -999.0000    2.8362    2.8091   41.8000  156.0000 4587.5898 
4632.8692   17.9800 14027.9102  108.3995 -999.0000 -999.0000 -999.0000 -999.0000   11.7700 -999.0000 -999.0000    2.4172    2.7661   41.8000  156.0000 4587.7402 
4633.0216   17.9900 14032.5498  110.6638 -999.0000 -999.0000 -999.0000 -999.0000   11.6400 -999.0000 -999.0000    2.1115    2.5149   41.7000  156.0000 4587.8799 
4633.1740   18.0000 14041.3896  113.3863 -999.0000 -999.0000 -999.0000 -999.0000   11.6100 -999.0000 -999.0000    2.3134    2.4980   41.7000  156.0000 4588.0298 
4633.3264   18.0000 14046.4805  114.7625 -999.0000 -999.0000 -999.0000 -999.0000   11.6500 -999.0000 -999.0000    2.2636    2.4818   41.6000  156.0000 4588.1802 
4633.4788   18.0100 14052.0098  115.2664 -999.0000 -999.0000 -999.0000 -999.0000   11.6200 -999.0000 -999.0000    2.1091    2.4253   41.6000  156.0000 4588.3198 
4633.6312   18.0100 14052.5801  123.8556 -999.0000 -999.0000 -999.0000 -999.0000   11.6600 -999.0000 -999.0000    2.1584    2.5905   42.2000  156.1000 4588.4702 
4633.7836   18.0000 14047.2402  121.4644 -999.0000 -999.0000 -999.0000 -999.0000   11.7300 -999.0000 -999.0000    2.4054    2.8493   42.6000  156.1000 4588.6201 
4633.9360   18.0100 14053.9199  114.4137 -999.0000 -999.0000 -999.0000 -999.0000   11.7800 -999.0000 -999.0000    2.7157    3.1588   42.6000  156.1000 4588.7598 
4634.0884   18.0100 14055.2500  100.1923 -999.0000 -999.0000 -999.0000 -999.0000   11.8300 -999.0000 -999.0000    3.1441    3.3521   42.6000  156.1000 4588.9102 
4634.2408   18.0100 14057.1602   93.1210 -999.0000 -999.0000 -999.0000 -999.0000   11.8800 -999.0000 -999.0000    4.1934    3.7814   43.2000  156.1000 4589.0601 
4634.3932   18.0100 14053.7305   89.0533 -999.0000 -999.0000 -999.0000 -999.0000   11.9500 -999.0000 -999.0000    4.6717    4.2393   43.4000  156.1000 4589.2002 
4634.5456   18.0100 14053.1504   89.3161 -999.0000 -999.0000 -999.0000 -999.0000   11.9800 -999.0000 -999.0000    4.6352    3.9144   43.4000  156.1000 4589.3599 
4634.6980   18.0200 14060.5898   86.2151 -999.0000 -999.0000 -999.0000 -999.0000   11.5600 -999.0000 -999.0000    5.2740    4.2829   43.3000  156.2000 4589.5098 
4634.8504   18.0200 14063.2598   75.9046 -999.0000 -999.0000 -999.0000 -999.0000   11.5800 -999.0000 -999.0000    5.5041    4.4007   43.2000  156.2000 4589.6602 
4635.0028   18.0100 14057.4102   74.6430 -999.0000 -999.0000 -999.0000 -999.0000   11.6500 -999.0000 -999.0000    4.9292    4.2224   43.2000  156.2000 4589.8101 
