~VERSION INFORMATION
 VERS.                 2.0:   CWLS LOG ASCII STANDARD - VERSION 2.0
 WRAP.                  NO:   SINGLE LINE PER DEPTH STEP
 CREA.                 01/06/2017 16:04:44
#CREATED USING IP VERSION 4.1.2012.198 BY MINHC ON 01/06/2017 16:04:44
~WELL INFORMATION
#MNEM.UNIT       DATA                          DESCRIPTION MNEMONIC
#---------      ---------------------------   --------------------------
 STRT    .M         2860.0000                 : START DEPTH
 STOP    .M         4644.2993                 : STOP DEPTH
 STEP    .M         0.1524                    : STEP VALUE
 NULL    .      -999.0000                     : NULL VALUE
 SRVC    .      SCH                           : Service Company/Logging company
 DATE    .      01/06/2017                    : LAS file Creation Date
 WELL    .      05-2-HT-9P                    : Well Name
 COMP    .      Bien Dong Petroleum Operating : Company
 FLD     .      Hai Thach                     : Field
 LOC     .      WHP-HT1                       : Location
 LATI    .      0                             : Latitude/Northing
 LONG    .      0                             : Longitude/Easting
 RWS     .      -999                          : Def_Rw
 WST     .      -999                          : Def_Rwt
 PROV    .      Unused                        : Province
 SRVC    .      SCH                           : Contractor
~CURVE INFORMATION
#MNEM              UNIT       API CODE     Description
#----------  --------------- ----------  --------------
 DEPTH      .M                         : 
 ACTECDM    .ppg                       : 
 APRESM     .psi                       : 
 GR1CFM     .API                       : Gamma Ray
 RACEHM     .ohm.m                     : 
 RACELM     .ohm.m                     : 
 RACESHM    .ohm.m                     : 
 RACESLM    .ohm.m                     : 
 ROP_AVG    .m/hr                      : 
 RPCEHM     .ohm.m                     : 
 RPCELM     .ohm.m                     : 
 RPCESHM    .ohm.m                     : 
 RPCESLM    .ohm.m                     : 
 RPTHM      .min                       : 
 TCDM       .degC                      : 
 TVD        .m                         : True vertical thickness
~A  DEPTH  ACTECDM    APRESM    GR1CFM    RACEHM    RACELM   RACESHM   RACESLM   ROP_AVG    RPCEHM    RPCELM   RPCESHM   RPCESLM    RPTHM      TCDM      TVD    
# ...
4429.4152   17.8500 13318.2500  116.7264 -999.0000 -999.0000 -999.0000 -999.0000    8.6900 -999.0000 -999.0000    3.6395    3.5131   42.6000  151.7000 4388.3599 
4429.5676   17.8500 13322.8301  111.5070 -999.0000 -999.0000 -999.0000 -999.0000    9.1700 -999.0000 -999.0000    3.7216    3.6860   42.6000  151.7000 4388.5098 
4429.7200   17.8400 13315.0703  110.7582 -999.0000 -999.0000 -999.0000 -999.0000    9.7000 -999.0000 -999.0000    3.7311    3.6310   42.7000  151.8000 4388.6602 
4429.8724   17.8400 13315.2002  111.4951 -999.0000 -999.0000 -999.0000 -999.0000   10.1500 -999.0000 -999.0000    3.6837    3.8494   42.9000  151.8000 4388.8101 
4430.0248   17.8400 13317.2402  110.1987 -999.0000 -999.0000 -999.0000 -999.0000   10.4000 -999.0000 -999.0000    4.0837    4.0628   42.9000  151.9000 4388.9502 
4430.1772   17.8300 13307.4404  107.9115 -999.0000 -999.0000 -999.0000 -999.0000   10.2700 -999.0000 -999.0000    4.2326    4.1724   42.8000  152.0000 4389.1001 
4430.3296   17.8300 13303.6299  107.9719 -999.0000 -999.0000 -999.0000 -999.0000   10.1100 -999.0000 -999.0000    4.2075    4.1466   42.7000  152.0000 4389.2500 
4430.4820   17.8100 13290.0195  106.6527 -999.0000 -999.0000 -999.0000 -999.0000    9.5600 -999.0000 -999.0000    4.2297    4.1761   42.2000  152.1000 4389.3999 
4430.6344   17.8200 13297.9102  110.1596 -999.0000 -999.0000 -999.0000 -999.0000    8.7200 -999.0000 -999.0000    3.8358    4.2039   41.6000  152.2000 4389.5498 
4430.7868   17.8100 13292.5703  109.3421 -999.0000 -999.0000 -999.0000 -999.0000    8.6800 -999.0000 -999.0000    4.2820    4.2358   41.7000  152.2000 4389.6899 
4430.9392   17.8100 13294.9805  106.5226 -999.0000 -999.0000 -999.0000 -999.0000    8.6400 -999.0000 -999.0000    4.3784    4.1439   41.6000  152.2000 4389.8398 
4431.0916   17.8000 13286.7197  108.1664 -999.0000 -999.0000 -999.0000 -999.0000    8.5100 -999.0000 -999.0000    4.3992    4.1317   41.3000  152.3000 4389.9902 
4431.2440   17.7800 13272.2900  109.7241 -999.0000 -999.0000 -999.0000 -999.0000    7.9600 -999.0000 -999.0000    4.3226    4.4224   40.5000  152.3000 4390.1401 
4431.3964   17.7700 13268.2803  109.5293 -999.0000 -999.0000 -999.0000 -999.0000    7.8900 -999.0000 -999.0000    4.2029    4.3202   40.2000  152.4000 4390.2900 
4431.5488   17.7900 13277.1504  110.9648 -999.0000 -999.0000 -999.0000 -999.0000    7.5200 -999.0000 -999.0000    4.3997    4.1226   39.7000  152.5000 4390.4502 
4431.7012   17.7700 13266.3701  108.9375 -999.0000 -999.0000 -999.0000 -999.0000    7.7200 -999.0000 -999.0000    4.3692    4.1837   39.7000  152.5000 4390.6001 
4431.8536   17.7700 13268.7900  107.8226 -999.0000 -999.0000 -999.0000 -999.0000    7.8100 -999.0000 -999.0000    4.6437    4.3902   39.8000  152.5000 4390.7500 
4432.0060   17.7700 13265.9902  108.5075 -999.0000 -999.0000 -999.0000 -999.0000    8.2200 -999.0000 -999.0000    4.6812    4.0913   40.1000  152.5000 4390.8999 
4432.1584   17.7700 13267.3896  106.5795 -999.0000 -999.0000 -999.0000 -999.0000    8.4900 -999.0000 -999.0000    4.6631    4.1252   40.0000  152.6000 4391.0601 
4432.3108   17.7600 13260.4199  109.5909 -999.0000 -999.0000 -999.0000 -999.0000    8.3600 -999.0000 -999.0000    4.4006    4.2943   39.9000  152.6000 4391.2100 
4432.4632   17.7500 13257.0303  111.8351 -999.0000 -999.0000 -999.0000 -999.0000    8.1200 -999.0000 -999.0000    4.1512    4.1292   39.6000  152.6000 4391.3599 
4432.6156   17.7700 13270.8203  116.7691 -999.0000 -999.0000 -999.0000 -999.0000    8.5600 -999.0000 -999.0000    3.8959    3.9199   39.8000  152.7000 4391.5098 
4432.7680   17.7900 13285.2598  114.8160 -999.0000 -999.0000 -999.0000 -999.0000    9.0900 -999.0000 -999.0000    3.7804    3.8871   40.0000  152.7000 4391.6602 
4432.9204   17.7800 13278.2002  116.6782 -999.0000 -999.0000 -999.0000 -999.0000    9.5700 -999.0000 -999.0000    3.8485    3.9010   40.6000  152.7000 4391.8101 
4433.0728   17.7600 13260.1396  113.8903 -999.0000 -999.0000 -999.0000 -999.0000    9.9600 -999.0000 -999.0000    3.7137    3.6679   41.3000  152.7000 4391.9600 
4433.2252   17.7700 13273.4297  112.6603 -999.0000 -999.0000 -999.0000 -999.0000   10.3200 -999.0000 -999.0000    3.7089    3.4358   41.8000  152.8000 4392.1099 
4433.3776   17.7600 13260.4004  112.4026 -999.0000 -999.0000 -999.0000 -999.0000   10.6000 -999.0000 -999.0000    3.6775    3.3666   42.3000  152.8000 4392.2598 
4433.5300   17.7700 13274.5098  114.5682 -999.0000 -999.0000 -999.0000 -999.0000   10.2500 -999.0000 -999.0000    3.5835    3.4128   42.0000  152.8000 4392.3999 
4433.6824   17.7600 13262.3701  114.0209 -999.0000 -999.0000 -999.0000 -999.0000   10.5400 -999.0000 -999.0000    3.5817    3.2881   42.0000  152.8000 4392.5498 
4433.8348   17.7600 13265.9902  117.7662 -999.0000 -999.0000 -999.0000 -999.0000   10.8600 -999.0000 -999.0000    3.4568    3.2225   42.0000  152.8000 4392.7002 
4433.9872   17.7800 13280.4902  117.7862 -999.0000 -999.0000 -999.0000 -999.0000   11.1200 -999.0000 -999.0000    3.1050    3.2552   42.0000  152.9000 4392.8501 
4434.1396   17.7700 13270.4697  118.6569 -999.0000 -999.0000 -999.0000 -999.0000   11.2300 -999.0000 -999.0000    3.2201    3.3225   41.8000  152.9000 4393.0000 
4434.2920   17.7500 13258.6201  118.0300 -999.0000 -999.0000 -999.0000 -999.0000   10.1200 -999.0000 -999.0000    3.3989    3.3528   41.1000  152.9000 4393.1401 
4434.4444   17.7700 13271.7100  113.2260 -999.0000 -999.0000 -999.0000 -999.0000   10.0600 -999.0000 -999.0000    3.6550    3.3342   41.1000  152.9000 4393.2998 
4434.5968   17.7700 13276.8604  110.3398 -999.0000 -999.0000 -999.0000 -999.0000   10.0600 -999.0000 -999.0000    3.5336    3.3008   41.1000  152.9000 4393.4502 
4434.7492   17.7700 13276.0400  107.2970 -999.0000 -999.0000 -999.0000 -999.0000   10.1000 -999.0000 -999.0000    3.8720    3.5199   41.1000  153.0000 4393.6001 
4434.9016   17.7400 13254.7402  108.6895 -999.0000 -999.0000 -999.0000 -999.0000   10.2000 -999.0000 -999.0000    3.8060    3.4963   41.1000  153.0000 4393.7500 
4435.0540   17.7700 13273.0498  107.6638 -999.0000 -999.0000 -999.0000 -999.0000   10.2700 -999.0000 -999.0000    3.6531    3.3824   41.0000  153.0000 4393.9102 
4435.2064   17.7500 13261.2900  109.3278 -999.0000 -999.0000 -999.0000 -999.0000   10.3700 -999.0000 -999.0000    3.7569    3.3126   41.1000  153.0000 4394.0601 
4435.3588   17.7600 13269.0400  113.7439 -999.0000 -999.0000 -999.0000 -999.0000   10.3100 -999.0000 -999.0000    3.6188    3.3793   41.5000  153.0000 4394.2100 
4435.5112   17.7700 13280.2305  110.9799 -999.0000 -999.0000 -999.0000 -999.0000   10.2500 -999.0000 -999.0000    3.5547    3.1757   41.4000  153.0000 4394.3599 
4435.6636   17.7700 13275.3398  110.9375 -999.0000 -999.0000 -999.0000 -999.0000   10.2000 -999.0000 -999.0000    3.6873    3.3462   41.2000  153.1000 4394.5098 
4435.8160   17.7400 13253.5898  110.1512 -999.0000 -999.0000 -999.0000 -999.0000   10.3900 -999.0000 -999.0000    3.5670    3.4810   41.5000  153.1000 4394.6699 
4435.9684   17.7400 13254.0400  109.3878 -999.0000 -999.0000 -999.0000 -999.0000    9.8400 -999.0000 -999.0000    3.4125    3.2487   41.3000  153.1000 4394.8198 
4436.1208   17.7400 13260.0098  109.8332 -999.0000 -999.0000 -999.0000 -999.0000    9.7300 -999.0000 -999.0000    3.3735    3.5055   41.5000  153.1000 4394.9702 
4436.2732   17.7500 13264.8496  110.9050 -999.0000 -999.0000 -999.0000 -999.0000    9.8800 -999.0000 -999.0000    3.4635    3.2114   41.8000  153.1000 4395.1099 
4436.4256   17.7500 13268.4697  110.3170 -999.0000 -999.0000 -999.0000 -999.0000   10.0300 -999.0000 -999.0000    3.6306    3.5719   41.9000  153.1000 4395.2598 
4436.5780   17.7400 13260.0098  111.8160 -999.0000 -999.0000 -999.0000 -999.0000   10.1200 -999.0000 -999.0000    3.4580    3.1931   41.9000  153.1000 4395.4102 
4436.7304   17.7500 13265.0996  110.1231 -999.0000 -999.0000 -999.0000 -999.0000    9.8300 -999.0000 -999.0000    3.4710    3.2078   41.6000  153.2000 4395.5601 
4436.8828   17.7500 13268.4102  113.2018 -999.0000 -999.0000 -999.0000 -999.0000    9.9900 -999.0000 -999.0000    3.6622    3.3437   41.6000  153.2000 4395.7100 
