~VERSION INFORMATION
 VERS.                 2.0:   CWLS LOG ASCII STANDARD - VERSION 2.0
 WRAP.                  NO:   SINGLE LINE PER DEPTH STEP
 CREA.                 01/06/2017 16:04:44
#CREATED USING IP VERSION 4.1.2012.198 BY MINHC ON 01/06/2017 16:04:44
~WELL INFORMATION
#MNEM.UNIT       DATA                          DESCRIPTION MNEMONIC
#---------      ---------------------------   --------------------------
 STRT    .M         2860.0000                 : START DEPTH
 STOP    .M         4644.2993                 : STOP DEPTH
 STEP    .M         0.1524                    : STEP VALUE
 NULL    .      -999.0000                     : NULL VALUE
 SRVC    .      SCH                           : Service Company/Logging company
 DATE    .      01/06/2017                    : LAS file Creation Date
 WELL    .      05-2-HT-9P                    : Well Name
 COMP    .      Bien Dong Petroleum Operating : Company
 FLD     .      Hai Thach                     : Field
 LOC     .      WHP-HT1                       : Location
 LATI    .      0                             : Latitude/Northing
 LONG    .      0                             : Longitude/Easting
 RWS     .      -999                          : Def_Rw
 WST     .      -999                          : Def_Rwt
 PROV    .      Unused                        : Province
 SRVC    .      SCH                           : Contractor
~CURVE INFORMATION
#MNEM              UNIT       API CODE     Description
#----------  --------------- ----------  --------------
 DEPTH      .M                         : 
 ACTECDM    .ppg                       : 
 APRESM     .psi                       : 
 GR1CFM     .API                       : Gamma Ray
 RACEHM     .ohm.m                     : 
 RACELM     .ohm.m                     : 
 RACESHM    .ohm.m                     : 
 RACESLM    .ohm.m                     : 
 ROP_AVG    .m/hr                      : 
 RPCEHM     .ohm.m                     : 
 RPCELM     .ohm.m                     : 
 RPCESHM    .ohm.m                     : 
 RPCESLM    .ohm.m                     : 
 RPTHM      .min                       : 
 TCDM       .degC                      : 
 TVD        .m                         : True vertical thickness
~A  DEPTH  ACTECDM    APRESM    GR1CFM    RACEHM    RACELM   RACESHM   RACESLM   ROP_AVG    RPCEHM    RPCELM   RPCESHM   RPCESLM    RPTHM      TCDM      TVD    
# ...
4223.6752   17.5700 12505.4697   89.4837    3.9708    4.2498    4.1361    4.8868   11.4200    4.5662    4.1797    4.5856    4.2479   36.4000  145.4000 4186.7700 
4223.8276   17.5700 12504.9600   89.1512    4.0701    4.3267    4.2524    4.9804   11.6100    4.6270    4.2553    4.6293    4.3080   36.4000  145.4000 4186.9199 
4223.9800   17.5600 12501.7197   89.5363    4.1628    4.3950    4.3447    5.1132   11.6400    4.6185    4.3012    4.5865    4.3354   36.4000  145.4000 4187.0601 
4224.1324   17.5500 12494.8496   90.9856    4.2517    4.4572    4.4096    5.2051   11.6700    4.5092    4.2936    4.4611    4.3122   36.4000  145.5000 4187.2100 
4224.2848   17.5500 12492.7500   94.1786    4.3014    4.5177    4.4393    5.2825   11.8000    4.4040    4.2861    4.3250    4.2723   36.4000  145.5000 4187.3599 
4224.4372   17.5400 12487.9805  100.0171    4.3643    4.5546    4.4692    5.3259   11.8400    4.2222    4.2158    4.1485    4.1893   36.3000  145.5000 4187.5098 
4224.5896   17.5500 12493.9004   99.2435    4.3695    4.5687    4.4761    5.4035   11.8700    4.1673    4.1912    4.0675    4.1483   36.3000  145.5000 4187.6499 
4224.7420   17.5400 12488.1699   96.3011    4.3168    4.5749    4.4230    5.3707   11.9300    4.2247    4.2167    4.1220    4.1694   36.3000  145.5000 4187.7998 
4224.8944   17.5400 12486.6504   94.9668    4.2879    4.5798    4.3851    5.3209   11.9100    4.2491    4.2158    4.1579    4.1803   36.2000  145.5000 4187.9502 
4225.0468   17.5500 12496.1904   93.9515    4.2607    4.5461    4.3418    5.2928   11.9200    4.2557    4.2025    4.2081    4.1786   36.3000  145.6000 4188.1001 
4225.1992   17.5700 12510.5498   91.3801    4.1775    4.5146    4.2706    5.2306   11.9200    4.3610    4.2167    4.3249    4.2126   36.6000  145.6000 4188.2500 
4225.3516   17.5500 12499.6201   88.3067    4.1092    4.4766    4.2125    5.1488   11.9000    4.3595    4.1870    4.3404    4.1885   37.0000  145.6000 4188.3999 
4225.5040   17.5400 12494.0898   87.9927    4.0524    4.4461    4.1549    5.0514   11.9400    4.2848    4.1152    4.2916    4.1383   37.3000  145.6000 4188.5601 
4225.6564   17.5300 12487.0303   88.5069    3.9783    4.3976    4.0879    5.0041   11.9400    4.2362    4.0525    4.2515    4.0748   37.3000  145.6000 4188.7100 
4225.8088   17.5300 12486.0801   96.4690    3.9078    4.3502    4.0031    4.9161   11.9300    4.1617    3.9772    4.1497    3.9766   37.3000  145.6000 4188.8599 
4225.9612   17.5500 12497.1396   99.8071    3.8408    4.3332    3.9114    4.8521   11.9400    4.0424    3.8850    3.9973    3.8670   37.2000  145.6000 4189.0098 
4226.1136   17.5400 12494.6602   99.8241    3.7769    4.2955    3.8249    4.7599   11.9400    3.8546    3.7660    3.7904    3.7314   37.2000  145.7000 4189.1699 
4226.2660   17.5400 12490.9697  102.9605    3.7429    4.2884    3.7564    4.7493   11.9800    3.5624    3.6032    3.5142    3.5788   37.2000  145.7000 4189.3198 
4226.4184   17.5400 12495.9902  107.8501    3.6993    4.2743    3.6826    4.7402   12.0000    3.3949    3.5195    3.3390    3.4672   37.2000  145.7000 4189.4600 
4226.5708   17.5300 12487.5996  107.0872    3.6505    4.2700    3.6219    4.6839   11.9500    3.3225    3.4733    3.2519    3.3955   37.1000  145.7000 4189.6099 
4226.7232   17.5500 12502.0303  106.6384    3.6035    4.2742    3.5687    4.6381   11.9400    3.3111    3.4588    3.2379    3.3695   37.1000  145.7000 4189.7598 
4226.8756   17.5400 12497.3301  107.0617    3.5904    4.2729    3.5537    4.6701   11.9200    3.2928    3.4507    3.2250    3.3553   37.1000  145.7000 4189.8999 
4227.0280   17.5400 12497.1396  107.3452    3.6151    4.2947    3.5656    4.6786   11.9100    3.2678    3.4419    3.2079    3.3548   37.0000  145.7000 4190.0498 
4227.1804   17.5400 12499.2402  103.2579    3.6348    4.3229    3.5918    4.7020   11.8900    3.3287    3.4851    3.2746    3.4057   37.0000  145.7000 4190.2002 
4227.3328   17.5600 12509.9199  101.4030    3.6775    4.3592    3.6512    4.7494   11.8500    3.3936    3.5402    3.3696    3.4773   37.0000  145.8000 4190.3398 
4227.4852   17.5800 12525.3701   99.6159    3.7419    4.4022    3.7321    4.8091   11.7800    3.5309    3.6437    3.5128    3.5745   36.9000  145.8000 4190.4902 
4227.6376   17.5800 12525.0498  102.6849    3.8049    4.4474    3.8138    4.8837   11.7100    3.7532    3.7803    3.6920    3.6864   36.9000  145.8000 4190.6401 
4227.7900   17.5500 12506.6104  103.0079    3.9364    4.5169    3.9470    5.0256   11.1700    3.8761    3.8718    3.8165    3.8041   36.8000  145.8000 4190.7900 
4227.9424   17.5300 12488.6797  104.2687    4.0637    4.6031    4.0842    5.1292   10.9000    4.0471    3.9893    3.9851    3.9439   36.8000  145.8000 4190.9302 
4228.0948   17.5100 12476.5996   98.0682    4.1652    4.6738    4.2042    5.3198   10.5000    4.2582    4.1505    4.1384    4.0872   36.7000  145.8000 4191.0801 
4228.2472   17.5000 12471.7695   99.2955    4.3140    4.7786    4.3645    5.5035    9.8900    4.3568    4.2692    4.2344    4.2061   36.4000  145.8000 4191.2300 
4228.3996   17.4800 12456.8896   98.5174    4.4753    4.9316    4.5541    5.7036    9.7100    4.4163    4.3805    4.3023    4.3164   36.1000  145.8000 4191.3799 
4228.5520   17.4900 12467.5703   98.1959    4.6212    5.0135    4.7124    5.8796    9.5100    4.4955    4.4859    4.3995    4.4233   35.9000  145.9000 4191.5400 
4228.7044   17.4900 12465.7900   95.4495    4.7606    5.1238    4.8711    6.0187    9.3900    4.6601    4.6239    4.5721    4.5507   35.9000  145.9000 4191.6899 
4228.8568   17.4900 12464.3301   93.6701    4.8627    5.2084    4.9986    6.1970    9.4600    4.9237    4.7964    4.8407    4.7439   48.8000  145.9000 4191.8398 
4229.0092   17.5000 12470.2500   89.6587    4.9210    5.2862    5.0655    6.2448    9.6600    5.1957    4.9726    5.1539    4.9554  136.1000  145.9000 4191.9902 
4229.1616   17.5200 12486.4600   83.0626    4.9525    5.3153    5.1001    6.3308    9.8900    5.3205    5.0495    5.2959    5.0515  136.0000  145.9000 4192.1499 
4229.3140   17.5200 12486.2695   78.2426    5.0175    5.4010    5.1773    6.4443   10.1600    5.5183    5.1835    5.5294    5.2231  136.0000  145.9000 4192.2998 
4229.4664   17.5100 12482.6396   75.0261    5.0628    5.5095    5.2621    6.6181   10.4600    5.6322    5.2884    5.7232    5.3420  136.0000  145.9000 4192.4502 
4229.6188   17.5200 12485.5000   73.6513    5.0981    5.5848    5.3110    6.6564   10.8000    5.6556    5.3233    5.7822    5.3928  136.0000  145.9000 4192.6001 
4229.7712   17.5100 12484.9297   74.0167    5.1329    5.6611    5.3493    6.7921   11.0800    5.6447    5.3371    5.7842    5.4129  136.0000  145.9000 4192.7402 
4229.9236   17.5100 12484.7402   78.6708    5.1564    5.7427    5.3697    6.8845   11.2100    5.5855    5.3225    5.7047    5.3828  136.0000  145.9000 4192.8901 
4230.0760   17.5100 12481.6904   82.5022    5.1637    5.7985    5.3638    6.9997   11.2800    5.4932    5.2863    5.5740    5.3187  136.0000  145.9000 4193.0400 
4230.2284   17.4900 12470.2500   82.7246    5.1501    5.8718    5.3277    7.0032   11.3000    5.3752    5.2455    5.4305    5.2452  136.1000  145.9000 4193.1802 
4230.3808   17.5100 12482.9600   83.7236    5.1304    5.9468    5.2714    7.0997   11.3600    5.2451    5.1881    5.3022    5.1556  136.2000  145.9000 4193.3301 
4230.5332   17.5100 12481.5000   84.0890    5.1066    6.0011    5.2026    7.1522   11.3800    5.1651    5.1584    5.1898    5.0844  136.4000  145.9000 4193.4800 
4230.6856   17.5100 12483.4102   84.6843    5.0851    6.0794    5.1492    7.1420   11.5500    5.1117    5.1316    5.0969    5.0238  136.8000  145.9000 4193.6201 
4230.8380   17.5000 12480.3496   88.4109    5.0757    6.1272    5.0948    7.2205   11.7600    4.9942    5.0805    4.9355    4.9504  137.1000  146.0000 4193.7700 
4230.9904   17.5100 12482.8301   92.2500    5.0914    6.1903    5.0808    7.2839   11.8200    4.8647    5.0291    4.7837    4.8689  137.5000  146.0000 4193.9199 
4231.1428   17.5200 12495.7998   97.5287    5.1340    6.2604    5.1009    7.3987   11.9400    4.7018    4.9638    4.6300    4.7904  137.8000  146.0000 4194.0698 
