~VERSION INFORMATION
 VERS.                 2.0:   CWLS LOG ASCII STANDARD - VERSION 2.0
 WRAP.                  NO:   SINGLE LINE PER DEPTH STEP
 CREA.                 01/06/2017 16:04:44
#CREATED USING IP VERSION 4.1.2012.198 BY MINHC ON 01/06/2017 16:04:44
~WELL INFORMATION
#MNEM.UNIT       DATA                          DESCRIPTION MNEMONIC
#---------      ---------------------------   --------------------------
 STRT    .M         2860.0000                 : START DEPTH
 STOP    .M         4644.2993                 : STOP DEPTH
 STEP    .M         0.1524                    : STEP VALUE
 NULL    .      -999.0000                     : NULL VALUE
 SRVC    .      SCH                           : Service Company/Logging company
 DATE    .      01/06/2017                    : LAS file Creation Date
 WELL    .      05-2-HT-9P                    : Well Name
 COMP    .      Bien Dong Petroleum Operating : Company
 FLD     .      Hai Thach                     : Field
 LOC     .      WHP-HT1                       : Location
 LATI    .      0                             : Latitude/Northing
 LONG    .      0                             : Longitude/Easting
 RWS     .      -999                          : Def_Rw
 WST     .      -999                          : Def_Rwt
 PROV    .      Unused                        : Province
 SRVC    .      SCH                           : Contractor
~CURVE INFORMATION
#MNEM              UNIT       API CODE     Description
#----------  --------------- ----------  --------------
 DEPTH      .M                         : 
 ACTECDM    .ppg                       : 
 APRESM     .psi                       : 
 GR1CFM     .API                       : Gamma Ray
 RACEHM     .ohm.m                     : 
 RACELM     .ohm.m                     : 
 RACESHM    .ohm.m                     : 
 RACESLM    .ohm.m                     : 
 ROP_AVG    .m/hr                      : 
 RPCEHM     .ohm.m                     : 
 RPCELM     .ohm.m                     : 
 RPCESHM    .ohm.m                     : 
 RPCESLM    .ohm.m                     : 
 RPTHM      .min                       : 
 TCDM       .degC                      : 
 TVD        .m                         : True vertical thickness
~A  DEPTH  ACTECDM    APRESM    GR1CFM    RACEHM    RACELM   RACESHM   RACESLM   ROP_AVG    RPCEHM    RPCELM   RPCESHM   RPCESLM    RPTHM      TCDM      TVD    
# ...
4155.0952   17.6600 12369.5400  120.1336    2.7079    2.8118    2.7431    3.0751   12.0700    2.6525    2.6448    2.6180    2.6487  120.2000  144.0000 4119.6802 
4155.2476   17.6600 12371.8301  115.1434    2.7296    2.8264    2.7612    3.0950   12.1600    2.6730    2.6644    2.6406    2.6716  120.3000  144.0000 4119.8301 
4155.4000   17.6500 12362.0996  110.3397    2.7563    2.8311    2.7829    3.1089   12.2000    2.6624    2.6665    2.6434    2.6804  120.3000  144.0000 4119.9800 
4155.5524   17.6500 12364.9600  109.4710    2.7656    2.8330    2.8000    3.1101   12.3000    2.6959    2.6857    2.6735    2.7035  120.3000  144.0000 4120.1401 
4155.7048   17.6400 12360.1904  107.6867    2.7587    2.8368    2.8062    3.1135   12.3600    2.7746    2.7252    2.7434    2.7439  120.4000  144.0000 4120.2900 
4155.8572   17.6600 12373.4805  107.7121    2.7639    2.8332    2.8171    3.1208   12.3800    2.7956    2.7326    2.7582    2.7506  120.4000  144.0000 4120.4399 
4156.0096   17.6400 12357.5195  108.9912    2.7882    2.8398    2.8338    3.1226   12.4000    2.7377    2.7091    2.7166    2.7322  120.4000  144.0000 4120.5898 
4156.1620   17.6800 12382.8896  110.4013    2.7828    2.8327    2.8226    3.1160   12.3900    2.7226    2.7027    2.7088    2.7243  120.5000  144.1000 4120.7402 
4156.3144   17.6500 12368.3896  112.1021    2.7742    2.8235    2.8098    3.1063   12.4100    2.7085    2.6937    2.6901    2.7129  120.5000  144.1000 4120.8901 
4156.4668   17.6500 12367.7598  108.7013    2.7365    2.8067    2.7760    3.0774   12.4100    2.7152    2.6856    2.6818    2.6938  120.6000  144.1000 4121.0400 
4156.6192   17.6500 12365.1504  110.4888    2.7155    2.7883    2.7477    3.0605   12.4100    2.6690    2.6571    2.6440    2.6621  120.6000  144.1000 4121.1802 
4156.7716   17.6600 12375.6396  112.0803    2.6920    2.7691    2.7151    3.0232   12.4000    2.6148    2.6173    2.5908    2.6197  120.6000  144.1000 4121.3301 
4156.9240   17.6400 12362.2900  114.2469    2.6697    2.7570    2.6808    2.9975   12.4600    2.5475    2.5715    2.5236    2.5724  120.7000  144.1000 4121.4800 
4157.0764   17.6400 12361.1504  112.5716    2.6485    2.7345    2.6532    2.9749   12.4100    2.5045    2.5418    2.4787    2.5395  120.7000  144.1000 4121.6201 
4157.2288   17.6500 12365.4697  114.5239    2.6183    2.7105    2.6217    2.9409   12.4100    2.4769    2.5144    2.4536    2.5154  120.7000  144.1000 4121.7700 
4157.3812   17.6500 12370.2998  115.5599    2.5839    2.6872    2.5880    2.9141   12.3800    2.4734    2.5001    2.4500    2.5011  120.8000  144.1000 4121.9199 
4157.5336   17.6500 12371.8301  113.9367    2.5672    2.6691    2.5676    2.8941   12.4000    2.4614    2.4849    2.4311    2.4831  120.8000  144.1000 4122.0601 
4157.6860   17.6700 12384.0303  117.2026    2.5450    2.6500    2.5448    2.8549   12.4000    2.4450    2.4659    2.4108    2.4598  120.8000  144.1000 4122.2100 
4157.8384   17.6400 12365.7197  115.0869    2.5248    2.6274    2.5289    2.8448   12.4300    2.4151    2.4412    2.3894    2.4369  120.9000  144.1000 4122.3599 
4157.9908   17.6400 12366.4902  116.6007    2.5063    2.6088    2.5127    2.8230   12.3900    2.3863    2.4187    2.3692    2.4202  120.9000  144.2000 4122.5000 
4158.1432   17.6600 12378.8799  119.5032    2.4941    2.6000    2.4991    2.8030   12.4200    2.3474    2.3929    2.3370    2.3945  120.9000  144.2000 4122.6602 
4158.2956   17.6500 12369.5400  121.1497    2.4841    2.5825    2.4906    2.7856   12.3700    2.3364    2.3818    2.3228    2.3859  121.0000  144.2000 4122.8101 
4158.4480   17.6500 12370.8701  118.1669    2.4626    2.5637    2.4760    2.7764   12.3900    2.3941    2.4018    2.3639    2.3993  121.6000  144.2000 4122.9600 
4158.6004   17.6600 12380.5996  117.6062    2.4656    2.5575    2.4751    2.7644   12.4000    2.3855    2.3934    2.3621    2.3965  122.1000  144.2000 4123.1099 
4158.7528   17.6500 12376.1504  113.3983    2.4594    2.5476    2.4661    2.7484   12.3900    2.3750    2.3857    2.3604    2.3929  122.2000  144.2000 4123.2700 
4158.9052   17.6800 12391.8496  111.1122    2.4519    2.5393    2.4622    2.7492   12.4000    2.3695    2.3807    2.3532    2.3872  122.2000  144.2000 4123.4199 
4159.0576   17.6700 12391.0898  114.7667    2.4459    2.5313    2.4624    2.7399   12.4100    2.3712    2.3780    2.3539    2.3865  122.3000  144.2000 4123.5698 
4159.2100   17.6700 12389.3701  115.5230    2.4452    2.5273    2.4601    2.7295   12.3700    2.3699    2.3752    2.3526    2.3853  122.3000  144.2000 4123.7202 
4159.3624   17.6900 12400.3096  119.4640    2.4433    2.5193    2.4577    2.7284   12.3700    2.3622    2.3708    2.3418    2.3785  122.4000  144.2000 4123.8701 
4159.5148   17.6700 12391.6602  120.4307    2.4459    2.5123    2.4617    2.7246   12.4200    2.3405    2.3590    2.3244    2.3685  122.7000  144.2000 4124.0200 
4159.6672   17.6700 12386.0703  116.6912    2.4357    2.5049    2.4482    2.7130   11.6800    2.3512    2.3629    2.3346    2.3697  122.8000  144.2000 4124.1699 
4159.8196   17.5200 12286.7500  114.9562    2.4341    2.4979    2.4446    2.6986    0.9300    2.3459    2.3569    2.3217    2.3613   46.8000  144.3000 4124.3101 
4159.9720   17.6300 12363.6201  116.8218    2.4385    2.4932    2.4427    2.6955    2.7000    2.3265    2.3431    2.3009    2.3475   36.9000  142.8000 4124.4600 
4160.1244   17.6200 12358.8604  118.8452    2.4081    2.4774    2.4234    2.6850    4.3500    2.3710    2.3583    2.3306    2.3565   37.0000  141.3000 4124.6099 
4160.2768   17.6300 12360.0000  119.0708    2.4131    2.4709    2.4202    2.6716    5.9300    2.2824    2.3168    2.2619    2.3140   36.8000  139.8000 4124.7500 
4160.4292   17.6300 12363.8203  118.8860    2.4004    2.4639    2.4023    2.6614    7.4000    2.2543    2.2993    2.2302    2.2965   37.1000  139.9000 4124.8999 
4160.5816   17.6600 12381.9404  117.2839    2.3902    2.4520    2.3886    2.6543    9.1400    2.2438    2.2880    2.2156    2.2871   37.3000  140.1000 4125.0498 
4160.7340   17.6300 12367.1201  115.2212    2.3786    2.4442    2.3813    2.6428   10.9300    2.2550    2.2878    2.2192    2.2820   37.3000  140.2000 4125.1899 
4160.8864   17.6300 12363.0498  117.7361    2.3597    2.4264    2.3649    2.6193   11.2700    2.2810    2.2932    2.2336    2.2814   37.5000  140.3000 4125.3398 
4161.0388   17.6400 12369.2803  119.5979    2.3493    2.4134    2.3551    2.6053   11.2300    2.2519    2.2728    2.2152    2.2689   37.7000  140.4000 4125.4902 
4161.1912   17.6300 12368.7695  120.7507    2.3478    2.4018    2.3510    2.5948   11.2600    2.2142    2.2515    2.1922    2.2496   37.7000  140.5000 4125.6299 
4161.3436   17.6600 12385.5596  120.5130    2.3286    2.3880    2.3352    2.5773   11.1700    2.2437    2.2581    2.2110    2.2561   37.7000  140.6000 4125.7900 
4161.4960   17.6400 12372.5898  119.2865    2.3159    2.3720    2.3238    2.5551   11.1800    2.2763    2.2603    2.2336    2.2600   37.8000  140.7000 4125.9399 
4161.6484   17.6400 12375.6396  121.2638    2.3053    2.3577    2.3135    2.5455   11.1800    2.2554    2.2404    2.2143    2.2413   37.8000  140.8000 4126.0898 
4161.8008   17.6500 12378.5703  121.3137    2.2900    2.3437    2.2950    2.5299   11.1800    2.2203    2.2193    2.1853    2.2210   37.9000  140.9000 4126.2402 
4161.9532   17.6400 12374.5000  120.9675    2.2664    2.3285    2.2678    2.5036   11.1800    2.1668    2.1900    2.1377    2.1898   38.1000  141.0000 4126.3999 
4162.1056   17.6600 12388.3604  119.0248    2.2458    2.3153    2.2467    2.4887   11.2200    2.1177    2.1552    2.0931    2.1557   38.2000  141.1000 4126.5498 
4162.2580   17.6700 12397.3799  120.1218    2.2172    2.2980    2.2286    2.4665   11.3400    2.1379    2.1538    2.1018    2.1506   38.2000  141.2000 4126.7002 
4162.4104   17.6500 12385.1797  120.8474    2.2100    2.2873    2.2134    2.4535   11.4700    2.1212    2.1403    2.0955    2.1364   38.2000  141.3000 4126.8501 
4162.5628   17.6600 12392.1699  120.4285    2.2099    2.2831    2.2078    2.4459   11.5300    2.0857    2.1190    2.0646    2.1170   38.2000  141.4000 4127.0000 
