~VERSION INFORMATION
 VERS.                 2.0:   CWLS LOG ASCII STANDARD - VERSION 2.0
 WRAP.                  NO:   SINGLE LINE PER DEPTH STEP
 CREA.                 01/06/2017 16:04:44
#CREATED USING IP VERSION 4.1.2012.198 BY MINHC ON 01/06/2017 16:04:44
~WELL INFORMATION
#MNEM.UNIT       DATA                          DESCRIPTION MNEMONIC
#---------      ---------------------------   --------------------------
 STRT    .M         2860.0000                 : START DEPTH
 STOP    .M         4644.2993                 : STOP DEPTH
 STEP    .M         0.1524                    : STEP VALUE
 NULL    .      -999.0000                     : NULL VALUE
 SRVC    .      SCH                           : Service Company/Logging company
 DATE    .      01/06/2017                    : LAS file Creation Date
 WELL    .      05-2-HT-9P                    : Well Name
 COMP    .      Bien Dong Petroleum Operating : Company
 FLD     .      Hai Thach                     : Field
 LOC     .      WHP-HT1                       : Location
 LATI    .      0                             : Latitude/Northing
 LONG    .      0                             : Longitude/Easting
 RWS     .      -999                          : Def_Rw
 WST     .      -999                          : Def_Rwt
 PROV    .      Unused                        : Province
 SRVC    .      SCH                           : Contractor
~CURVE INFORMATION
#MNEM              UNIT       API CODE     Description
#----------  --------------- ----------  --------------
 DEPTH      .M                         : 
 ACTECDM    .ppg                       : 
 APRESM     .psi                       : 
 GR1CFM     .API                       : Gamma Ray
 RACEHM     .ohm.m                     : 
 RACELM     .ohm.m                     : 
 RACESHM    .ohm.m                     : 
 RACESLM    .ohm.m                     : 
 ROP_AVG    .m/hr                      : 
 RPCEHM     .ohm.m                     : 
 RPCELM     .ohm.m                     : 
 RPCESHM    .ohm.m                     : 
 RPCESLM    .ohm.m                     : 
 RPTHM      .min                       : 
 TCDM       .degC                      : 
 TVD        .m                         : True vertical thickness
~A  DEPTH  ACTECDM    APRESM    GR1CFM    RACEHM    RACELM   RACESHM   RACESLM   ROP_AVG    RPCEHM    RPCELM   RPCESHM   RPCESLM    RPTHM      TCDM      TVD    
# ...
3690.2752   17.8400 11105.9199  109.0978    2.7650    2.7444    2.8180    3.0260   11.7300    2.8407    2.7503    2.7834    2.7685   36.1000  127.6000 3662.1201 
3690.4276   17.8100 11087.2900  107.4752    2.7666    2.7375    2.8021    3.0026   11.9800    2.8575    2.7512    2.8020    2.7661   36.5000  127.6000 3662.2700 
3690.5800   17.8300 11097.9102  105.8502    2.7140    2.7208    2.7483    2.9672   11.9800    2.8504    2.7209    2.7867    2.7294   36.6000  127.7000 3662.4199 
3690.7324   17.8400 11104.0098  109.4121    2.6774    2.7052    2.6995    2.9390   11.9600    2.6698    2.6258    2.6199    2.6348   36.6000  127.7000 3662.5701 
3690.8848   17.8500 11109.2900  113.6290    2.6190    2.6868    2.6351    2.9122   11.9900    2.5689    2.5637    2.5190    2.5699   36.6000  127.7000 3662.7200 
3691.0372   17.8600 11115.6504  116.7161    2.5840    2.6666    2.5867    2.8851   12.0000    2.4864    2.5124    2.4457    2.5128   36.6000  127.7000 3662.8701 
3691.1896   17.8300 11099.2402  115.9626    2.5508    2.6495    2.5446    2.8457   11.9700    2.4669    2.4870    2.4209    2.4795   36.7000  127.7000 3663.0100 
3691.3420   17.8500 11115.5195  116.5474    2.5364    2.6354    2.5268    2.8319   11.9800    2.4785    2.4843    2.4246    2.4698   36.7000  127.7000 3663.1599 
3691.4944   17.8500 11111.8301  115.5010    2.5310    2.6249    2.5251    2.8093   11.9800    2.4933    2.4837    2.4345    2.4704   36.7000  127.8000 3663.3101 
3691.6468   17.8600 11118.7002  117.2642    2.5365    2.6171    2.5303    2.7999   11.9800    2.5030    2.4853    2.4510    2.4786   36.8000  127.8000 3663.4600 
3691.7992   17.8700 11127.8496  111.6169    2.5460    2.6145    2.5429    2.8050   11.9900    2.5051    2.4873    2.4646    2.4864   36.8000  127.8000 3663.6201 
3691.9516   17.8600 11118.9502  111.6783    2.5477    2.6104    2.5557    2.8089   11.4300    2.5256    2.4983    2.4834    2.4992   36.6000  127.8000 3663.7700 
3692.1040   17.8700 11130.1396  114.4857    2.5396    2.6130    2.5590    2.8175   11.3600    2.5554    2.5129    2.5060    2.5140   36.6000  127.8000 3663.9199 
3692.2564   17.8700 11130.9102  115.4854    2.5496    2.6185    2.5692    2.8228   11.1400    2.5408    2.5084    2.4960    2.5140   36.5000  127.9000 3664.0701 
3692.4088   17.8600 11121.3701  115.8746    2.5599    2.6243    2.5752    2.8335   11.1500    2.5306    2.5057    2.4919    2.5152   36.5000  127.9000 3664.2300 
3692.5612   17.8700 11127.4697  114.1086    2.5670    2.6314    2.5762    2.8377   11.2700    2.5412    2.5126    2.5045    2.5227   36.4000  127.9000 3664.3799 
3692.7136   17.8800 11137.5801  110.6549    2.5631    2.6397    2.5789    2.8485   11.3800    2.5698    2.5280    2.5237    2.5353   36.4000  127.9000 3664.5300 
3692.8660   17.8700 11132.8096  110.1212    2.5580    2.6428    2.5816    2.8515   11.4400    2.5924    2.5406    2.5403    2.5460   36.4000  127.9000 3664.6799 
3693.0184   17.8900 11140.4404  115.1856    2.5602    2.6548    2.5847    2.8568   11.2300    2.5787    2.5360    2.5336    2.5412   36.2000  127.9000 3664.8401 
3693.1708   17.8500 11118.3203  114.2994    2.5681    2.6649    2.5820    2.8673   11.1700    2.5395    2.5238    2.5075    2.5274   36.1000  128.0000 3664.9900 
3693.3232   17.8300 11107.7598  117.2672    2.5818    2.6764    2.5813    2.8694   11.1600    2.4966    2.5087    2.4705    2.5102   35.9000  128.0000 3665.1399 
3693.4756   17.8200 11103.2500  115.0108    2.5847    2.6832    2.5856    2.8782   10.9100    2.4853    2.5031    2.4571    2.5028   35.8000  128.0000 3665.2900 
3693.6280   17.8000 11090.8496  110.1023    2.5532    2.6845    2.5587    2.8783   11.0700    2.5564    2.5308    2.5245    2.5275   35.7000  128.0000 3665.4500 
3693.7804   17.8100 11097.1504  109.6309    2.5338    2.6943    2.5443    2.8761   11.2300    2.5528    2.5364    2.5218    2.5333   35.7000  128.0000 3665.5901 
3693.9328   17.8100 11098.0996  112.0756    2.5559    2.7111    2.5524    2.8993   11.4200    2.4367    2.4887    2.4245    2.4848   35.7000  128.0000 3665.7400 
3694.0852   17.8100 11098.8604  107.9790    2.5639    2.7294    2.5468    2.9019   11.5900    2.4272    2.4847    2.4127    2.4782   35.7000  128.0000 3665.8899 
3694.2376   17.8100 11098.6104  103.5641    2.5635    2.7435    2.5365    2.9138   11.7500    2.5024    2.5246    2.4724    2.5115   35.7000  128.1000 3666.0400 
3694.3900   17.8200 11101.5303  101.7952    2.5850    2.7680    2.5506    2.9335   11.9200    2.5741    2.5678    2.5323    2.5460   35.6000  128.1000 3666.1899 
3694.5424   17.8200 11101.1504  104.3805    2.6120    2.7922    2.5710    2.9575   12.0300    2.6160    2.5938    2.5475    2.5655   35.6000  128.1000 3666.3401 
3694.6948   17.8200 11105.9199  110.9411    2.6304    2.8270    2.5966    2.9955   12.0000    2.5353    2.5684    2.4643    2.5403   35.6000  128.1000 3666.4900 
3694.8472   17.8300 11112.3398  115.5862    2.6659    2.8659    2.6455    3.0524   12.0300    2.3872    2.5223    2.3494    2.4991   35.6000  128.1000 3666.6399 
3694.9996   17.8300 11111.0703  120.5596    2.6985    2.9027    2.6887    3.1044   12.0200    2.3924    2.5470    2.3805    2.5295   35.5000  128.1000 3666.7900 
3695.1520   17.8800 11141.0098  114.5006    2.7726    2.9469    2.7608    3.1613   12.0200    2.4667    2.6007    2.4484    2.5917   35.5000  128.1000 3666.9399 
3695.3044   17.8700 11136.1201  101.8473    2.8510    2.9927    2.8454    3.2284   12.0400    2.7328    2.7431    2.6582    2.7437   35.5000  128.2000 3667.1001 
3695.4568   17.8700 11135.4805   88.7545    2.9122    3.0309    2.9123    3.2748   11.9300    3.1187    2.9470    3.0003    2.9487   35.4000  128.2000 3667.2500 
3695.6092   17.8300 11113.9297   79.6987    2.9770    3.0833    2.9900    3.3395   11.8200    3.3698    3.0907    3.2712    3.1000   35.4000  128.2000 3667.3999 
3695.7616   17.8400 11117.2998   81.1477    3.0473    3.1487    3.0785    3.4234   11.8400    3.3394    3.1304    3.2897    3.1425   35.3000  128.2000 3667.5500 
3695.9140   17.8200 11106.6797   85.2493    3.1181    3.2137    3.1625    3.4981   11.8600    3.2744    3.1428    3.2453    3.1626   35.3000  128.2000 3667.7100 
3696.0664   17.8100 11103.2500   93.9405    3.1941    3.2780    3.2643    3.5990   11.9000    3.1701    3.1381    3.1540    3.1633   35.3000  128.2000 3667.8601 
3696.2188   17.8300 11115.1396   97.4707    3.2662    3.3378    3.3551    3.6988   11.8800    3.1696    3.1703    3.1669    3.2025   35.2000  128.3000 3668.0100 
3696.3712   17.8300 11118.7002   90.5980    3.3097    3.3868    3.3860    3.7559   11.8100    3.2759    3.2464    3.2783    3.2843   35.2000  128.3000 3668.1599 
3696.5236   17.8200 11112.7197   84.8212    3.3642    3.4284    3.4207    3.7942   11.7400    3.4238    3.3399    3.3984    3.3642   35.1000  128.3000 3668.3201 
3696.6760   17.8100 11104.2002   83.0305    3.4423    3.4712    3.5013    3.8683   11.7300    3.6350    3.4560    3.5389    3.4892   35.0000  128.3000 3668.4700 
3696.8284   17.8100 11104.5801   78.2076    3.4320    3.4801    3.5305    3.8834   11.6500    4.0600    3.6345    3.9571    3.6985   35.0000  128.3000 3668.6201 
3696.9808   17.7900 11095.2100   87.3711    3.4938    3.5203    3.5980    3.9276   10.6300    3.8595    3.5926    3.8537    3.6353   34.5000  128.3000 3668.7700 
3697.1332   17.8200 11109.3496   89.0918    3.5315    3.5463    3.6104    3.9493    9.4700    3.6447    3.5154    3.6502    3.5445   33.5000  128.4000 3668.9199 
3697.2856   17.8200 11113.1699   83.3744    3.5102    3.5392    3.5568    3.9294    9.3100    3.6091    3.5054    3.6076    3.5233   33.5000  128.4000 3669.0701 
3697.4380   17.8100 11106.4902   82.1854    3.4773    3.5207    3.5161    3.9298    9.1800    3.6180    3.4915    3.5824    3.5073   33.4000  128.4000 3669.2100 
3697.5904   17.8100 11107.4404   79.7172    3.4040    3.4770    3.4634    3.8608    9.4100    3.5911    3.4546    3.5311    3.4513   83.8000  128.4000 3669.3601 
3697.7428   17.8000 11098.4805   70.8077    3.3393    3.4347    3.4079    3.8153    9.8700    3.5000    3.3933    3.4456    3.3914  121.6000  128.4000 3669.5200 
